InitialVarHeader,InitialVars,logNo,timeStep,controlMode,forwardSensor1,forwardSensor2,AltitudeSensor,throttleControl,yawControl,rollControl,pitchControl,stablilityModeControl,errorP,errorI,errorD
ALTITUDE_KP,0.5,6,2721,0,-12398.0,0.0,324.0,1000,0,0,0,0,0.0,0.0,0.0
ALTITUDE_KI,0.25,11,2771,0,-12398.0,0.0,316.0,1000,0,0,0,0,0.0,0.0,0.0
ALTITUDE_KD,0.03,16,2821,0,792.0,0.0,316.0,1800,0,0,0,0,442.0,11.03,8840.0
THROTTLE_LIMIT,1800.0,21,2871,0,792.0,0.0,316.0,1464,0,0,0,0,442.0,22.0,0.0
ALTITUDE_PID_GAIN_RATIO,0.5,26,2922,0,846.0,0.0,316.0,1475,0,0,0,0,442.0,33.28,0.0
ALTITUDE_HOVER_HEIGHT,1200.0,31,2972,0,900.0,0.0,332.0,1318,0,0,0,0,434.0,44.19,-160.0
0,0,36,3022,0,900.0,0.0,324.0,1573,0,0,0,0,438.0,55.16,80.0
0,0,41,3072,0,900.0,0.0,320.0,1546,0,0,0,0,440.0,66.14,40.0
0,0,46,3122,0,900.0,0.0,324.0,1475,0,0,0,0,438.0,77.12,-40.0
0,0,51,3172,0,900.0,0.0,316.0,1610,0,0,0,0,442.0,88.13,80.0
0,0,56,3222,0,900.0,0.0,312.0,1583,0,0,0,0,444.0,99.16,40.0
0,0,61,3273,0,900.0,0.0,312.0,1554,0,0,0,0,444.0,110.48,0.0
0,0,66,3323,0,900.0,0.0,328.0,1397,0,0,0,0,436.0,121.44,-160.0
0,0,71,3373,0,900.0,0.0,316.0,1694,0,0,0,0,442.0,132.43,120.0
0,0,76,3424,0,900.0,0.0,316.0,1585,0,0,0,0,442.0,143.65,0.0
0,0,81,3474,0,1348.0,0.0,324.0,1512,0,0,0,0,438.0,154.68,-80.0
0,0,86,3524,0,1348.0,0.0,316.0,1687,0,0,0,0,442.0,165.6,80.0
0,0,91,3574,0,1360.0,0.0,316.0,1618,0,0,0,0,442.0,176.7,0.0
0,0,96,3624,0,1360.0,0.0,316.0,1629,0,0,0,0,442.0,187.7,0.0
0,0,101,3674,0,1360.0,0.0,324.0,1556,0,0,0,0,438.0,198.7,-80.0
0,0,106,3724,0,1360.0,0.0,320.0,1689,0,0,0,0,440.0,209.7,40.0
0,0,111,3775,0,1348.0,0.0,324.0,1618,0,0,0,0,438.0,220.9,-40.0
0,0,116,3825,0,1348.0,0.0,336.0,1543,0,0,0,0,432.0,231.8,-120.0
0,0,121,3875,0,1348.0,0.0,316.0,1800,0,0,0,0,442.0,242.8,200.0
0,0,126,3926,0,1348.0,0.0,316.0,1696,0,0,0,0,442.0,254.1,0.0
0,0,131,3976,0,1340.0,0.0,316.0,1707,0,0,0,0,442.0,265.2,0.0
0,0,136,4026,0,1340.0,0.0,312.0,1760,0,0,0,0,444.0,276.3,40.0
0,0,141,4076,0,1336.0,0.0,324.0,1605,0,0,0,0,438.0,287.3,-120.0
0,0,146,4126,0,1336.0,0.0,324.0,1736,0,0,0,0,438.0,298.2,0.0
0,0,151,4176,0,1336.0,0.0,320.0,1789,0,0,0,0,440.0,309.2,40.0
0,0,156,4226,0,1336.0,0.0,316.0,1800,0,0,0,0,442.0,320.2,40.0
0,0,161,4277,0,1336.0,0.0,324.0,1693,0,0,0,0,438.0,331.4,-76.36
0,0,166,4327,0,1336.0,0.0,324.0,1780,0,0,0,0,438.0,342.4,0.0
0,0,171,4377,0,1336.0,0.0,304.0,1800,0,0,0,0,448.0,353.5,200.0
0,0,176,4427,0,1336.0,0.0,328.0,1560,0,0,0,0,436.0,364.5,-240.0
0,0,181,4478,0,1336.0,0.0,324.0,1800,0,0,0,0,438.0,375.7,40.0
0,0,186,4528,0,1336.0,0.0,324.0,1800,0,0,0,0,438.0,386.7,0.0
0,0,191,4578,0,1360.0,0.0,324.0,1800,0,0,0,0,438.0,397.6,0.0
0,0,196,4628,0,1360.0,0.0,324.0,1800,0,0,0,0,438.0,408.5,0.0
0,0,201,4678,0,1360.0,0.0,320.0,1800,0,0,0,0,440.0,419.5,40.0
0,0,206,4728,0,1360.0,0.0,320.0,1800,0,0,0,0,440.0,430.5,0.0
0,0,211,4779,0,1344.0,0.0,316.0,1800,0,0,0,0,442.0,441.7,36.36
0,0,216,4829,0,1344.0,0.0,332.0,1726,0,0,0,0,434.0,452.7,-160.0
0,0,221,4879,0,1344.0,0.0,328.0,1800,0,0,0,0,436.0,463.6,40.0
0,0,226,4929,1,1344.0,0.0,324.0,1480,0,0,0,0,438.0,2.19,40.0
0,0,231,4980,1,1360.0,0.0,332.0,1359,0,0,0,0,434.0,2.169,-76.36
0,0,236,5030,1,1368.0,0.0,324.0,1520,0,0,0,0,438.0,2.19,80.0
0,0,241,5080,1,1368.0,0.0,316.0,1524,0,0,0,0,442.0,2.21,80.0
0,0,246,5130,1,1372.0,0.0,324.0,1360,0,0,0,0,438.0,2.19,-80.0
0,0,251,5180,1,1372.0,0.0,324.0,1440,0,0,0,0,438.0,2.19,0.0
0,0,256,5230,1,1372.0,0.0,320.0,1482,0,0,0,0,440.0,2.2,40.0
0,0,261,5280,1,1372.0,0.0,324.0,1400,0,0,0,0,438.0,2.19,-40.0
0,0,266,5331,1,1376.0,0.0,324.0,1440,0,0,0,0,438.0,2.19,0.0
0,0,271,5381,1,1376.0,0.0,316.0,1524,0,0,0,0,442.0,2.21,80.0
0,0,276,5431,1,1384.0,0.0,320.0,1402,0,0,0,0,440.0,2.2,-40.0
0,0,281,5482,1,1384.0,0.0,324.0,1400,0,0,0,0,438.0,2.19,-40.0
0,0,286,5532,1,1400.0,0.0,328.0,1398,0,0,0,0,436.0,2.18,-40.0
0,0,291,5582,1,1400.0,0.0,316.0,1564,0,0,0,0,442.0,2.21,120.0
0,0,296,5632,1,1436.0,0.0,316.0,1444,0,0,0,0,442.0,2.21,0.0
0,0,301,5682,1,1436.0,0.0,328.0,1318,0,0,0,0,436.0,2.18,-120.0
0,0,306,5732,1,1436.0,0.0,328.0,1438,0,0,0,0,436.0,2.18,0.0
0,0,311,5782,1,1436.0,0.0,332.0,1396,0,0,0,0,434.0,2.169,-40.0
0,0,316,5833,1,1436.0,0.0,324.0,1520,0,0,0,0,438.0,2.19,80.0
0,0,321,5883,1,1436.0,0.0,320.0,1482,0,0,0,0,440.0,2.2,40.0
0,0,326,5933,1,1436.0,0.0,316.0,1484,0,0,0,0,442.0,2.21,40.0
0,0,331,5984,1,1436.0,0.0,332.0,1279,0,0,0,0,434.0,2.169,-156.36
0,0,336,6034,1,1436.0,0.0,320.0,1562,0,0,0,0,440.0,2.2,120.0
0,0,341,6084,1,1436.0,0.0,324.0,1400,0,0,0,0,438.0,2.19,-40.0
0,0,346,6134,1,1432.0,0.0,324.0,1440,0,0,0,0,438.0,2.19,0.0
0,0,351,6184,1,1432.0,0.0,324.0,1440,0,0,0,0,438.0,2.19,0.0
0,0,356,6234,1,1432.0,0.0,324.0,1440,0,0,0,0,438.0,2.19,0.0
0,0,361,6284,1,1432.0,0.0,320.0,1482,0,0,0,0,440.0,2.2,40.0
0,0,366,6335,1,1432.0,0.0,336.0,1274,0,0,0,0,432.0,2.159,-160.0
0,0,371,6385,1,1432.0,0.0,324.0,1560,0,0,0,0,438.0,2.19,120.0
0,0,376,6435,1,1432.0,0.0,316.0,1524,0,0,0,0,442.0,2.21,80.0
0,0,381,6486,1,1432.0,0.0,316.0,1444,0,0,0,0,442.0,2.431,0.0
0,0,386,6536,1,1432.0,0.0,324.0,1360,0,0,0,0,438.0,2.19,-80.0
0,0,391,6586,1,1432.0,0.0,328.0,1398,0,0,0,0,436.0,2.18,-40.0
0,0,396,6636,1,1432.0,0.0,328.0,1438,0,0,0,0,436.0,2.18,0.0
0,0,401,6686,1,1432.0,0.0,324.0,1480,0,0,0,0,438.0,2.19,40.0
0,0,406,6736,1,1436.0,0.0,324.0,1440,0,0,0,0,438.0,2.19,0.0
0,0,411,6786,1,1436.0,0.0,320.0,1482,0,0,0,0,440.0,2.2,40.0
0,0,416,6837,1,1432.0,0.0,332.0,1323,0,0,0,0,434.0,2.169,-112.72
0,0,421,6887,1,1432.0,0.0,324.0,1520,0,0,0,0,438.0,2.19,80.0
0,0,426,6937,1,1344.0,0.0,328.0,1398,0,0,0,0,436.0,2.18,-40.0
0,0,431,6987,1,1344.0,0.0,324.0,1480,0,0,0,0,438.0,2.19,40.0
0,0,436,7038,1,1344.0,0.0,320.0,1482,0,0,0,0,440.0,2.2,40.0
0,0,441,7088,1,1344.0,0.0,332.0,1316,0,0,0,0,434.0,2.169,-120.0
0,0,446,7138,1,1380.0,0.0,320.0,1562,0,0,0,0,440.0,2.2,120.0
0,0,451,7188,1,1380.0,0.0,324.0,1400,0,0,0,0,438.0,2.19,-40.0
0,0,456,7238,1,1344.0,0.0,324.0,1440,0,0,0,0,438.0,2.19,0.0
0,0,461,7288,1,1344.0,0.0,316.0,1524,0,0,0,0,442.0,2.21,80.0
0,0,466,7339,1,1344.0,0.0,316.0,1444,0,0,0,0,442.0,2.431,0.0
0,0,471,7389,1,1324.0,0.0,320.0,1402,0,0,0,0,440.0,2.2,-40.0
0,0,476,7439,1,1324.0,0.0,328.0,1358,0,0,0,0,436.0,2.18,-80.0
0,0,481,7489,1,1324.0,0.0,320.0,1522,0,0,0,0,440.0,2.2,80.0
0,0,486,7540,1,1324.0,0.0,324.0,1400,0,0,0,0,438.0,2.19,-40.0
0,0,491,7590,1,1324.0,0.0,328.0,1398,0,0,0,0,436.0,2.18,-40.0
0,0,496,7640,1,1324.0,0.0,328.0,1438,0,0,0,0,436.0,2.18,0.0
0,0,501,7690,1,1432.0,0.0,316.0,1564,0,0,0,0,442.0,2.21,120.0
0,0,506,7740,1,1432.0,0.0,328.0,1318,0,0,0,0,436.0,2.18,-120.0
0,0,511,7790,1,1436.0,0.0,332.0,1396,0,0,0,0,434.0,2.169,-40.0
0,0,516,7840,1,1436.0,0.0,324.0,1520,0,0,0,0,438.0,2.19,80.0
0,0,521,7891,1,1436.0,0.0,324.0,1440,0,0,0,0,438.0,2.19,0.0
0,0,526,7941,1,1436.0,0.0,332.0,1356,0,0,0,0,434.0,2.169,-80.0
0,0,531,7991,1,1432.0,0.0,328.0,1478,0,0,0,0,436.0,2.18,40.0
0,0,536,8042,1,1432.0,0.0,324.0,1476,0,0,0,0,438.0,2.19,36.36
0,0,541,8092,1,1396.0,0.0,332.0,1356,0,0,0,0,434.0,2.169,-80.0
0,0,546,8142,1,1396.0,0.0,324.0,1520,0,0,0,0,438.0,2.19,80.0
0,0,551,8192,1,1124.0,0.0,316.0,1524,0,0,0,0,442.0,2.21,80.0
0,0,556,8242,1,1124.0,0.0,320.0,1402,0,0,0,0,440.0,2.2,-40.0
0,0,561,8292,1,1116.0,0.0,328.0,1358,0,0,0,0,436.0,2.18,-80.0
0,0,566,8342,1,1116.0,0.0,332.0,1396,0,0,0,0,434.0,2.169,-40.0
0,0,571,8393,1,1100.0,0.0,320.0,1551,0,0,0,0,440.0,2.2,109.09
0,0,576,8443,1,1100.0,0.0,324.0,1400,0,0,0,0,438.0,2.19,-40.0
0,0,581,8493,1,1116.0,0.0,328.0,1398,0,0,0,0,436.0,2.18,-40.0
0,0,586,8544,1,1116.0,0.0,320.0,1518,0,0,0,0,440.0,2.2,76.36
0,0,591,8594,1,1124.0,0.0,336.0,1274,0,0,0,0,432.0,2.159,-160.0
0,0,596,8644,1,1124.0,0.0,320.0,1602,0,0,0,0,440.0,2.2,160.0
0,0,601,8694,1,1128.0,0.0,328.0,1358,0,0,0,0,436.0,2.18,-80.0
0,0,606,8744,1,1128.0,0.0,328.0,1438,0,0,0,0,436.0,2.18,0.0
0,0,611,8794,1,1168.0,0.0,316.0,1564,0,0,0,0,442.0,2.21,120.0
0,0,616,8844,1,1168.0,0.0,332.0,1276,0,0,0,0,434.0,2.169,-160.0
0,0,621,8895,1,1208.0,0.0,328.0,1478,0,0,0,0,436.0,2.18,40.0
0,0,626,8945,1,1208.0,0.0,328.0,1438,0,0,0,0,436.0,2.18,0.0
0,0,631,8995,1,1288.0,0.0,328.0,1438,0,0,0,0,436.0,2.18,0.0
0,0,636,9046,1,1288.0,0.0,328.0,1438,0,0,0,0,436.0,2.398,0.0
0,0,641,9096,1,1316.0,0.0,328.0,1438,0,0,0,0,436.0,2.18,0.0
0,0,646,9146,1,1316.0,0.0,324.0,1480,0,0,0,0,438.0,2.19,40.0
0,0,651,9196,1,1316.0,0.0,324.0,1440,0,0,0,0,438.0,2.19,0.0
0,0,656,9246,1,1316.0,0.0,328.0,1398,0,0,0,0,436.0,2.18,-40.0
0,0,661,9296,1,1288.0,0.0,332.0,1396,0,0,0,0,434.0,2.169,-40.0
0,0,666,9346,1,404.0,0.0,328.0,1478,0,0,0,0,436.0,2.18,40.0
0,0,671,9397,1,404.0,0.0,316.0,1564,0,0,0,0,442.0,2.21,120.0
0,0,676,9447,1,404.0,0.0,320.0,1402,0,0,0,0,440.0,2.2,-40.0
0,0,681,9497,1,404.0,0.0,320.0,1442,0,0,0,0,440.0,2.2,0.0
0,0,686,9547,1,404.0,0.0,328.0,1358,0,0,0,0,436.0,2.18,-80.0
0,0,691,9598,1,404.0,0.0,324.0,1480,0,0,0,0,438.0,2.19,40.0
0,0,696,9648,1,412.0,0.0,324.0,1440,0,0,0,0,438.0,2.19,0.0
0,0,701,9698,1,412.0,0.0,328.0,1398,0,0,0,0,436.0,2.18,-40.0
0,0,706,9748,1,1420.0,0.0,328.0,1438,0,0,0,0,436.0,2.18,0.0
0,0,711,9798,1,1420.0,0.0,324.0,1480,0,0,0,0,438.0,2.19,40.0
0,0,716,9848,1,1420.0,0.0,316.0,1524,0,0,0,0,442.0,2.21,80.0
0,0,721,9899,1,1420.0,0.0,324.0,1360,0,0,0,0,438.0,2.409,-80.0
0,0,726,9949,1,1420.0,0.0,324.0,1440,0,0,0,0,438.0,2.19,0.0
0,0,731,9999,1,1420.0,0.0,324.0,1440,0,0,0,0,438.0,2.19,0.0
0,0,736,10049,1,1420.0,0.0,320.0,1482,0,0,0,0,440.0,2.2,40.0
0,0,741,10100,1,1420.0,0.0,324.0,1403,0,0,0,0,438.0,2.19,-36.36
0,0,746,10150,1,1420.0,0.0,328.0,1398,0,0,0,0,436.0,2.18,-40.0
0,0,751,10200,1,1420.0,0.0,324.0,1480,0,0,0,0,438.0,2.19,40.0
0,0,756,10250,1,1420.0,0.0,324.0,1440,0,0,0,0,438.0,2.19,0.0
0,0,761,10300,1,1420.0,0.0,324.0,1440,0,0,0,0,438.0,2.19,0.0
0,0,766,10350,1,1420.0,0.0,320.0,1482,0,0,0,0,440.0,2.2,40.0
0,0,771,10400,1,1420.0,0.0,324.0,1400,0,0,0,0,438.0,2.19,-40.0
0,0,776,10451,1,732.0,0.0,328.0,1398,0,0,0,0,436.0,2.18,-40.0
0,0,781,10501,1,732.0,0.0,320.0,1522,0,0,0,0,440.0,2.2,80.0
0,0,786,10551,1,732.0,0.0,316.0,1484,0,0,0,0,442.0,2.21,40.0
0,0,791,10602,1,732.0,0.0,328.0,1321,0,0,0,0,436.0,2.18,-116.36
0,0,796,10652,1,732.0,0.0,324.0,1480,0,0,0,0,438.0,2.19,40.0
0,0,801,10702,1,732.0,0.0,324.0,1440,0,0,0,0,438.0,2.19,0.0
0,0,806,10752,1,732.0,0.0,332.0,1356,0,0,0,0,434.0,2.169,-80.0
0,0,811,10802,1,732.0,0.0,328.0,1478,0,0,0,0,436.0,2.18,40.0
0,0,816,10852,1,1416.0,0.0,328.0,1438,0,0,0,0,436.0,2.18,0.0
0,0,821,10902,1,1416.0,0.0,320.0,1522,0,0,0,0,440.0,2.2,80.0
0,0,826,10953,1,1416.0,0.0,316.0,1480,0,0,0,0,442.0,2.21,36.36
0,0,831,11003,1,1416.0,0.0,316.0,1444,0,0,0,0,442.0,2.21,0.0
0,0,836,11053,1,1416.0,0.0,320.0,1402,0,0,0,0,440.0,2.2,-40.0
0,0,841,11104,1,1416.0,0.0,324.0,1392,0,0,0,0,438.0,2.19,-47.27
0,0,846,11154,1,1412.0,0.0,328.0,1398,0,0,0,0,436.0,2.18,-40.0
0,0,851,11204,1,1412.0,0.0,316.0,1564,0,0,0,0,442.0,2.21,120.0
0,0,856,11254,1,1372.0,0.0,324.0,1360,0,0,0,0,438.0,2.19,-80.0
0,0,861,11304,1,1372.0,0.0,312.0,1566,0,0,0,0,444.0,2.22,120.0
0,0,866,11354,1,824.0,0.0,320.0,1362,0,0,0,0,440.0,2.2,-80.0
0,0,871,11404,1,824.0,0.0,324.0,1400,0,0,0,0,438.0,2.19,-40.0
0,0,876,11455,1,828.0,0.0,328.0,1398,0,0,0,0,436.0,2.18,-40.0
0,0,881,11505,1,824.0,0.0,324.0,1480,0,0,0,0,438.0,2.19,40.0
0,0,886,11555,1,824.0,0.0,316.0,1524,0,0,0,0,442.0,2.21,80.0
0,0,891,11606,1,824.0,0.0,316.0,1440,0,0,0,0,442.0,2.431,-3.636
0,0,896,11656,1,824.0,0.0,324.0,1360,0,0,0,0,438.0,2.19,-80.0
0,0,901,11706,1,828.0,0.0,332.0,1356,0,0,0,0,434.0,2.169,-80.0
0,0,906,11756,1,828.0,0.0,316.0,1604,0,0,0,0,442.0,2.21,160.0
0,0,911,11806,1,864.0,0.0,316.0,1444,0,0,0,0,442.0,2.21,0.0
0,0,916,11856,1,864.0,0.0,324.0,1360,0,0,0,0,438.0,2.19,-80.0
0,0,921,11906,1,864.0,0.0,324.0,1440,0,0,0,0,438.0,2.19,0.0
0,0,926,11957,1,864.0,0.0,324.0,1440,0,0,0,0,438.0,2.19,0.0
0,0,931,12007,1,864.0,0.0,328.0,1398,0,0,0,0,436.0,2.18,-40.0
0,0,936,12057,1,864.0,0.0,324.0,1480,0,0,0,0,438.0,2.19,40.0
0,0,941,12107,1,788.0,0.0,320.0,1482,0,0,0,0,440.0,2.2,40.0
0,0,946,12158,1,788.0,0.0,316.0,1491,0,0,0,0,442.0,2.21,47.27
0,0,951,12208,1,600.0,0.0,328.0,1318,0,0,0,0,436.0,2.18,-120.0
0,0,956,12258,1,600.0,0.0,324.0,1480,0,0,0,0,438.0,2.19,40.0
0,0,961,12308,1,424.0,0.0,320.0,1482,0,0,0,0,440.0,2.2,40.0
0,0,966,12358,1,424.0,0.0,316.0,1484,0,0,0,0,442.0,2.21,40.0
0,0,971,12408,1,424.0,0.0,320.0,1402,0,0,0,0,440.0,2.2,-40.0
0,0,976,12459,1,424.0,0.0,320.0,1438,0,0,0,0,440.0,2.42,-3.636
0,0,981,12509,1,420.0,0.0,320.0,1442,0,0,0,0,440.0,2.2,0.0
0,0,986,12559,1,420.0,0.0,316.0,1484,0,0,0,0,442.0,2.21,40.0
0,0,991,12609,1,424.0,0.0,324.0,1360,0,0,0,0,438.0,2.19,-80.0
0,0,996,12660,1,424.0,0.0,320.0,1478,0,0,0,0,440.0,2.2,36.36
0,0,1001,12710,1,1352.0,0.0,316.0,1484,0,0,0,0,442.0,2.21,40.0
0,0,1006,12760,1,1352.0,0.0,324.0,1360,0,0,0,0,438.0,2.19,-80.0
0,0,1011,12810,1,1372.0,0.0,324.0,1440,0,0,0,0,438.0,2.19,0.0
0,0,1016,12860,1,1372.0,0.0,328.0,1398,0,0,0,0,436.0,2.18,-40.0
0,0,1021,12910,1,1364.0,0.0,328.0,1438,0,0,0,0,436.0,2.18,0.0
0,0,1026,12960,1,1364.0,0.0,324.0,1480,0,0,0,0,438.0,2.19,40.0
0,0,1031,13011,1,1364.0,0.0,320.0,1482,0,0,0,0,440.0,2.2,40.0
0,0,1036,13061,1,1364.0,0.0,320.0,1442,0,0,0,0,440.0,2.2,0.0
0,0,1041,13111,1,1364.0,0.0,324.0,1400,0,0,0,0,438.0,2.19,-40.0
0,0,1046,13162,1,1364.0,0.0,316.0,1524,0,0,0,0,442.0,2.21,80.0
0,0,1051,13212,1,1356.0,0.0,320.0,1402,0,0,0,0,440.0,2.2,-40.0
0,0,1056,13262,1,1356.0,0.0,316.0,1484,0,0,0,0,442.0,2.21,40.0
0,0,1061,13312,1,1328.0,0.0,316.0,1444,0,0,0,0,442.0,2.21,0.0
0,0,1066,13362,1,1328.0,0.0,316.0,1444,0,0,0,0,442.0,2.21,0.0
0,0,1071,13412,1,1316.0,0.0,316.0,1444,0,0,0,0,442.0,2.21,0.0
0,0,1076,13462,1,1316.0,0.0,324.0,1360,0,0,0,0,438.0,2.19,-80.0
0,0,1081,13513,1,1316.0,0.0,320.0,1485,0,0,0,0,440.0,2.2,43.63
0,0,1086,13563,1,1304.0,0.0,328.0,1358,0,0,0,0,436.0,2.18,-80.0
0,0,1091,13613,1,1304.0,0.0,320.0,1522,0,0,0,0,440.0,2.2,80.0
0,0,1096,13664,1,1032.0,0.0,324.0,1403,0,0,0,0,438.0,2.19,-36.36
0,0,1101,13714,1,1032.0,0.0,316.0,1524,0,0,0,0,442.0,2.21,80.0
0,0,1106,13764,1,860.0,0.0,312.0,1486,0,0,0,0,444.0,2.22,40.0
0,0,1111,13814,1,860.0,0.0,316.0,1404,0,0,0,0,442.0,2.21,-40.0
0,0,1116,13864,1,860.0,0.0,316.0,1444,0,0,0,0,442.0,2.21,0.0
0,0,1121,13914,1,860.0,0.0,320.0,1402,0,0,0,0,440.0,2.2,-40.0
0,0,1126,13964,1,844.0,0.0,320.0,1442,0,0,0,0,440.0,2.2,0.0
0,0,1131,14015,1,844.0,0.0,324.0,1400,0,0,0,0,438.0,2.19,-40.0
0,0,1136,14065,1,816.0,0.0,316.0,1524,0,0,0,0,442.0,2.21,80.0
0,0,1141,14115,1,816.0,0.0,324.0,1360,0,0,0,0,438.0,2.19,-80.0
0,0,1146,14166,1,792.0,0.0,316.0,1524,0,0,0,0,442.0,2.431,80.0
0,0,1151,14216,1,792.0,0.0,316.0,1444,0,0,0,0,442.0,2.21,0.0
0,0,1156,14266,1,788.0,0.0,320.0,1402,0,0,0,0,440.0,2.2,-40.0
0,0,1161,14316,1,788.0,0.0,324.0,1400,0,0,0,0,438.0,2.19,-40.0
0,0,1166,14366,1,788.0,0.0,316.0,1524,0,0,0,0,442.0,2.21,80.0
0,0,1171,14416,1,788.0,0.0,328.0,1318,0,0,0,0,436.0,2.18,-120.0
0,0,1176,14466,1,788.0,0.0,312.0,1606,0,0,0,0,444.0,2.22,160.0
0,0,1181,14517,1,788.0,0.0,328.0,1278,0,0,0,0,436.0,2.18,-160.0
0,0,1186,14567,1,788.0,0.0,316.0,1564,0,0,0,0,442.0,2.21,120.0
0,0,1191,14617,1,788.0,0.0,320.0,1402,0,0,0,0,440.0,2.2,-40.0
0,0,1196,14667,1,788.0,0.0,320.0,1442,0,0,0,0,440.0,2.2,0.0
0,0,1201,14718,1,788.0,0.0,312.0,1526,0,0,0,0,444.0,2.22,80.0
0,0,1206,14768,1,788.0,0.0,312.0,1446,0,0,0,0,444.0,2.22,0.0
0,0,1211,14818,1,788.0,0.0,316.0,1404,0,0,0,0,442.0,2.21,-40.0
0,0,1216,14868,1,1412.0,0.0,316.0,1444,0,0,0,0,442.0,2.21,0.0
0,0,1221,14918,1,1412.0,0.0,312.0,1486,0,0,0,0,444.0,2.22,40.0
0,0,1226,14968,1,1436.0,0.0,316.0,1404,0,0,0,0,442.0,2.21,-40.0
0,0,1231,15019,1,1436.0,0.0,324.0,1364,0,0,0,0,438.0,2.409,-76.36
0,0,1236,15069,1,1436.0,0.0,316.0,1524,0,0,0,0,442.0,2.21,80.0
0,0,1241,15119,1,1436.0,0.0,316.0,1444,0,0,0,0,442.0,2.21,0.0
0,0,1246,15169,1,1436.0,0.0,312.0,1486,0,0,0,0,444.0,2.22,40.0
0,0,1251,15220,1,1436.0,0.0,316.0,1404,0,0,0,0,442.0,2.21,-40.0
0,0,1256,15270,1,1436.0,0.0,316.0,1444,0,0,0,0,442.0,2.21,0.0
0,0,1261,15320,1,1436.0,0.0,316.0,1444,0,0,0,0,442.0,2.21,0.0
0,0,1266,15370,1,1432.0,0.0,320.0,1402,0,0,0,0,440.0,2.2,-40.0
0,0,1271,15420,1,1432.0,0.0,324.0,1400,0,0,0,0,438.0,2.19,-40.0
0,0,1276,15470,1,1420.0,0.0,312.0,1566,0,0,0,0,444.0,2.22,120.0
0,0,1281,15520,1,1420.0,0.0,312.0,1446,0,0,0,0,444.0,2.22,0.0
0,0,1286,15571,1,1420.0,0.0,320.0,1362,0,0,0,0,440.0,2.2,-80.0
0,0,1291,15621,1,1420.0,0.0,316.0,1484,0,0,0,0,442.0,2.21,40.0
0,0,1296,15671,1,1436.0,0.0,312.0,1486,0,0,0,0,444.0,2.22,40.0
0,0,1301,15722,1,1432.0,0.0,312.0,1446,0,0,0,0,444.0,2.22,0.0
0,0,1306,15772,1,1432.0,0.0,320.0,1362,0,0,0,0,440.0,2.2,-80.0
0,0,1311,15822,1,1436.0,0.0,316.0,1484,0,0,0,0,442.0,2.21,40.0
0,0,1316,15872,1,1436.0,0.0,316.0,1444,0,0,0,0,442.0,2.21,0.0
0,0,1321,15922,1,1436.0,0.0,316.0,1444,0,0,0,0,442.0,2.21,0.0
0,0,1326,15972,1,1436.0,0.0,324.0,1360,0,0,0,0,438.0,2.19,-80.0
0,0,1331,16022,1,1436.0,0.0,324.0,1440,0,0,0,0,438.0,2.19,0.0
0,0,1336,16073,1,1436.0,0.0,316.0,1520,0,0,0,0,442.0,2.21,76.36
0,0,1341,16123,1,1432.0,0.0,316.0,1444,0,0,0,0,442.0,2.21,0.0
0,0,1346,16173,1,1432.0,0.0,316.0,1444,0,0,0,0,442.0,2.21,0.0
0,0,1351,16224,1,1380.0,0.0,320.0,1405,0,0,0,0,440.0,2.2,-36.36
0,0,1356,16274,1,1380.0,0.0,304.0,1610,0,0,0,0,448.0,2.24,160.0
0,0,1361,16324,1,696.0,0.0,316.0,1324,0,0,0,0,442.0,2.21,-120.0
0,0,1366,16374,1,696.0,0.0,320.0,1402,0,0,0,0,440.0,2.2,-40.0
0,0,1371,16424,1,696.0,0.0,320.0,1442,0,0,0,0,440.0,2.2,0.0
0,0,1376,16474,1,696.0,0.0,316.0,1484,0,0,0,0,442.0,2.21,40.0
0,0,1381,16524,1,676.0,0.0,320.0,1402,0,0,0,0,440.0,2.2,-40.0
0,0,1386,16575,1,676.0,0.0,316.0,1484,0,0,0,0,442.0,2.21,40.0
0,0,1391,16625,1,676.0,0.0,316.0,1444,0,0,0,0,442.0,2.21,0.0
0,0,1396,16675,1,676.0,0.0,320.0,1402,0,0,0,0,440.0,2.2,-40.0
0,0,1401,16726,1,696.0,0.0,308.0,1564,0,0,0,0,446.0,2.453,116.36
0,0,1406,16776,1,696.0,0.0,308.0,1448,0,0,0,0,446.0,2.23,0.0
0,0,1411,16826,0,708.0,0.0,324.0,1284,0,0,0,0,438.0,6.58,-160.0
0,0,1416,16876,1,708.0,0.0,324.0,1440,0,0,0,0,438.0,2.19,0.0
0,0,1421,16926,1,744.0,0.0,324.0,1440,0,0,0,0,438.0,2.19,0.0
0,0,1426,16976,1,744.0,0.0,320.0,1482,0,0,0,0,440.0,2.2,40.0
0,0,1431,17026,1,764.0,0.0,316.0,1484,0,0,0,0,442.0,2.21,40.0
0,0,1436,17077,1,764.0,0.0,316.0,1444,0,0,0,0,442.0,2.21,0.0
0,0,1441,17127,1,780.0,0.0,312.0,1486,0,0,0,0,444.0,2.22,40.0
0,0,1446,17177,1,780.0,0.0,312.0,1446,0,0,0,0,444.0,2.22,0.0
0,0,1451,17227,1,788.0,0.0,324.0,1320,0,0,0,0,438.0,2.19,-120.0
0,0,1456,17278,1,788.0,0.0,316.0,1516,0,0,0,0,442.0,2.21,72.72
0,0,1461,17328,1,816.0,0.0,324.0,1360,0,0,0,0,438.0,2.19,-80.0
0,0,1466,17378,1,816.0,0.0,320.0,1482,0,0,0,0,440.0,2.2,40.0
0,0,1471,17428,1,816.0,0.0,316.0,1484,0,0,0,0,442.0,2.21,40.0
0,0,1476,17478,1,816.0,0.0,312.0,1486,0,0,0,0,444.0,2.22,40.0
0,0,1481,17528,1,816.0,0.0,320.0,1362,0,0,0,0,440.0,2.2,-80.0
0,0,1486,17579,1,816.0,0.0,312.0,1526,0,0,0,0,444.0,2.442,80.0
0,0,1491,17629,1,816.0,0.0,320.0,1362,0,0,0,0,440.0,2.2,-80.0
0,0,1496,17679,1,816.0,0.0,316.0,1484,0,0,0,0,442.0,2.21,40.0
0,0,1501,17729,1,812.0,0.0,316.0,1444,0,0,0,0,442.0,2.21,0.0
0,0,1506,17780,1,812.0,0.0,316.0,1444,0,0,0,0,442.0,2.21,0.0
0,0,1511,17830,1,812.0,0.0,308.0,1528,0,0,0,0,446.0,2.23,80.0
0,0,1516,17880,1,800.0,0.0,320.0,1322,0,0,0,0,440.0,2.2,-120.0
0,0,1521,17930,1,800.0,0.0,324.0,1400,0,0,0,0,438.0,2.19,-40.0
0,0,1526,17980,1,800.0,0.0,316.0,1524,0,0,0,0,442.0,2.21,80.0
0,0,1531,18030,1,800.0,0.0,320.0,1402,0,0,0,0,440.0,2.2,-40.0
0,0,1536,18080,1,800.0,0.0,312.0,1526,0,0,0,0,444.0,2.22,80.0
0,0,1541,18131,1,800.0,0.0,308.0,1484,0,0,0,0,446.0,2.23,36.36
0,0,1546,18181,1,840.0,0.0,316.0,1364,0,0,0,0,442.0,2.21,-80.0
0,0,1551,18231,1,840.0,0.0,316.0,1444,0,0,0,0,442.0,2.21,0.0
0,0,1556,18282,1,1396.0,0.0,312.0,1486,0,0,0,0,444.0,2.22,40.0
0,0,1561,18332,1,1396.0,0.0,324.0,1320,0,0,0,0,438.0,2.19,-120.0
0,0,1566,18382,1,1396.0,0.0,320.0,1482,0,0,0,0,440.0,2.2,40.0
0,0,1571,18432,1,1396.0,0.0,316.0,1484,0,0,0,0,442.0,2.21,40.0
0,0,1576,18482,1,1396.0,0.0,312.0,1486,0,0,0,0,444.0,2.22,40.0
0,0,1581,18532,1,1396.0,0.0,320.0,1362,0,0,0,0,440.0,2.2,-80.0
0,0,1586,18582,1,1396.0,0.0,316.0,1484,0,0,0,0,442.0,2.21,40.0
0,0,1591,18633,1,1396.0,0.0,308.0,1528,0,0,0,0,446.0,2.23,80.0
0,0,1596,18683,1,1396.0,0.0,316.0,1364,0,0,0,0,442.0,2.21,-80.0
0,0,1601,18733,1,1396.0,0.0,308.0,1528,0,0,0,0,446.0,2.23,80.0
0,0,1606,18784,1,1396.0,0.0,316.0,1371,0,0,0,0,442.0,2.21,-72.72
0,0,1611,18834,1,1396.0,0.0,320.0,1402,0,0,0,0,440.0,2.2,-40.0
0,0,1616,18884,1,1400.0,0.0,320.0,1442,0,0,0,0,440.0,2.2,0.0
0,0,1621,18934,1,1400.0,0.0,324.0,1400,0,0,0,0,438.0,2.19,-40.0
0,0,1626,18984,1,1400.0,0.0,316.0,1524,0,0,0,0,442.0,2.21,80.0
0,0,1631,19034,1,1400.0,0.0,320.0,1402,0,0,0,0,440.0,2.2,-40.0
0,0,1636,19084,1,1408.0,0.0,316.0,1484,0,0,0,0,442.0,2.21,40.0
0,0,1641,19135,1,1408.0,0.0,308.0,1528,0,0,0,0,446.0,2.23,80.0
0,0,1646,19185,1,1408.0,0.0,308.0,1448,0,0,0,0,446.0,2.23,0.0
0,0,1651,19235,1,1408.0,0.0,316.0,1364,0,0,0,0,442.0,2.21,-80.0
0,0,1656,19286,1,1436.0,0.0,316.0,1444,0,0,0,0,442.0,2.431,0.0
0,0,1661,19336,1,1436.0,0.0,316.0,1444,0,0,0,0,442.0,2.21,0.0
0,0,1666,19386,1,1408.0,0.0,316.0,1444,0,0,0,0,442.0,2.21,0.0
0,0,1671,19436,1,1408.0,0.0,320.0,1402,0,0,0,0,440.0,2.2,-40.0
0,0,1676,19486,1,1368.0,0.0,316.0,1484,0,0,0,0,442.0,2.21,40.0
0,0,1681,19536,1,1368.0,0.0,312.0,1486,0,0,0,0,444.0,2.22,40.0
0,0,1686,19586,1,1340.0,0.0,316.0,1404,0,0,0,0,442.0,2.21,-40.0
0,0,1691,19637,1,1340.0,0.0,320.0,1405,0,0,0,0,440.0,2.2,-36.36
0,0,1696,19687,1,1340.0,0.0,320.0,1442,0,0,0,0,440.0,2.2,0.0
0,0,1701,19737,1,1340.0,0.0,316.0,1484,0,0,0,0,442.0,2.21,40.0
0,0,1706,19787,1,1336.0,0.0,304.0,1570,0,0,0,0,448.0,2.24,120.0
0,0,1711,19838,1,1336.0,0.0,308.0,1408,0,0,0,0,446.0,2.23,-40.0
0,0,1716,19888,1,1336.0,0.0,324.0,1280,0,0,0,0,438.0,2.19,-160.0
0,0,1721,19938,1,1336.0,0.0,324.0,1440,0,0,0,0,438.0,2.19,0.0
0,0,1726,19988,1,1336.0,0.0,316.0,1524,0,0,0,0,442.0,2.21,80.0
0,0,1731,20038,1,1336.0,0.0,316.0,1444,0,0,0,0,442.0,2.21,0.0
0,0,1736,20088,1,1336.0,0.0,316.0,1444,0,0,0,0,442.0,2.21,0.0
0,0,1741,20139,1,1336.0,0.0,316.0,1444,0,0,0,0,442.0,2.431,0.0
0,0,1746,20189,1,1336.0,0.0,320.0,1402,0,0,0,0,440.0,2.2,-40.0
0,0,1751,20239,1,1336.0,0.0,304.0,1610,0,0,0,0,448.0,2.24,160.0
0,0,1756,20289,1,1336.0,0.0,312.0,1366,0,0,0,0,444.0,2.22,-80.0
0,0,1761,20340,1,1352.0,0.0,312.0,1446,0,0,0,0,444.0,2.22,0.0
0,0,1766,20390,1,1352.0,0.0,312.0,1446,0,0,0,0,444.0,2.22,0.0
0,0,1771,20440,1,1356.0,0.0,308.0,1488,0,0,0,0,446.0,2.23,40.0
0,0,1776,20490,1,1356.0,0.0,316.0,1364,0,0,0,0,442.0,2.21,-80.0
0,0,1781,20540,1,1376.0,0.0,324.0,1360,0,0,0,0,438.0,2.19,-80.0
0,0,1786,20590,1,1376.0,0.0,316.0,1524,0,0,0,0,442.0,2.21,80.0
0,0,1791,20640,1,1388.0,0.0,324.0,1360,0,0,0,0,438.0,2.19,-80.0
0,0,1796,20691,1,1388.0,0.0,320.0,1474,0,0,0,0,440.0,2.2,32.72
0,0,1801,20741,1,1404.0,0.0,316.0,1484,0,0,0,0,442.0,2.21,40.0
0,0,1806,20791,1,1404.0,0.0,312.0,1486,0,0,0,0,444.0,2.22,40.0
0,0,1811,20842,1,1412.0,0.0,308.0,1491,0,0,0,0,446.0,2.23,43.63
0,0,1816,20892,1,1412.0,0.0,324.0,1280,0,0,0,0,438.0,2.19,-160.0
0,0,1821,20942,1,1436.0,0.0,312.0,1566,0,0,0,0,444.0,2.22,120.0
0,0,1826,20992,1,1436.0,0.0,316.0,1404,0,0,0,0,442.0,2.21,-40.0
0,0,1831,21042,1,1436.0,0.0,324.0,1360,0,0,0,0,438.0,2.19,-80.0
0,0,1836,21092,1,1436.0,0.0,316.0,1524,0,0,0,0,442.0,2.21,80.0
0,0,1841,21142,1,1436.0,0.0,320.0,1402,0,0,0,0,440.0,2.2,-40.0
0,0,1846,21193,1,1436.0,0.0,312.0,1518,0,0,0,0,444.0,2.22,72.72
0,0,1851,21243,1,1436.0,0.0,316.0,1404,0,0,0,0,442.0,2.21,-40.0
0,0,1856,21293,1,1436.0,0.0,308.0,1528,0,0,0,0,446.0,2.23,80.0
0,0,1861,21344,1,1436.0,0.0,320.0,1322,0,0,0,0,440.0,2.2,-120.0
0,0,1866,21394,1,1436.0,0.0,316.0,1484,0,0,0,0,442.0,2.21,40.0
0,0,1871,21444,1,1436.0,0.0,316.0,1444,0,0,0,0,442.0,2.21,0.0
0,0,1876,21494,1,1436.0,0.0,316.0,1444,0,0,0,0,442.0,2.21,0.0
0,0,1881,21544,1,1436.0,0.0,320.0,1402,0,0,0,0,440.0,2.2,-40.0
0,0,1886,21594,1,1436.0,0.0,324.0,1400,0,0,0,0,438.0,2.19,-40.0
0,0,1891,21644,1,1436.0,0.0,320.0,1482,0,0,0,0,440.0,2.2,40.0
0,0,1896,21695,1,1436.0,0.0,312.0,1511,0,0,0,0,444.0,2.22,65.45
0,0,1901,21745,1,1436.0,0.0,320.0,1362,0,0,0,0,440.0,2.2,-80.0
0,0,1906,21795,1,1436.0,0.0,320.0,1442,0,0,0,0,440.0,2.2,0.0
0,0,1911,21846,1,1436.0,0.0,304.0,1610,0,0,0,0,448.0,2.464,160.0
0,0,1916,21896,1,1436.0,0.0,304.0,1450,0,0,0,0,448.0,2.24,0.0
0,0,1921,21946,1,1436.0,0.0,316.0,1324,0,0,0,0,442.0,2.21,-120.0
0,0,1926,21996,1,1436.0,0.0,316.0,1444,0,0,0,0,442.0,2.21,0.0
0,0,1931,22046,1,1436.0,0.0,316.0,1444,0,0,0,0,442.0,2.21,0.0
0,0,1936,22096,1,1436.0,0.0,312.0,1486,0,0,0,0,444.0,2.22,40.0
0,0,1941,22146,1,1436.0,0.0,312.0,1446,0,0,0,0,444.0,2.22,0.0
0,0,1946,22197,1,1432.0,0.0,304.0,1530,0,0,0,0,448.0,2.24,80.0
0,0,1951,22247,1,1432.0,0.0,316.0,1324,0,0,0,0,442.0,2.21,-120.0
0,0,1956,22297,1,1432.0,0.0,308.0,1528,0,0,0,0,446.0,2.23,80.0
0,0,1961,22347,1,1432.0,0.0,312.0,1406,0,0,0,0,444.0,2.22,-40.0
0,0,1966,22398,1,1412.0,0.0,316.0,1404,0,0,0,0,442.0,2.21,-40.0
0,0,1971,22448,1,1412.0,0.0,308.0,1528,0,0,0,0,446.0,2.23,80.0
0,0,1976,22498,1,1412.0,0.0,316.0,1364,0,0,0,0,442.0,2.21,-80.0
0,0,1981,22548,1,1412.0,0.0,320.0,1402,0,0,0,0,440.0,2.2,-40.0
0,0,1986,22598,1,1412.0,0.0,316.0,1484,0,0,0,0,442.0,2.21,40.0
0,0,1991,22648,1,1412.0,0.0,320.0,1402,0,0,0,0,440.0,2.2,-40.0
0,0,1996,22699,1,1412.0,0.0,316.0,1484,0,0,0,0,442.0,2.431,40.0
0,0,2001,22749,1,1412.0,0.0,308.0,1528,0,0,0,0,446.0,2.23,80.0
0,0,2006,22799,1,1412.0,0.0,308.0,1448,0,0,0,0,446.0,2.23,0.0
0,0,2011,22849,1,1412.0,0.0,312.0,1406,0,0,0,0,444.0,2.22,-40.0
0,0,2016,22900,1,1412.0,0.0,308.0,1488,0,0,0,0,446.0,2.23,40.0
0,0,2021,22950,1,1412.0,0.0,316.0,1364,0,0,0,0,442.0,2.21,-80.0
0,0,2026,23000,1,1412.0,0.0,320.0,1402,0,0,0,0,440.0,2.2,-40.0
0,0,2031,23050,1,1412.0,0.0,308.0,1568,0,0,0,0,446.0,2.23,120.0
0,0,2036,23100,1,1432.0,0.0,316.0,1364,0,0,0,0,442.0,2.21,-80.0
0,0,2041,23150,1,1432.0,0.0,316.0,1444,0,0,0,0,442.0,2.21,0.0
0,0,2046,23200,1,1432.0,0.0,316.0,1444,0,0,0,0,442.0,2.21,0.0
0,0,2051,23251,1,1432.0,0.0,316.0,1444,0,0,0,0,442.0,2.21,0.0
0,0,2056,23301,1,684.0,0.0,316.0,1444,0,0,0,0,442.0,2.21,0.0
0,0,2061,23351,1,684.0,0.0,308.0,1528,0,0,0,0,446.0,2.23,80.0
0,0,2066,23402,1,636.0,0.0,308.0,1459,0,0,0,0,446.0,2.23,10.909
0,0,2071,23452,1,636.0,0.0,316.0,1364,0,0,0,0,442.0,2.21,-80.0
0,0,2076,23502,1,680.0,0.0,304.0,1570,0,0,0,0,448.0,2.24,120.0
0,0,2081,23552,1,680.0,0.0,304.0,1450,0,0,0,0,448.0,2.24,0.0
0,0,2086,23602,1,680.0,0.0,312.0,1366,0,0,0,0,444.0,2.22,-80.0
0,0,2091,23652,1,680.0,0.0,316.0,1404,0,0,0,0,442.0,2.21,-40.0
0,0,2096,23702,1,680.0,0.0,312.0,1486,0,0,0,0,444.0,2.22,40.0
0,0,2101,23753,1,680.0,0.0,316.0,1407,0,0,0,0,442.0,2.21,-36.36
0,0,2106,23803,1,684.0,0.0,308.0,1528,0,0,0,0,446.0,2.23,80.0
0,0,2111,23853,1,684.0,0.0,304.0,1490,0,0,0,0,448.0,2.24,40.0
0,0,2116,23904,1,692.0,0.0,312.0,1366,0,0,0,0,444.0,2.22,-80.0
0,0,2121,23954,1,692.0,0.0,304.0,1530,0,0,0,0,448.0,2.24,80.0
0,0,2126,24004,1,728.0,0.0,316.0,1324,0,0,0,0,442.0,2.21,-120.0
0,0,2131,24054,1,728.0,0.0,316.0,1444,0,0,0,0,442.0,2.21,0.0
0,0,2136,24104,1,1348.0,0.0,304.0,1570,0,0,0,0,448.0,2.24,120.0
0,0,2141,24154,1,1348.0,0.0,312.0,1366,0,0,0,0,444.0,2.22,-80.0
0,0,2146,24204,1,1348.0,0.0,312.0,1446,0,0,0,0,444.0,2.22,0.0
0,0,2151,24255,1,1340.0,0.0,316.0,1404,0,0,0,0,442.0,2.21,-40.0
0,0,2156,24305,1,1340.0,0.0,308.0,1528,0,0,0,0,446.0,2.23,80.0
0,0,2161,24355,1,1348.0,0.0,312.0,1406,0,0,0,0,444.0,2.22,-40.0
0,0,2166,24406,1,1348.0,0.0,312.0,1446,0,0,0,0,444.0,2.442,0.0
0,0,2171,24456,1,1348.0,0.0,308.0,1488,0,0,0,0,446.0,2.23,40.0
0,0,2176,24506,1,1348.0,0.0,304.0,1490,0,0,0,0,448.0,2.24,40.0
0,0,2181,24556,1,1356.0,0.0,304.0,1450,0,0,0,0,448.0,2.24,0.0
0,0,2186,24606,1,1356.0,0.0,312.0,1366,0,0,0,0,444.0,2.22,-80.0
0,0,2191,24656,1,1364.0,0.0,320.0,1362,0,0,0,0,440.0,2.2,-80.0
0,0,2196,24706,1,1364.0,0.0,316.0,1484,0,0,0,0,442.0,2.21,40.0
0,0,2201,24757,1,1368.0,0.0,316.0,1444,0,0,0,0,442.0,2.21,0.0
0,0,2206,24807,1,1368.0,0.0,316.0,1444,0,0,0,0,442.0,2.21,0.0
0,0,2211,24857,1,1380.0,0.0,312.0,1486,0,0,0,0,444.0,2.22,40.0
0,0,2216,24907,1,1380.0,0.0,316.0,1404,0,0,0,0,442.0,2.21,-40.0
0,0,2221,24958,1,1384.0,0.0,312.0,1486,0,0,0,0,444.0,2.22,40.0
0,0,2226,25008,1,1384.0,0.0,308.0,1488,0,0,0,0,446.0,2.23,40.0
0,0,2231,25058,1,1408.0,0.0,312.0,1406,0,0,0,0,444.0,2.22,-40.0
0,0,2236,25108,1,1408.0,0.0,312.0,1446,0,0,0,0,444.0,2.22,0.0
0,0,2241,25158,1,1408.0,0.0,312.0,1446,0,0,0,0,444.0,2.22,0.0
0,0,2246,25208,1,1408.0,0.0,312.0,1446,0,0,0,0,444.0,2.22,0.0
0,0,2251,25259,1,1408.0,0.0,308.0,1488,0,0,0,0,446.0,2.453,40.0
0,0,2256,25309,1,1408.0,0.0,304.0,1490,0,0,0,0,448.0,2.24,40.0
0,0,2261,25359,1,1408.0,0.0,312.0,1366,0,0,0,0,444.0,2.22,-80.0
0,0,2266,25409,1,1408.0,0.0,308.0,1488,0,0,0,0,446.0,2.23,40.0
0,0,2271,25460,1,1368.0,0.0,304.0,1486,0,0,0,0,448.0,2.24,36.36
0,0,2276,25510,1,1368.0,0.0,308.0,1408,0,0,0,0,446.0,2.23,-40.0
0,0,2281,25560,1,1368.0,0.0,320.0,1322,0,0,0,0,440.0,2.2,-120.0
0,0,2286,25610,1,1368.0,0.0,312.0,1526,0,0,0,0,444.0,2.22,80.0
0,0,2291,25660,1,1364.0,0.0,308.0,1488,0,0,0,0,446.0,2.23,40.0
0,0,2296,25710,1,1364.0,0.0,316.0,1364,0,0,0,0,442.0,2.21,-80.0
0,0,2301,25760,1,1364.0,0.0,304.0,1570,0,0,0,0,448.0,2.24,120.0
0,0,2306,25811,1,1364.0,0.0,304.0,1450,0,0,0,0,448.0,2.24,0.0
0,0,2311,25861,1,1364.0,0.0,316.0,1324,0,0,0,0,442.0,2.21,-120.0
0,0,2316,25911,1,1364.0,0.0,308.0,1528,0,0,0,0,446.0,2.23,80.0
0,0,2321,25962,1,1364.0,0.0,312.0,1409,0,0,0,0,444.0,2.22,-36.36
0,0,2326,26012,1,1364.0,0.0,312.0,1446,0,0,0,0,444.0,2.22,0.0
0,0,2331,26062,1,1364.0,0.0,316.0,1404,0,0,0,0,442.0,2.21,-40.0
0,0,2336,26112,1,1364.0,0.0,308.0,1528,0,0,0,0,446.0,2.23,80.0
0,0,2341,26162,1,1364.0,0.0,312.0,1406,0,0,0,0,444.0,2.22,-40.0
0,0,2346,26212,1,1364.0,0.0,312.0,1446,0,0,0,0,444.0,2.22,0.0
0,0,2351,26262,1,1356.0,0.0,316.0,1404,0,0,0,0,442.0,2.21,-40.0
0,0,2356,26313,1,1356.0,0.0,312.0,1486,0,0,0,0,444.0,2.22,40.0
0,0,2361,26363,1,1356.0,0.0,300.0,1572,0,0,0,0,450.0,2.25,120.0
0,0,2366,26413,1,1356.0,0.0,304.0,1410,0,0,0,0,448.0,2.24,-40.0
0,0,2371,26464,1,1356.0,0.0,304.0,1450,0,0,0,0,448.0,2.24,0.0
0,0,2376,26514,1,1356.0,0.0,308.0,1408,0,0,0,0,446.0,2.23,-40.0
0,0,2381,26564,1,1356.0,0.0,312.0,1406,0,0,0,0,444.0,2.22,-40.0
0,0,2386,26614,1,1364.0,0.0,304.0,1530,0,0,0,0,448.0,2.24,80.0
0,0,2391,26664,1,1364.0,0.0,308.0,1408,0,0,0,0,446.0,2.23,-40.0
0,0,2396,26714,1,1364.0,0.0,308.0,1448,0,0,0,0,446.0,2.23,0.0
0,0,2401,26764,1,1364.0,0.0,312.0,1406,0,0,0,0,444.0,2.22,-40.0
0,0,2406,26815,1,1364.0,0.0,312.0,1446,0,0,0,0,444.0,2.22,0.0
0,0,2411,26865,1,1364.0,0.0,304.0,1530,0,0,0,0,448.0,2.24,80.0
0,0,2416,26915,1,1364.0,0.0,312.0,1366,0,0,0,0,444.0,2.22,-80.0
0,0,2421,26966,1,1364.0,0.0,308.0,1488,0,0,0,0,446.0,2.453,40.0
0,0,2426,27016,1,1364.0,0.0,304.0,1490,0,0,0,0,448.0,2.24,40.0
0,0,2431,27066,1,1364.0,0.0,308.0,1408,0,0,0,0,446.0,2.23,-40.0
0,0,2436,27116,1,1364.0,0.0,308.0,1448,0,0,0,0,446.0,2.23,0.0
0,0,2441,27166,1,1364.0,0.0,316.0,1364,0,0,0,0,442.0,2.21,-80.0
0,0,2446,27216,1,1364.0,0.0,308.0,1528,0,0,0,0,446.0,2.23,80.0
0,0,2451,27266,1,1364.0,0.0,312.0,1406,0,0,0,0,444.0,2.22,-40.0
0,0,2456,27317,1,1364.0,0.0,304.0,1530,0,0,0,0,448.0,2.24,80.0
0,0,2461,27367,1,1364.0,0.0,312.0,1366,0,0,0,0,444.0,2.22,-80.0
0,0,2466,27417,1,1368.0,0.0,304.0,1530,0,0,0,0,448.0,2.24,80.0
0,0,2471,27467,1,1368.0,0.0,304.0,1450,0,0,0,0,448.0,2.24,0.0
0,0,2476,27518,1,1368.0,0.0,308.0,1408,0,0,0,0,446.0,2.23,-40.0
0,0,2481,27568,1,1368.0,0.0,312.0,1406,0,0,0,0,444.0,2.22,-40.0
0,0,2486,27618,1,1368.0,0.0,312.0,1446,0,0,0,0,444.0,2.22,0.0
0,0,2491,27668,1,1368.0,0.0,304.0,1530,0,0,0,0,448.0,2.24,80.0
0,0,2496,27718,1,1428.0,0.0,304.0,1450,0,0,0,0,448.0,2.24,0.0
0,0,2501,27768,1,1428.0,0.0,308.0,1408,0,0,0,0,446.0,2.23,-40.0
0,0,2506,27819,1,1432.0,0.0,304.0,1490,0,0,0,0,448.0,2.464,40.0
0,0,2511,27869,1,1432.0,0.0,308.0,1408,0,0,0,0,446.0,2.23,-40.0
0,0,2516,27919,1,1432.0,0.0,304.0,1490,0,0,0,0,448.0,2.24,40.0
0,0,2521,27969,1,1432.0,0.0,308.0,1408,0,0,0,0,446.0,2.23,-40.0
0,0,2526,28020,1,1432.0,0.0,300.0,1532,0,0,0,0,450.0,2.25,80.0
0,0,2531,28070,1,1432.0,0.0,304.0,1410,0,0,0,0,448.0,2.24,-40.0
0,0,2536,28120,1,1436.0,0.0,312.0,1366,0,0,0,0,444.0,2.22,-80.0
0,0,2541,28170,1,1436.0,0.0,312.0,1446,0,0,0,0,444.0,2.22,0.0
0,0,2546,28220,1,1436.0,0.0,304.0,1530,0,0,0,0,448.0,2.24,80.0
0,0,2551,28270,1,1436.0,0.0,308.0,1408,0,0,0,0,446.0,2.23,-40.0
0,0,2556,28320,1,1432.0,0.0,304.0,1490,0,0,0,0,448.0,2.24,40.0
0,0,2561,28371,1,1412.0,0.0,304.0,1450,0,0,0,0,448.0,2.24,0.0
0,0,2566,28421,1,1412.0,0.0,308.0,1408,0,0,0,0,446.0,2.23,-40.0
0,0,2571,28471,1,1384.0,0.0,308.0,1448,0,0,0,0,446.0,2.23,0.0
0,0,2576,28522,1,1384.0,0.0,304.0,1490,0,0,0,0,448.0,2.24,40.0
0,0,2581,28572,1,856.0,0.0,304.0,1450,0,0,0,0,448.0,2.24,0.0
0,0,2586,28622,1,856.0,0.0,308.0,1408,0,0,0,0,446.0,2.23,-40.0
0,0,2591,28672,1,824.0,0.0,304.0,1490,0,0,0,0,448.0,2.24,40.0
0,0,2596,28722,1,824.0,0.0,308.0,1408,0,0,0,0,446.0,2.23,-40.0
0,0,2601,28772,1,808.0,0.0,304.0,1490,0,0,0,0,448.0,2.24,40.0
0,0,2606,28822,1,808.0,0.0,316.0,1324,0,0,0,0,442.0,2.21,-120.0
0,0,2611,28873,1,808.0,0.0,304.0,1570,0,0,0,0,448.0,2.24,120.0
0,0,2616,28923,1,808.0,0.0,312.0,1366,0,0,0,0,444.0,2.22,-80.0
0,0,2621,28973,1,792.0,0.0,320.0,1362,0,0,0,0,440.0,2.2,-80.0
0,0,2626,29024,1,792.0,0.0,328.0,1361,0,0,0,0,436.0,2.18,-76.36
0,0,2631,29074,1,792.0,0.0,328.0,1438,0,0,0,0,436.0,2.18,0.0
0,0,2636,29124,1,792.0,0.0,336.0,1354,0,0,0,0,432.0,2.159,-80.0
0,0,2641,29174,1,788.0,0.0,340.0,1392,0,0,0,0,430.0,2.149,-40.0
0,0,2646,29224,1,788.0,0.0,344.0,1390,0,0,0,0,428.0,2.139,-40.0
0,0,2651,29274,1,772.0,0.0,356.0,1304,0,0,0,0,422.0,2.11,-120.0
0,0,2656,29324,1,772.0,0.0,364.0,1340,0,0,0,0,418.0,2.09,-80.0
0,0,2661,29375,1,748.0,0.0,392.0,1129,0,0,0,0,404.0,2.02,-276.3
0,0,2666,29425,1,748.0,0.0,404.0,1279,0,0,0,0,398.0,1.99,-120.0
0,0,2671,29475,1,748.0,0.0,448.0,1000,0,0,0,0,376.0,1.88,-440.0
0,0,2676,29526,1,748.0,0.0,492.0,1000,0,0,0,0,354.0,1.947,-440.0
0,0,2681,29576,1,748.0,0.0,548.0,1000,0,0,0,0,326.0,1.63,-560.0
0,0,2686,29626,1,748.0,0.0,612.0,1000,0,0,0,0,294.0,1.4699,-640.0
0,0,2691,29676,1,760.0,0.0,680.0,1000,0,0,0,0,260.0,1.3,-680.0
0,0,2696,29726,1,760.0,0.0,752.0,1000,0,0,0,0,224.0,1.12,-720.0
0,0,2701,29776,1,764.0,0.0,816.0,1000,0,0,0,0,192.0,0.96,-640.0
0,0,2706,29826,1,764.0,0.0,876.0,1000,0,0,0,0,162.0,0.81,-600.0
0,0,2711,29877,1,772.0,0.0,972.0,1000,0,0,0,0,114.0,0.57,-927.2
0,0,2716,29927,1,772.0,0.0,1004.0,1000,0,0,0,0,98.0,0.49,-320.0
0,0,2721,29977,1,772.0,0.0,1112.0,1000,0,0,0,0,44.0,0.22,-1080.0
0,0,2726,30027,1,772.0,0.0,1152.0,1000,0,0,0,0,24.0,0.12,-400.0
0,0,2731,30078,1,772.0,0.0,1192.0,1000,0,0,0,0,4.0,0.02,-381.8
0,0,2736,30128,1,772.0,0.0,1264.0,1000,0,0,0,0,-32.0,-0.16,-720.0
0,0,2741,30178,1,756.0,0.0,1332.0,1000,0,0,0,0,-66.0,-0.3299,-680.0
0,0,2746,30228,1,756.0,0.0,1432.0,1000,0,0,0,0,-116.0,-0.58,-1000.0
0,0,2751,30278,1,672.0,0.0,1484.0,1000,0,0,0,0,-142.0,-0.71,-520.0
0,0,2756,30328,1,672.0,0.0,1556.0,1000,0,0,0,0,-178.0,-0.89,-720.0
0,0,2761,30379,1,656.0,0.0,1624.0,1000,0,0,0,0,-212.0,-1.166,-665.4
0,0,2766,30429,1,656.0,0.0,1692.0,1000,0,0,0,0,-246.0,-1.23,-680.0
0,0,2771,30479,1,656.0,0.0,1756.0,1000,0,0,0,0,-278.0,-1.39,-640.0
0,0,2776,30529,1,648.0,0.0,1816.0,1000,0,0,0,0,-308.0,-1.54,-600.0
0,0,2781,30580,1,648.0,0.0,1876.0,1000,0,0,0,0,-338.0,-1.689,-596.3
0,0,2786,30630,1,648.0,0.0,1948.0,1000,0,0,0,0,-374.0,-1.87,-720.0
0,0,2791,30680,1,648.0,0.0,1996.0,1000,0,0,0,0,-398.0,-1.99,-480.0
0,0,2796,30730,1,656.0,0.0,2052.0,1000,0,0,0,0,-426.0,-2.129,-560.0
0,0,2801,30780,1,656.0,0.0,2084.0,1000,0,0,0,0,-442.0,-2.21,-320.0
0,0,2806,30830,1,672.0,0.0,2104.0,1000,0,0,0,0,-452.0,-2.26,-200.0
0,0,2811,30880,1,672.0,0.0,2108.0,1000,0,0,0,0,-454.0,-2.27,-40.0
0,0,2816,30931,1,724.0,0.0,2108.0,1000,0,0,0,0,-454.0,-2.27,-3.636
0,0,2821,30981,1,724.0,0.0,2108.0,1000,0,0,0,0,-454.0,-2.27,0.0
0,0,2826,31031,1,724.0,0.0,2100.0,1000,0,0,0,0,-450.0,-2.25,80.0
0,0,2831,31082,1,724.0,0.0,2092.0,1000,0,0,0,0,-446.0,-2.23,80.0
0,0,2836,31132,1,728.0,0.0,2052.0,1000,0,0,0,0,-426.0,-2.129,400.0
0,0,2841,31182,1,728.0,0.0,2048.0,1000,0,0,0,0,-424.0,-2.12,40.0
0,0,2846,31232,1,728.0,0.0,2024.0,1000,0,0,0,0,-412.0,-2.06,240.0
0,0,2851,31282,1,728.0,0.0,2000.0,1000,0,0,0,0,-400.0,-2.0,240.0
0,0,2856,31332,1,744.0,0.0,1972.0,1000,0,0,0,0,-386.0,-1.93,280.0
0,0,2861,31382,1,744.0,0.0,1940.0,1000,0,0,0,0,-370.0,-1.849,320.0
0,0,2866,31433,1,748.0,0.0,1912.0,1000,0,0,0,0,-356.0,-1.78,272.7
0,0,2871,31483,1,748.0,0.0,1876.0,1020,0,0,0,0,-338.0,-1.689,360.0
0,0,2876,31533,1,768.0,0.0,1856.0,1000,0,0,0,0,-328.0,-1.64,200.0
0,0,2881,31584,1,768.0,0.0,1832.0,1000,0,0,0,0,-316.0,-1.5799,236.3
0,0,2886,31634,1,768.0,0.0,1808.0,1000,0,0,0,0,-304.0,-1.52,240.0
0,0,2891,31684,1,768.0,0.0,1772.0,1072,0,0,0,0,-286.0,-1.4299,360.0
0,0,2896,31734,1,768.0,0.0,1756.0,1000,0,0,0,0,-278.0,-1.39,160.0
0,0,2901,31784,1,768.0,0.0,1716.0,1140,0,0,0,0,-258.0,-1.29,400.0
0,0,2906,31834,1,576.0,0.0,1696.0,1000,0,0,0,0,-248.0,-1.24,200.0
0,0,2911,31884,1,576.0,0.0,1664.0,1086,0,0,0,0,-232.0,-1.16,320.0
0,0,2916,31935,1,576.0,0.0,1632.0,1088,0,0,0,0,-216.0,-1.0799,305.4
0,0,2921,31985,1,576.0,0.0,1608.0,1034,0,0,0,0,-204.0,-1.02,240.0
0,0,2926,32035,1,576.0,0.0,1568.0,1215,0,0,0,0,-184.0,-0.92,400.0
0,0,2931,32086,1,576.0,0.0,1552.0,1000,0,0,0,0,-176.0,-0.968,152.72
0,0,2936,32136,1,896.0,0.0,1520.0,1159,0,0,0,0,-160.0,-0.7999,320.0
0,0,2941,32186,1,896.0,0.0,1496.0,1091,0,0,0,0,-148.0,-0.74,240.0
0,0,2946,32236,1,896.0,0.0,1488.0,1000,0,0,0,0,-144.0,-0.7199,80.0
0,0,2951,32286,1,896.0,0.0,1472.0,1023,0,0,0,0,-136.0,-0.68,160.0
0,0,2956,32336,1,896.0,0.0,1460.0,1000,0,0,0,0,-130.0,-0.65,120.0
0,0,2961,32386,1,896.0,0.0,1448.0,1000,0,0,0,0,-124.0,-0.62,120.0
0,0,2966,32437,1,832.0,0.0,1464.0,1000,0,0,0,0,-132.0,-0.6599,-145.45
0,0,2971,32487,1,816.0,0.0,1460.0,1000,0,0,0,0,-130.0,-0.65,40.0
0,0,2976,32537,1,816.0,0.0,1484.0,1000,0,0,0,0,-142.0,-0.71,-240.0
0,0,2981,32587,1,796.0,0.0,1488.0,1000,0,0,0,0,-144.0,-0.7199,-40.0
0,0,2986,32638,1,796.0,0.0,1508.0,1000,0,0,0,0,-154.0,-0.77,-200.0
0,0,2991,32688,1,792.0,0.0,1528.0,1000,0,0,0,0,-164.0,-0.82,-200.0
0,0,2996,32738,1,792.0,0.0,1532.0,1000,0,0,0,0,-166.0,-0.83,-40.0
0,0,3001,32788,1,788.0,0.0,1544.0,1000,0,0,0,0,-172.0,-0.86,-120.0
0,0,3006,32838,1,788.0,0.0,1544.0,1000,0,0,0,0,-172.0,-0.86,0.0
0,0,3011,32888,1,788.0,0.0,1552.0,1000,0,0,0,0,-176.0,-0.88,-80.0
0,0,3016,32939,1,788.0,0.0,1544.0,1000,0,0,0,0,-172.0,-0.946,76.36
0,0,3021,32989,1,708.0,0.0,1536.0,1000,0,0,0,0,-168.0,-0.84,80.0
0,0,3026,33039,1,708.0,0.0,1540.0,1000,0,0,0,0,-170.0,-0.85,-40.0
0,0,3031,33089,1,656.0,0.0,1548.0,1000,0,0,0,0,-174.0,-0.87,-80.0
0,0,3036,33140,1,656.0,0.0,1560.0,1000,0,0,0,0,-180.0,-0.9,-109.09
0,0,3041,33190,1,656.0,0.0,1560.0,1000,0,0,0,0,-180.0,-0.9,0.0
0,0,3046,33240,1,656.0,0.0,1564.0,1000,0,0,0,0,-182.0,-0.91,-40.0
0,0,3051,33290,1,656.0,0.0,1556.0,1000,0,0,0,0,-178.0,-0.89,80.0
0,0,3056,33340,1,656.0,0.0,1548.0,1000,0,0,0,0,-174.0,-0.87,80.0
0,0,3061,33390,1,656.0,0.0,1540.0,1000,0,0,0,0,-170.0,-0.85,80.0
0,0,3066,33440,1,656.0,0.0,1536.0,1000,0,0,0,0,-168.0,-0.84,40.0
0,0,3071,33491,1,656.0,0.0,1540.0,1000,0,0,0,0,-170.0,-0.85,-40.0
0,0,3076,33541,1,656.0,0.0,1536.0,1000,0,0,0,0,-168.0,-0.84,40.0
0,0,3081,33591,1,644.0,0.0,1544.0,1000,0,0,0,0,-172.0,-0.86,-80.0
0,0,3086,33642,1,644.0,0.0,1544.0,1000,0,0,0,0,-172.0,-0.86,0.0
0,0,3091,33692,1,644.0,0.0,1572.0,1000,0,0,0,0,-186.0,-0.93,-280.0
0,0,3096,33742,1,644.0,0.0,1584.0,1000,0,0,0,0,-192.0,-0.96,-120.0
0,0,3101,33792,1,672.0,0.0,1588.0,1000,0,0,0,0,-194.0,-0.97,-40.0
0,0,3106,33842,1,672.0,0.0,1588.0,1000,0,0,0,0,-194.0,-0.97,0.0
0,0,3111,33892,1,672.0,0.0,1568.0,1015,0,0,0,0,-184.0,-0.92,200.0
0,0,3116,33942,1,672.0,0.0,1560.0,1000,0,0,0,0,-180.0,-0.9,80.0
0,0,3121,33993,1,732.0,0.0,1568.0,1000,0,0,0,0,-184.0,-0.92,-80.0
0,0,3126,34043,1,732.0,0.0,1572.0,1000,0,0,0,0,-186.0,-0.93,-40.0
0,0,3131,34093,1,732.0,0.0,1580.0,1000,0,0,0,0,-190.0,-0.95,-80.0
0,0,3136,34144,1,732.0,0.0,1580.0,1000,0,0,0,0,-190.0,-0.95,3.636
0,0,3141,34194,1,732.0,0.0,1580.0,1000,0,0,0,0,-190.0,-0.95,0.0
0,0,3146,34244,1,732.0,0.0,1580.0,1000,0,0,0,0,-190.0,-0.95,0.0
0,0,3151,34294,1,732.0,0.0,1560.0,1019,0,0,0,0,-180.0,-0.9,200.0
0,0,3156,34344,1,732.0,0.0,1548.0,1000,0,0,0,0,-174.0,-0.87,120.0
0,0,3161,34394,1,796.0,0.0,1532.0,1000,0,0,0,0,-166.0,-0.83,160.0
0,0,3166,34444,1,796.0,0.0,1520.0,1000,0,0,0,0,-160.0,-0.7999,120.0
0,0,3171,34495,1,820.0,0.0,1500.0,1049,0,0,0,0,-150.0,-0.75,200.0
0,0,3176,34545,1,824.0,0.0,1500.0,1000,0,0,0,0,-150.0,-0.75,0.0
0,0,3181,34595,1,824.0,0.0,1500.0,1000,0,0,0,0,-150.0,-0.75,0.0
0,0,3186,34646,1,824.0,0.0,1496.0,1000,0,0,0,0,-148.0,-0.814,40.0
0,0,3191,34696,1,824.0,0.0,1504.0,1000,0,0,0,0,-152.0,-0.76,-80.0
0,0,3196,34746,1,832.0,0.0,1512.0,1000,0,0,0,0,-156.0,-0.7799,-80.0
0,0,3201,34796,1,832.0,0.0,1520.0,1000,0,0,0,0,-160.0,-0.7999,-80.0
0,0,3206,34846,1,840.0,0.0,1528.0,1000,0,0,0,0,-164.0,-0.82,-80.0
0,0,3211,34896,1,840.0,0.0,1532.0,1000,0,0,0,0,-166.0,-0.83,-40.0
0,0,3216,34946,1,844.0,0.0,1540.0,1000,0,0,0,0,-170.0,-0.85,-80.0
0,0,3221,34997,1,844.0,0.0,1548.0,1000,0,0,0,0,-174.0,-0.87,-87.27
0,0,3226,35047,1,856.0,0.0,1552.0,1000,0,0,0,0,-176.0,-0.88,-40.0
0,0,3231,35097,1,856.0,0.0,1548.0,1000,0,0,0,0,-174.0,-0.87,40.0
0,0,3236,35147,1,868.0,0.0,1556.0,1000,0,0,0,0,-178.0,-0.89,-80.0
0,0,3241,35198,1,868.0,0.0,1564.0,1000,0,0,0,0,-182.0,-0.91,-76.36
0,0,3246,35248,1,868.0,0.0,1560.0,1000,0,0,0,0,-180.0,-0.9,40.0
0,0,3251,35298,1,868.0,0.0,1564.0,1000,0,0,0,0,-182.0,-0.91,-40.0
0,0,3256,35348,1,868.0,0.0,1572.0,1000,0,0,0,0,-186.0,-0.93,-80.0
0,0,3261,35398,1,868.0,0.0,1588.0,1000,0,0,0,0,-194.0,-0.97,-160.0
0,0,3266,35448,1,876.0,0.0,1588.0,1000,0,0,0,0,-194.0,-0.97,0.0
0,0,3271,35499,1,876.0,0.0,1592.0,1000,0,0,0,0,-196.0,-1.0779,-40.0
0,0,3276,35549,1,876.0,0.0,1592.0,1000,0,0,0,0,-196.0,-0.98,0.0
0,0,3281,35599,1,876.0,0.0,1580.0,1000,0,0,0,0,-190.0,-0.95,120.0
0,0,3286,35649,1,876.0,0.0,1572.0,1000,0,0,0,0,-186.0,-0.93,80.0
0,0,3291,35700,1,876.0,0.0,1564.0,1000,0,0,0,0,-182.0,-0.91,80.0
0,0,3296,35750,1,876.0,0.0,1560.0,1000,0,0,0,0,-180.0,-0.9,40.0
0,0,3301,35800,1,876.0,0.0,1576.0,1000,0,0,0,0,-188.0,-0.94,-160.0
0,0,3306,35850,1,868.0,0.0,1596.0,1000,0,0,0,0,-198.0,-0.9899,-200.0
0,0,3311,35900,1,868.0,0.0,1612.0,1000,0,0,0,0,-206.0,-1.03,-160.0
0,0,3316,35950,1,856.0,0.0,1616.0,1000,0,0,0,0,-208.0,-1.04,-40.0
0,0,3321,36000,1,856.0,0.0,1592.0,1043,0,0,0,0,-196.0,-0.98,240.0
0,0,3326,36051,1,848.0,0.0,1576.0,1000,0,0,0,0,-188.0,-0.94,156.36
0,0,3331,36101,1,848.0,0.0,1564.0,1000,0,0,0,0,-182.0,-0.91,120.0
0,0,3336,36151,1,732.0,0.0,1520.0,1279,0,0,0,0,-160.0,-0.7999,440.0
0,0,3341,36202,1,732.0,0.0,1488.0,1171,0,0,0,0,-144.0,-0.7199,316.3
0,0,3346,36252,1,716.0,0.0,1464.0,1107,0,0,0,0,-132.0,-0.6599,240.0
0,0,3351,36302,1,716.0,0.0,1456.0,1000,0,0,0,0,-128.0,-0.64,80.0
0,0,3356,36352,1,716.0,0.0,1428.0,1165,0,0,0,0,-114.0,-0.57,280.0
0,0,3361,36402,1,716.0,0.0,1428.0,1000,0,0,0,0,-114.0,-0.57,0.0
0,0,3366,36452,1,728.0,0.0,1416.0,1011,0,0,0,0,-108.0,-0.5399,120.0
0,0,3371,36502,1,728.0,0.0,1416.0,1000,0,0,0,0,-108.0,-0.5399,0.0
0,0,3376,36553,1,728.0,0.0,1444.0,1000,0,0,0,0,-122.0,-0.61,-280.0
0,0,3381,36603,1,728.0,0.0,1452.0,1000,0,0,0,0,-126.0,-0.63,-80.0
0,0,3386,36653,1,736.0,0.0,1464.0,1000,0,0,0,0,-132.0,-0.6599,-120.0
0,0,3391,36704,1,756.0,0.0,1484.0,1000,0,0,0,0,-142.0,-0.71,-192.7
0,0,3396,36754,1,756.0,0.0,1488.0,1000,0,0,0,0,-144.0,-0.7199,-40.0
0,0,3401,36804,1,760.0,0.0,1500.0,1000,0,0,0,0,-150.0,-0.75,-120.0
0,0,3406,36854,1,760.0,0.0,1532.0,1000,0,0,0,0,-166.0,-0.83,-320.0
0,0,3411,36904,1,796.0,0.0,1552.0,1000,0,0,0,0,-176.0,-0.88,-200.0
0,0,3416,36954,1,796.0,0.0,1560.0,1000,0,0,0,0,-180.0,-0.9,-80.0
0,0,3421,37004,1,780.0,0.0,1584.0,1000,0,0,0,0,-192.0,-0.96,-240.0
0,0,3426,37055,1,780.0,0.0,1600.0,1000,0,0,0,0,-200.0,-1.0,-160.0
0,0,3431,37105,1,780.0,0.0,1596.0,1000,0,0,0,0,-198.0,-0.9899,40.0
0,0,3436,37155,1,780.0,0.0,1608.0,1000,0,0,0,0,-204.0,-1.02,-120.0
0,0,3441,37206,1,784.0,0.0,1616.0,1000,0,0,0,0,-208.0,-1.144,-76.36
0,0,3446,37256,1,784.0,0.0,1616.0,1000,0,0,0,0,-208.0,-1.04,0.0
0,0,3451,37306,1,784.0,0.0,1632.0,1000,0,0,0,0,-216.0,-1.0799,-160.0
0,0,3456,37356,1,784.0,0.0,1648.0,1000,0,0,0,0,-224.0,-1.12,-160.0
0,0,3461,37406,1,784.0,0.0,1660.0,1000,0,0,0,0,-230.0,-1.15,-120.0
0,0,3466,37456,1,784.0,0.0,1640.0,1000,0,0,0,0,-220.0,-1.1,200.0
0,0,3471,37506,1,784.0,0.0,1616.0,1030,0,0,0,0,-208.0,-1.04,240.0
0,0,3476,37557,1,784.0,0.0,1584.0,1127,0,0,0,0,-192.0,-0.96,320.0
0,0,3481,37607,1,784.0,0.0,1508.0,1605,0,0,0,0,-154.0,-0.77,760.0
0,0,3486,37657,1,784.0,0.0,1460.0,1349,0,0,0,0,-130.0,-0.65,480.0
0,0,3491,37707,1,784.0,0.0,1420.0,1289,0,0,0,0,-110.0,-0.55,400.0
0,0,3496,37758,1,784.0,0.0,1388.0,1225,0,0,0,0,-94.0,-0.47,320.0
0,0,3501,37808,1,784.0,0.0,1332.0,1493,0,0,0,0,-66.0,-0.3299,560.0
0,0,3506,37858,1,784.0,0.0,1284.0,1437,0,0,0,0,-42.0,-0.21,480.0
0,0,3511,37908,1,780.0,0.0,1236.0,1461,0,0,0,0,-18.0,-0.09,480.0
0,0,3516,37958,1,780.0,0.0,1196.0,1402,0,0,0,0,2.0,0.01,400.0
0,0,3521,38008,1,772.0,0.0,1156.0,1422,0,0,0,0,22.0,0.11,400.0
0,0,3526,38059,1,772.0,0.0,1108.0,1522,0,0,0,0,46.0,0.253,476.3
0,0,3531,38109,1,748.0,0.0,1056.0,1592,0,0,0,0,72.0,0.3599,520.0
0,0,3536,38159,1,748.0,0.0,1004.0,1618,0,0,0,0,98.0,0.49,520.0
0,0,3541,38209,1,548.0,0.0,956.0,1602,0,0,0,0,122.0,0.61,480.0
0,0,3546,38260,1,548.0,0.0,928.0,1405,0,0,0,0,136.0,0.68,269.0
0,0,3551,38310,1,548.0,0.0,912.0,1304,0,0,0,0,144.0,0.7199,160.0
0,0,3556,38360,1,548.0,0.0,896.0,1312,0,0,0,0,152.0,0.76,160.0
0,0,3561,38410,1,548.0,0.0,884.0,1278,0,0,0,0,158.0,0.7899,120.0
0,0,3566,38460,1,548.0,0.0,860.0,1410,0,0,0,0,170.0,0.85,240.0
0,0,3571,38510,1,576.0,0.0,848.0,1296,0,0,0,0,176.0,0.88,120.0
0,0,3576,38560,1,576.0,0.0,828.0,1386,0,0,0,0,186.0,0.93,200.0
0,0,3581,38611,0,596.0,0.0,828.0,1188,0,0,0,0,186.0,2.79,0.0
0,0,3586,38661,1,596.0,0.0,816.0,1312,0,0,0,0,192.0,0.96,120.0
0,0,3591,38711,1,632.0,0.0,812.0,1234,0,0,0,0,194.0,0.97,40.0
0,0,3596,38762,1,668.0,0.0,812.0,1198,0,0,0,0,194.0,0.97,3.636
0,0,3601,38812,1,668.0,0.0,804.0,1278,0,0,0,0,198.0,0.9899,80.0
0,0,3606,38862,1,676.0,0.0,796.0,1283,0,0,0,0,202.0,1.01,80.0
0,0,3611,38912,1,676.0,0.0,804.0,1118,0,0,0,0,198.0,0.9899,-80.0
0,0,3616,38962,1,688.0,0.0,816.0,1072,0,0,0,0,192.0,0.96,-120.0
0,0,3621,39012,1,688.0,0.0,816.0,1192,0,0,0,0,192.0,0.96,0.0
0,0,3626,39062,1,708.0,0.0,824.0,1108,0,0,0,0,188.0,0.94,-80.0
0,0,3631,39113,1,708.0,0.0,844.0,1000,0,0,0,0,178.0,0.89,-200.0
0,0,3636,39163,1,708.0,0.0,848.0,1136,0,0,0,0,176.0,0.88,-40.0
0,0,3641,39213,1,708.0,0.0,856.0,1092,0,0,0,0,172.0,0.86,-80.0
0,0,3646,39264,1,732.0,0.0,864.0,1088,0,0,0,0,168.0,0.84,-80.0
0,0,3651,39314,1,732.0,0.0,868.0,1126,0,0,0,0,166.0,0.83,-40.0
0,0,3656,39364,0,768.0,0.0,868.0,1168,0,0,0,0,166.0,2.49,0.0
0,0,3661,39414,1,768.0,0.0,876.0,1082,0,0,0,0,162.0,0.81,-80.0
0,0,3666,39464,1,828.0,0.0,868.0,1246,0,0,0,0,166.0,0.83,80.0
0,0,3671,39514,1,828.0,0.0,880.0,1040,0,0,0,0,160.0,0.7999,-120.0
0,0,3676,39564,1,828.0,0.0,876.0,1202,0,0,0,0,162.0,0.81,40.0
0,0,3681,39615,0,828.0,0.0,880.0,1125,0,0,0,0,160.0,5.012,-40.0
0,0,3686,39665,0,828.0,0.0,880.0,1169,0,0,0,0,160.0,9.013,0.0
0,0,3691,39715,0,828.0,0.0,868.0,1299,0,0,0,0,166.0,13.073,120.0
0,0,3696,39766,0,840.0,0.0,860.0,1267,0,0,0,0,170.0,17.37,80.0
0,0,3701,39816,0,840.0,0.0,828.0,1527,0,0,0,0,186.0,21.91,320.0
0,0,3706,39866,0,848.0,0.0,776.0,1758,0,0,0,0,212.0,26.99,520.0
0,0,3711,39916,0,848.0,0.0,712.0,1800,0,0,0,0,244.0,33.05,640.0
0,0,3716,39966,0,904.0,0.0,656.0,1800,0,0,0,0,272.0,39.52,560.0
0,0,3721,40016,0,904.0,0.0,552.0,1800,0,0,0,0,324.0,46.89,1040.0
0,0,3726,40066,0,904.0,0.0,508.0,1800,0,0,0,0,346.0,55.04,440.0
0,0,3731,40117,0,904.0,0.0,464.0,1800,0,0,0,0,368.0,64.22,425.4
0,0,3736,40167,0,904.0,0.0,408.0,1800,0,0,0,0,396.0,73.76,560.0
0,0,3741,40217,0,904.0,0.0,368.0,1800,0,0,0,0,416.0,84.0,400.0
0,0,3746,40267,0,840.0,0.0,316.0,1800,0,0,0,0,442.0,94.8,520.0
0,0,3751,40318,0,840.0,0.0,304.0,1674,0,0,0,0,448.0,106.16,120.0
0,0,3756,40368,0,840.0,0.0,288.0,1733,0,0,0,0,456.0,117.44,160.0
0,0,3761,40418,0,840.0,0.0,292.0,1542,0,0,0,0,454.0,128.85,-40.0
0,0,3766,40468,0,828.0,0.0,288.0,1636,0,0,0,0,456.0,140.24,40.0
0,0,3771,40518,0,828.0,0.0,300.0,1481,0,0,0,0,450.0,151.44,-120.0
0,0,3776,40568,0,828.0,0.0,312.0,1486,0,0,0,0,444.0,162.63,-120.0
0,0,3781,40619,0,828.0,0.0,328.0,1453,0,0,0,0,436.0,173.8,-156.36
0,0,3786,40669,0,848.0,0.0,376.0,1116,0,0,0,0,412.0,184.4,-480.0
0,0,3791,40719,0,848.0,0.0,364.0,1732,0,0,0,0,418.0,194.7,120.0
0,0,3796,40769,0,848.0,0.0,372.0,1539,0,0,0,0,414.0,205.3,-80.0
0,0,3801,40820,0,848.0,0.0,364.0,1713,0,0,0,0,418.0,215.9,80.0
0,0,3806,40870,0,848.0,0.0,328.0,1800,0,0,0,0,436.0,226.7,360.0
0,0,3811,40920,0,852.0,0.0,304.0,1800,0,0,0,0,448.0,237.8,240.0
0,0,3816,40970,0,852.0,0.0,296.0,1781,0,0,0,0,452.0,249.1,80.0
0,0,3821,41020,0,988.0,0.0,288.0,1796,0,0,0,0,456.0,260.5,80.0
0,0,3826,41070,0,988.0,0.0,292.0,1685,0,0,0,0,454.0,271.9,-40.0
0,0,3831,41120,0,988.0,0.0,300.0,1653,0,0,0,0,450.0,283.2,-80.0
0,0,3836,41171,0,988.0,0.0,304.0,1699,0,0,0,0,448.0,294.7,-43.63
0,0,3841,41221,0,988.0,0.0,324.0,1543,0,0,0,0,438.0,305.7,-200.0
0,0,3846,41271,0,988.0,0.0,352.0,1460,0,0,0,0,424.0,316.5,-280.0
0,0,3851,41322,0,904.0,0.0,368.0,1594,0,0,0,0,416.0,327.2,-149.09
0,0,3856,41372,0,904.0,0.0,392.0,1501,0,0,0,0,404.0,337.5,-240.0
0,0,3861,41422,0,844.0,0.0,412.0,1541,0,0,0,0,394.0,347.4,-200.0
0,0,3866,41472,0,844.0,0.0,420.0,1667,0,0,0,0,390.0,357.2,-80.0
0,0,3871,41522,0,844.0,0.0,452.0,1420,0,0,0,0,374.0,366.7,-320.0
0,0,3876,41572,0,844.0,0.0,448.0,1792,0,0,0,0,376.0,376.1,40.0
0,0,3881,41622,0,804.0,0.0,456.0,1677,0,0,0,0,372.0,385.4,-80.0
0,0,3886,41673,0,804.0,0.0,452.0,1800,0,0,0,0,374.0,394.9,40.0
0,0,3891,41723,0,800.0,0.0,456.0,1736,0,0,0,0,372.0,404.2,-40.0
0,0,3896,41773,0,800.0,0.0,464.0,1701,0,0,0,0,368.0,413.5,-80.0
0,0,3901,41824,0,800.0,0.0,476.0,1664,0,0,0,0,362.0,422.8,-120.0
0,0,3906,41874,0,800.0,0.0,508.0,1457,0,0,0,0,346.0,431.6,-320.0
0,0,3911,41924,0,800.0,0.0,536.0,1492,0,0,0,0,332.0,440.1,-280.0
0,0,3916,41974,0,800.0,0.0,548.0,1654,0,0,0,0,326.0,448.3,-120.0
0,0,3921,42024,0,800.0,0.0,572.0,1530,0,0,0,0,314.0,456.4,-240.0
0,0,3926,42074,0,800.0,0.0,580.0,1694,0,0,0,0,310.0,464.2,-80.0
0,0,3931,42124,0,800.0,0.0,620.0,1361,0,0,0,0,290.0,471.7,-400.0
0,0,3936,42175,0,800.0,0.0,644.0,1520,0,0,0,0,278.0,478.8,-236.3
0,0,3941,42225,0,808.0,0.0,628.0,1800,0,0,0,0,286.0,485.8,160.0
0,0,3946,42275,0,808.0,0.0,640.0,1652,0,0,0,0,280.0,492.9,-120.0
0,0,3951,42326,0,808.0,0.0,668.0,1485,0,0,0,0,266.0,499.8,-280.0
0,0,3956,42376,0,808.0,0.0,664.0,1800,0,0,0,0,268.0,506.4,40.0
0,0,3961,42426,0,808.0,0.0,672.0,1697,0,0,0,0,264.0,513.1,-80.0
0,0,3966,42476,0,808.0,0.0,664.0,1800,0,0,0,0,268.0,519.7,80.0
0,0,3971,42526,0,812.0,0.0,672.0,1710,0,0,0,0,264.0,526.4,-80.0
0,0,3976,42576,0,812.0,0.0,672.0,1796,0,0,0,0,264.0,532.9,0.0
0,0,3981,42626,0,812.0,0.0,692.0,1593,0,0,0,0,254.0,539.3,-200.0
0,0,3986,42677,0,812.0,0.0,720.0,1505,0,0,0,0,240.0,545.8,-280.0
0,0,3991,42727,0,812.0,0.0,760.0,1371,0,0,0,0,220.0,551.5,-400.0
0,0,3996,42777,0,812.0,0.0,812.0,1230,0,0,0,0,194.0,556.6,-520.0
0,0,4001,42827,0,796.0,0.0,844.0,1419,0,0,0,0,178.0,561.2,-320.0
0,0,4006,42878,0,796.0,0.0,856.0,1617,0,0,0,0,172.0,565.6,-120.0
0,0,4011,42928,0,792.0,0.0,864.0,1657,0,0,0,0,168.0,569.8,-80.0
0,0,4016,42978,0,792.0,0.0,884.0,1532,0,0,0,0,158.0,574.0,-200.0
0,0,4021,43028,0,792.0,0.0,896.0,1609,0,0,0,0,152.0,577.8,-120.0
0,0,4026,43078,0,796.0,0.0,896.0,1733,0,0,0,0,152.0,581.6,0.0
0,0,4031,43128,0,796.0,0.0,884.0,1800,0,0,0,0,158.0,585.5,120.0
0,0,4036,43179,0,796.0,0.0,884.0,1743,0,0,0,0,158.0,589.5,-3.636
0,0,4041,43229,0,796.0,0.0,896.0,1625,0,0,0,0,152.0,593.3,-120.0
0,0,4046,43279,0,796.0,0.0,924.0,1454,0,0,0,0,138.0,596.9,-280.0
0,0,4051,43329,0,796.0,0.0,940.0,1570,0,0,0,0,130.0,600.2,-160.0
0,0,4056,43380,0,796.0,0.0,956.0,1565,0,0,0,0,122.0,603.3,-160.0
0,0,4061,43430,0,796.0,0.0,964.0,1644,0,0,0,0,118.0,606.4,-80.0
0,0,4066,43480,0,800.0,0.0,964.0,1727,0,0,0,0,118.0,609.3,0.0
0,0,4071,43530,0,800.0,0.0,964.0,1730,0,0,0,0,118.0,612.3,0.0
0,0,4076,43580,0,804.0,0.0,964.0,1733,0,0,0,0,118.0,615.2,0.0
0,0,4081,43630,0,804.0,0.0,956.0,1800,0,0,0,0,122.0,618.2,80.0
0,0,4086,43680,0,816.0,0.0,968.0,1617,0,0,0,0,116.0,621.1,-120.0
0,0,4091,43731,0,816.0,0.0,988.0,1530,0,0,0,0,106.0,624.0,-200.0
0,0,0,43781,0,816.0,0.0,1024.0,1354,0,0,0,0,88.0,626.3,-360.0
0,0,5,43831,0,816.0,0.0,1060.0,1338,0,0,0,0,70.0,628.1,-360.0
0,0,10,43882,0,816.0,0.0,1096.0,1328,0,0,0,0,52.0,629.5,-352.7
0,0,15,43932,0,816.0,0.0,1092.0,1724,0,0,0,0,54.0,630.9,40.0
0,0,20,43982,0,812.0,0.0,1072.0,1800,0,0,0,0,64.0,632.4,200.0
0,0,25,44032,0,812.0,0.0,1076.0,1655,0,0,0,0,62.0,633.9,-40.0
0,0,30,44082,0,812.0,0.0,1080.0,1655,0,0,0,0,60.0,635.5,-40.0
0,0,35,44132,0,812.0,0.0,1080.0,1696,0,0,0,0,60.0,636.9,0.0
0,0,40,44182,0,808.0,0.0,1064.0,1800,0,0,0,0,68.0,638.5,160.0
0,0,45,44233,0,808.0,0.0,1076.0,1578,0,0,0,0,62.0,640.2,-123.63
0,0,50,44283,0,812.0,0.0,1080.0,1661,0,0,0,0,60.0,641.8,-40.0
0,0,55,44333,0,812.0,0.0,1100.0,1493,0,0,0,0,50.0,643.2,-200.0
0,0,60,44384,0,920.0,0.0,1100.0,1694,0,0,0,0,50.0,644.5,0.0
0,0,65,44434,0,920.0,0.0,1108.0,1611,0,0,0,0,46.0,645.6,-80.0
0,0,70,44484,0,920.0,0.0,1112.0,1650,0,0,0,0,44.0,646.7,-40.0
0,0,75,44534,0,920.0,0.0,1120.0,1607,0,0,0,0,40.0,647.7,-80.0
0,0,80,44584,0,920.0,0.0,1128.0,1604,0,0,0,0,36.0,648.7,-80.0
0,0,85,44634,0,920.0,0.0,1148.0,1475,0,0,0,0,26.0,649.4,-200.0
0,0,90,44684,0,920.0,0.0,1184.0,1297,0,0,0,0,8.0,649.8,-360.0
0,0,95,44735,0,920.0,0.0,1196.0,1532,0,0,0,0,2.0,650.0,-120.0
0,0,100,44785,0,920.0,0.0,1180.0,1800,0,0,0,0,10.0,650.2,160.0
0,0,105,44835,0,920.0,0.0,1188.0,1576,0,0,0,0,6.0,650.4,-80.0
0,0,110,44886,0,916.0,0.0,1184.0,1698,0,0,0,0,8.0,650.6,40.0
0,0,115,44936,0,916.0,0.0,1196.0,1532,0,0,0,0,2.0,650.7,-120.0
0,0,120,44986,0,912.0,0.0,1212.0,1484,0,0,0,0,-6.0,650.7,-160.0
0,0,125,45036,0,912.0,0.0,1196.0,1800,0,0,0,0,2.0,650.6,160.0
0,0,130,45086,0,904.0,0.0,1176.0,1800,0,0,0,0,12.0,650.9,200.0
0,0,135,45136,0,872.0,0.0,1184.0,1579,0,0,0,0,8.0,651.1,-80.0
0,0,140,45186,0,872.0,0.0,1184.0,1659,0,0,0,0,8.0,651.4,0.0
0,0,145,45237,0,872.0,0.0,1176.0,1736,0,0,0,0,12.0,651.7,72.72
0,0,150,45287,0,872.0,0.0,1180.0,1621,0,0,0,0,10.0,651.9,-40.0
0,0,155,45337,0,872.0,0.0,1168.0,1788,0,0,0,0,16.0,652.2,120.0
0,0,160,45387,0,872.0,0.0,1172.0,1626,0,0,0,0,14.0,652.6,-40.0
0,0,165,45438,0,872.0,0.0,1180.0,1590,0,0,0,0,10.0,652.9,-72.72
0,0,170,45488,0,872.0,0.0,1192.0,1537,0,0,0,0,4.0,653.0,-120.0
0,0,175,45538,0,872.0,0.0,1212.0,1447,0,0,0,0,-6.0,653.0,-200.0
0,0,180,45588,0,872.0,0.0,1204.0,1730,0,0,0,0,-2.0,652.9,80.0
0,0,185,45638,0,852.0,0.0,1212.0,1566,0,0,0,0,-6.0,652.8,-80.0
0,0,190,45688,0,852.0,0.0,1200.0,1772,0,0,0,0,0.0,652.8,120.0
0,0,195,45739,0,852.0,0.0,1204.0,1610,0,0,0,0,-2.0,652.7,-40.0
0,0,200,45789,0,852.0,0.0,1220.0,1482,0,0,0,0,-10.0,652.5,-160.0
0,0,205,45839,0,840.0,0.0,1212.0,1726,0,0,0,0,-6.0,652.4,80.0
0,0,210,45889,0,840.0,0.0,1240.0,1352,0,0,0,0,-20.0,652.0,-280.0
0,0,215,45940,0,796.0,0.0,1252.0,1505,0,0,0,0,-26.0,651.4,-120.0
0,0,220,45990,0,796.0,0.0,1268.0,1456,0,0,0,0,-34.0,650.5,-160.0
0,0,225,46040,0,756.0,0.0,1264.0,1657,0,0,0,0,-32.0,649.7,40.0
0,0,230,46090,0,756.0,0.0,1260.0,1658,0,0,0,0,-30.0,648.9,40.0
0,0,235,46140,1,672.0,0.0,1244.0,1137,0,0,0,0,-22.0,-0.11,160.0
0,0,240,46190,1,672.0,0.0,1228.0,1145,0,0,0,0,-14.0,-0.07,160.0
0,0,245,46240,1,660.0,0.0,1216.0,1111,0,0,0,0,-8.0,-0.04,120.0
0,0,250,46291,1,660.0,0.0,1212.0,1033,0,0,0,0,-6.0,-0.03,40.0
0,0,255,46341,1,652.0,0.0,1208.0,1035,0,0,0,0,-4.0,-0.02,40.0
0,0,260,46391,1,652.0,0.0,1200.0,1080,0,0,0,0,0.0,0.0,80.0
0,0,265,46442,1,660.0,0.0,1188.0,1122,0,0,0,0,6.0,0.03,116.36
0,0,270,46492,1,660.0,0.0,1184.0,1048,0,0,0,0,8.0,0.04,40.0
0,0,275,46542,1,672.0,0.0,1184.0,1008,0,0,0,0,8.0,0.04,0.0
0,0,280,46592,1,672.0,0.0,1204.0,1000,0,0,0,0,-2.0,-0.01,-200.0
0,0,285,46642,1,688.0,0.0,1204.0,1000,0,0,0,0,-2.0,-0.01,0.0
0,0,290,46692,1,688.0,0.0,1212.0,1000,0,0,0,0,-6.0,-0.03,-80.0
0,0,295,46742,1,712.0,0.0,1216.0,1000,0,0,0,0,-8.0,-0.04,-40.0
0,0,300,46793,1,712.0,0.0,1260.0,1000,0,0,0,0,-30.0,-0.14999,-436.3
0,0,305,46843,1,720.0,0.0,1316.0,1000,0,0,0,0,-58.0,-0.29,-560.0
0,0,310,46893,1,720.0,0.0,1380.0,1000,0,0,0,0,-90.0,-0.45,-640.0
0,0,315,46944,1,736.0,0.0,1388.0,1000,0,0,0,0,-94.0,-0.47,-80.0
0,0,320,46994,1,736.0,0.0,1400.0,1000,0,0,0,0,-100.0,-0.5,-120.0
0,0,325,47044,1,776.0,0.0,1348.0,1445,0,0,0,0,-74.0,-0.37,520.0
0,0,330,47094,1,776.0,0.0,1284.0,1597,0,0,0,0,-42.0,-0.21,640.0
0,0,335,47144,1,808.0,0.0,1192.0,1800,0,0,0,0,4.0,0.02,920.0
0,0,340,47194,1,808.0,0.0,1120.0,1760,0,0,0,0,40.0,0.1999,720.0
0,0,345,47244,1,808.0,0.0,1032.0,1800,0,0,0,0,84.0,0.42,880.0
0,0,350,47295,1,808.0,0.0,952.0,1800,0,0,0,0,124.0,0.62,785.4
0,0,355,47345,1,808.0,0.0,868.0,1800,0,0,0,0,166.0,0.83,840.0
0,0,360,47395,1,832.0,0.0,756.0,1800,0,0,0,0,222.0,1.11,1120.0
0,0,365,47446,1,832.0,0.0,704.0,1751,0,0,0,0,248.0,1.364,501.8
0,0,370,47496,1,832.0,0.0,680.0,1501,0,0,0,0,260.0,1.3,240.0
0,0,375,47546,1,832.0,0.0,664.0,1429,0,0,0,0,268.0,1.3399,160.0
0,0,380,47596,1,852.0,0.0,664.0,1269,0,0,0,0,268.0,1.3399,0.0
0,0,385,47646,1,852.0,0.0,628.0,1647,0,0,0,0,286.0,1.4299,360.0
0,0,390,47696,1,880.0,0.0,560.0,1800,0,0,0,0,320.0,1.5999,680.0
0,0,395,47746,1,880.0,0.0,504.0,1800,0,0,0,0,348.0,1.74,560.0
0,0,400,47797,1,880.0,0.0,456.0,1800,0,0,0,0,372.0,1.86,480.0
0,0,405,47847,1,880.0,0.0,352.0,1800,0,0,0,0,424.0,2.12,1040.0
0,0,410,47897,1,880.0,0.0,280.0,1800,0,0,0,0,460.0,2.3,720.0
0,0,415,47947,1,880.0,0.0,204.0,1800,0,0,0,0,498.0,2.49,760.0
0,0,420,47998,1,880.0,0.0,140.0,1800,0,0,0,0,530.0,2.649,632.7
0,0,425,48048,1,880.0,0.0,76.0,1800,0,0,0,0,562.0,2.81,640.0
0,0,430,48098,1,880.0,0.0,24.0,1800,0,0,0,0,588.0,2.939,520.0
0,0,435,48148,1,880.0,0.0,44.0,1380,0,0,0,0,578.0,2.889,-200.0
0,0,440,48198,1,880.0,0.0,48.0,1538,0,0,0,0,576.0,2.879,-40.0
0,0,445,48248,1,880.0,0.0,68.0,1368,0,0,0,0,566.0,2.83,-200.0
0,0,450,48299,1,880.0,0.0,88.0,1359,0,0,0,0,556.0,3.058,-200.0
0,0,455,48349,1,880.0,0.0,124.0,1180,0,0,0,0,538.0,2.69,-360.0
0,0,460,48399,1,880.0,0.0,148.0,1288,0,0,0,0,526.0,2.629,-240.0
0,0,465,48449,1,880.0,0.0,168.0,1318,0,0,0,0,516.0,2.58,-200.0
0,0,470,48500,1,860.0,0.0,208.0,1109,0,0,0,0,496.0,2.48,-389.0
0,0,475,48550,1,860.0,0.0,232.0,1246,0,0,0,0,484.0,2.419,-240.0
0,0,480,48600,1,852.0,0.0,244.0,1360,0,0,0,0,478.0,2.389,-120.0
0,0,485,48650,1,852.0,0.0,276.0,1144,0,0,0,0,462.0,2.31,-320.0
0,0,490,48700,1,848.0,0.0,256.0,1674,0,0,0,0,472.0,2.36,200.0
0,0,495,48750,1,848.0,0.0,244.0,1600,0,0,0,0,478.0,2.389,120.0
0,0,500,48800,1,840.0,0.0,212.0,1800,0,0,0,0,494.0,2.47,320.0
0,0,505,48851,1,840.0,0.0,132.0,1800,0,0,0,0,534.0,2.669,792.7
0,0,510,48901,1,836.0,0.0,60.0,1800,0,0,0,0,570.0,2.85,720.0
0,0,515,48951,1,836.0,0.0,36.0,1999,0,0,0,0,-209706.6,-209706.6,-209.1528
0,0,520,49002,1,832.0,0.0,52.0,1416,0,0,0,0,574.0,2.87,-160.0
0,0,525,49052,1,832.0,0.0,64.0,1450,0,0,0,0,568.0,2.84,-120.0
0,0,530,49102,1,828.0,0.0,40.0,1800,0,0,0,0,580.0,2.899,240.0
0,0,535,49152,1,828.0,0.0,24.0,1750,0,0,0,0,588.0,2.939,160.0
0,0,540,49202,1,828.0,0.0,20.0,1632,0,0,0,0,590.0,2.95,40.0
0,0,545,49252,1,828.0,0.0,20.0,1592,0,0,0,0,590.0,2.95,0.0
0,0,550,49302,1,828.0,0.0,20.0,1592,0,0,0,0,590.0,2.95,0.0
0,0,555,49353,1,828.0,0.0,20.0,1592,0,0,0,0,590.0,2.95,0.0
0,0,560,49403,1,828.0,0.0,20.0,1592,0,0,0,0,590.0,2.95,0.0
0,0,565,49453,1,864.0,0.0,20.0,1592,0,0,0,0,590.0,2.95,0.0
0,0,570,49504,1,864.0,0.0,20.0,1592,0,0,0,0,590.0,2.95,0.0
0,0,575,49554,1,872.0,0.0,20.0,1592,0,0,0,0,590.0,2.95,0.0
0,0,580,49604,1,872.0,0.0,20.0,1592,0,0,0,0,590.0,2.95,0.0
0,0,585,49654,1,872.0,0.0,20.0,1592,0,0,0,0,590.0,2.95,0.0
0,0,590,49704,1,872.0,0.0,20.0,1592,0,0,0,0,590.0,2.95,0.0
0,0,595,49754,1,872.0,0.0,20.0,1592,0,0,0,0,590.0,2.95,0.0
0,0,600,49804,1,872.0,0.0,20.0,1592,0,0,0,0,590.0,2.95,0.0
0,0,605,49855,1,876.0,0.0,20.0,1592,0,0,0,0,590.0,2.95,0.0
0,0,610,49905,1,876.0,0.0,20.0,1592,0,0,0,0,590.0,2.95,0.0
0,0,615,49955,1,900.0,0.0,20.0,1592,0,0,0,0,590.0,2.95,0.0
0,0,620,50006,1,900.0,0.0,20.0,1593,0,0,0,0,590.0,3.245,0.0
0,0,625,50056,1,900.0,0.0,20.0,1592,0,0,0,0,590.0,2.95,0.0
