InitialVarHeader,InitialVars,logNo,timeStep,controlMode,forwardSensor1,forwardSensor2,AltitudeSensor,throttleControl,yawControl,rollControl,pitchControl,stablilityModeControl,errorP,errorI,errorD
ALTITUDE_KP,0.6,6,2719,0,732.0,0.0,296.0,1000,0,0,0,0,0.0,0.0,0.0
ALTITUDE_KI,0.4,11,2769,0,732.0,0.0,304.0,1000,0,0,0,0,0.0,0.0,0.0
ALTITUDE_KD,0.0,16,2819,0,728.0,0.0,292.0,1643,0,0,0,0,544.8,18.25,80.0
THROTTLE_LIMIT,2000.0,21,2869,0,728.0,0.0,292.0,1661,0,0,0,0,544.8,36.43,80.0
ALTITUDE_PID_GAIN_RATIO,1.0,26,2919,0,728.0,0.0,296.0,1756,0,0,0,0,542.4,54.51,160.0
ALTITUDE_HOVER_HEIGHT,1200.0,31,2969,0,668.0,0.0,288.0,1619,0,0,0,0,547.2,72.6,0.0
0,0,36,3019,0,668.0,0.0,308.0,1305,0,0,0,0,535.2,90.78,-320.0
0,0,41,3070,0,728.0,0.0,288.0,2000,0,0,0,0,547.2,109.24,400.0
0,0,46,3120,0,728.0,0.0,296.0,1749,0,0,0,0,542.4,127.4,80.0
0,0,51,3170,0,744.0,0.0,284.0,1935,0,0,0,0,549.6,145.57,240.0
0,0,56,3220,0,744.0,0.0,284.0,1873,0,0,0,0,549.6,163.77,160.0
0,0,61,3270,0,864.0,0.0,296.0,1884,0,0,0,0,542.4,181.8,160.0
0,0,66,3320,0,864.0,0.0,288.0,1667,0,0,0,0,547.2,199.9,-80.0
0,0,71,3371,0,864.0,0.0,312.0,1474,0,0,0,0,532.8,218.3,-276.3
0,0,76,3421,0,864.0,0.0,296.0,1778,0,0,0,0,542.4,236.3,0.0
0,0,81,3471,0,864.0,0.0,304.0,1631,0,0,0,0,537.6,254.3,-160.0
0,0,86,3521,0,864.0,0.0,284.0,1822,0,0,0,0,549.6,272.7,0.0
0,0,91,3572,0,864.0,0.0,296.0,1993,0,0,0,0,542.4,291.2,160.0
0,0,96,3622,0,864.0,0.0,304.0,2000,0,0,0,0,537.6,309.1,160.0
0,0,101,3672,0,864.0,0.0,284.0,2000,0,0,0,0,549.6,327.3,240.0
0,0,106,3722,0,864.0,0.0,284.0,2000,0,0,0,0,549.6,345.6,240.0
0,0,111,3772,0,864.0,0.0,296.0,1906,0,0,0,0,542.4,363.9,0.0
0,0,116,3822,0,864.0,0.0,284.0,1851,0,0,0,0,549.6,382.1,-80.0
0,0,121,3872,0,864.0,0.0,284.0,1949,0,0,0,0,549.6,400.3,0.0
0,0,126,3923,0,864.0,0.0,284.0,2000,0,0,0,0,549.6,418.8,400.0
0,0,131,3973,0,812.0,0.0,268.0,2000,0,0,0,0,559.2,437.2,400.0
0,0,136,4023,0,812.0,0.0,304.0,1352,0,0,0,0,537.6,455.3,-640.0
0,0,141,4074,0,632.0,0.0,308.0,1761,0,0,0,0,535.2,473.8,-247.2
0,0,146,4124,0,632.0,0.0,300.0,1711,0,0,0,0,540.0,491.9,-320.0
0,0,151,4174,0,416.0,0.0,288.0,2000,0,0,0,0,547.2,510.0,80.0
0,0,156,4224,0,416.0,0.0,300.0,1828,0,0,0,0,540.0,528.1,-240.0
0,0,161,4274,0,628.0,0.0,296.0,1928,0,0,0,0,542.4,546.2,-160.0
0,0,166,4324,0,628.0,0.0,304.0,1941,0,0,0,0,537.6,564.3,-160.0
0,0,171,4374,0,628.0,0.0,264.0,2000,0,0,0,0,561.6,582.4,800.0
0,0,176,4425,0,628.0,0.0,300.0,2000,0,0,0,0,540.0,600.8,-80.0
0,0,181,4475,0,800.0,0.0,272.0,2000,0,0,0,0,556.8,619.1,480.0
0,0,186,4525,0,800.0,0.0,284.0,2000,0,0,0,0,549.6,637.3,-160.0
0,0,191,4576,0,808.0,0.0,284.0,2000,0,0,0,0,549.6,655.9,-14.545
0,0,196,4626,0,808.0,0.0,312.0,2000,0,0,0,0,532.8,674.0,0.0
0,0,201,4676,0,804.0,0.0,292.0,2000,0,0,0,0,544.8,692.3,-160.0
0,0,206,4726,0,804.0,0.0,308.0,1845,0,0,0,0,535.2,710.4,-400.0
0,0,211,4776,0,820.0,0.0,288.0,2000,0,0,0,0,547.2,728.6,0.0
0,0,216,4826,0,820.0,0.0,308.0,1642,0,0,0,0,535.2,746.8,-640.0
0,0,221,4876,0,844.0,0.0,284.0,2000,0,0,0,0,549.6,764.9,320.0
0,0,226,4927,1,844.0,0.0,292.0,1715,0,0,0,0,544.8,3.632,167.2
0,0,231,4977,1,848.0,0.0,284.0,1633,0,0,0,0,549.6,3.664,80.0
0,0,236,5027,1,848.0,0.0,300.0,1143,0,0,0,0,540.0,3.6,-400.0
0,0,241,5078,1,868.0,0.0,296.0,1371,0,0,0,0,542.4,3.977,-174.5
0,0,246,5128,1,868.0,0.0,312.0,1136,0,0,0,0,532.8,3.552,-400.0
0,0,251,5178,1,868.0,0.0,288.0,1390,0,0,0,0,547.2,3.648,-160.0
0,0,256,5228,1,868.0,0.0,300.0,1143,0,0,0,0,540.0,3.6,-400.0
0,0,261,5278,1,868.0,0.0,292.0,1548,0,0,0,0,544.8,3.632,0.0
0,0,266,5328,1,820.0,0.0,276.0,1878,0,0,0,0,554.4,3.695,320.0
0,0,271,5378,1,820.0,0.0,292.0,1628,0,0,0,0,544.8,3.632,80.0
0,0,276,5429,1,820.0,0.0,296.0,1698,0,0,0,0,542.4,3.616,152.72
0,0,281,5479,1,820.0,0.0,280.0,1475,0,0,0,0,552.0,3.68,-80.0
0,0,286,5529,1,716.0,0.0,280.0,1875,0,0,0,0,552.0,3.68,320.0
0,0,291,5579,1,716.0,0.0,292.0,1388,0,0,0,0,544.8,3.632,-160.0
0,0,296,5630,1,644.0,0.0,284.0,1953,0,0,0,0,549.6,3.664,400.0
0,0,301,5680,1,644.0,0.0,308.0,1218,0,0,0,0,535.2,3.568,-320.0
0,0,306,5730,1,616.0,0.0,300.0,1783,0,0,0,0,540.0,3.6,240.0
0,0,311,5780,1,616.0,0.0,284.0,1953,0,0,0,0,549.6,3.664,400.0
0,0,316,5830,1,584.0,0.0,296.0,1226,0,0,0,0,542.4,3.616,-320.0
0,0,321,5880,1,584.0,0.0,304.0,1301,0,0,0,0,537.6,3.584,-240.0
0,0,326,5931,1,620.0,0.0,288.0,1602,0,0,0,0,547.2,4.012,50.9
0,0,331,5981,1,620.0,0.0,292.0,1548,0,0,0,0,544.8,3.632,0.0
0,0,336,6031,1,636.0,0.0,284.0,1393,0,0,0,0,549.6,3.664,-160.0
0,0,341,6081,1,636.0,0.0,300.0,1543,0,0,0,0,540.0,3.6,0.0
0,0,346,6132,1,628.0,0.0,288.0,1470,0,0,0,0,547.2,3.648,-80.0
0,0,351,6182,1,628.0,0.0,276.0,1958,0,0,0,0,554.4,3.695,400.0
0,0,356,6232,1,604.0,0.0,296.0,1546,0,0,0,0,542.4,3.616,0.0
0,0,361,6282,1,604.0,0.0,300.0,1303,0,0,0,0,540.0,3.6,-240.0
0,0,366,6332,1,616.0,0.0,304.0,1381,0,0,0,0,537.6,3.584,-160.0
0,0,371,6382,1,616.0,0.0,296.0,1306,0,0,0,0,542.4,3.616,-240.0
0,0,376,6432,1,632.0,0.0,308.0,1618,0,0,0,0,535.2,3.568,80.0
0,0,381,6483,1,632.0,0.0,308.0,1000,0,0,0,0,535.2,3.568,-640.0
0,0,386,6533,1,772.0,0.0,296.0,1386,0,0,0,0,542.4,3.616,-160.0
0,0,391,6583,1,772.0,0.0,288.0,1950,0,0,0,0,547.2,3.648,400.0
0,0,396,6634,1,784.0,0.0,292.0,1373,0,0,0,0,544.8,3.632,-174.5
0,0,401,6684,1,784.0,0.0,292.0,1868,0,0,0,0,544.8,3.632,320.0
0,0,406,6734,1,860.0,0.0,296.0,1626,0,0,0,0,542.4,3.616,80.0
0,0,411,6784,1,860.0,0.0,296.0,1866,0,0,0,0,542.4,3.616,320.0
0,0,416,6834,1,796.0,0.0,292.0,1548,0,0,0,0,544.8,3.632,0.0
0,0,421,6884,1,796.0,0.0,292.0,1308,0,0,0,0,544.8,3.632,-240.0
0,0,426,6934,1,456.0,0.0,296.0,1706,0,0,0,0,542.4,3.616,160.0
0,0,431,6985,1,456.0,0.0,296.0,1546,0,0,0,0,542.4,3.616,0.0
0,0,436,7035,1,680.0,0.0,284.0,1553,0,0,0,0,549.6,3.664,0.0
0,0,441,7085,1,680.0,0.0,284.0,2000,0,0,0,0,549.6,3.664,560.0
0,0,446,7136,1,796.0,0.0,292.0,1977,0,0,0,0,544.8,3.632,429.0
0,0,451,7186,1,796.0,0.0,308.0,1458,0,0,0,0,535.2,3.568,-80.0
0,0,456,7236,1,796.0,0.0,308.0,1618,0,0,0,0,535.2,3.568,80.0
0,0,461,7286,1,796.0,0.0,284.0,1793,0,0,0,0,549.6,3.664,240.0
0,0,466,7336,1,796.0,0.0,296.0,1546,0,0,0,0,542.4,3.616,0.0
0,0,471,7386,1,796.0,0.0,308.0,1138,0,0,0,0,535.2,3.568,-400.0
0,0,476,7436,1,796.0,0.0,284.0,1473,0,0,0,0,549.6,3.664,-80.0
0,0,481,7487,1,768.0,0.0,296.0,1473,0,0,0,0,542.4,3.616,-72.72
0,0,486,7537,1,768.0,0.0,284.0,1633,0,0,0,0,549.6,3.664,80.0
0,0,491,7587,1,776.0,0.0,276.0,1798,0,0,0,0,554.4,3.695,240.0
0,0,496,7638,1,776.0,0.0,304.0,1585,0,0,0,0,537.6,3.942,43.63
0,0,501,7688,1,780.0,0.0,284.0,1553,0,0,0,0,549.6,3.664,0.0
0,0,506,7738,1,780.0,0.0,304.0,1301,0,0,0,0,537.6,3.584,-240.0
0,0,511,7788,1,780.0,0.0,300.0,1383,0,0,0,0,540.0,3.6,-160.0
0,0,516,7838,1,780.0,0.0,284.0,2000,0,0,0,0,549.6,3.664,560.0
0,0,521,7888,1,864.0,0.0,288.0,1710,0,0,0,0,547.2,3.648,160.0
0,0,526,7938,1,864.0,0.0,312.0,1456,0,0,0,0,532.8,3.552,-80.0
0,0,531,7989,1,860.0,0.0,304.0,1177,0,0,0,0,537.6,3.584,-363.6
0,0,536,8039,1,860.0,0.0,296.0,1546,0,0,0,0,542.4,3.616,0.0
0,0,541,8089,1,860.0,0.0,296.0,1706,0,0,0,0,542.4,3.616,160.0
0,0,546,8139,1,860.0,0.0,284.0,1713,0,0,0,0,549.6,3.664,160.0
0,0,551,8190,1,860.0,0.0,292.0,1388,0,0,0,0,544.8,3.632,-160.0
0,0,556,8240,1,860.0,0.0,272.0,2000,0,0,0,0,556.8,3.712,880.0
0,0,561,8290,1,864.0,0.0,300.0,1543,0,0,0,0,540.0,3.6,0.0
0,0,566,8340,1,864.0,0.0,296.0,1546,0,0,0,0,542.4,3.616,0.0
0,0,571,8390,1,860.0,0.0,288.0,1630,0,0,0,0,547.2,3.648,80.0
0,0,576,8440,1,860.0,0.0,284.0,1873,0,0,0,0,549.6,3.664,320.0
0,0,581,8491,1,860.0,0.0,304.0,1236,0,0,0,0,537.6,3.942,-305.4
0,0,586,8541,1,860.0,0.0,296.0,1546,0,0,0,0,542.4,3.616,0.0
0,0,591,8591,1,860.0,0.0,304.0,1301,0,0,0,0,537.6,3.584,-240.0
0,0,596,8641,1,860.0,0.0,312.0,1296,0,0,0,0,532.8,3.552,-240.0
0,0,601,8692,1,856.0,0.0,304.0,1621,0,0,0,0,537.6,3.584,80.0
0,0,606,8742,1,856.0,0.0,312.0,1376,0,0,0,0,532.8,3.552,-160.0
0,0,611,8792,1,860.0,0.0,280.0,1955,0,0,0,0,552.0,3.68,400.0
0,0,616,8842,1,860.0,0.0,300.0,1063,0,0,0,0,540.0,3.6,-480.0
0,0,621,8892,1,856.0,0.0,300.0,1223,0,0,0,0,540.0,3.6,-320.0
0,0,626,8942,1,856.0,0.0,288.0,1790,0,0,0,0,547.2,3.648,240.0
0,0,631,8992,1,860.0,0.0,292.0,1468,0,0,0,0,544.8,3.632,-80.0
0,0,636,9043,1,860.0,0.0,292.0,1148,0,0,0,0,544.8,3.632,-400.0
0,0,641,9093,1,860.0,0.0,304.0,1541,0,0,0,0,537.6,3.584,0.0
0,0,646,9143,1,860.0,0.0,288.0,1630,0,0,0,0,547.2,3.648,80.0
0,0,651,9194,1,856.0,0.0,284.0,1495,0,0,0,0,549.6,3.664,-58.18
0,0,656,9244,1,856.0,0.0,296.0,1546,0,0,0,0,542.4,3.616,0.0
0,0,661,9294,1,860.0,0.0,284.0,1793,0,0,0,0,549.6,3.664,240.0
0,0,666,9344,1,860.0,0.0,296.0,1706,0,0,0,0,542.4,3.616,160.0
0,0,671,9394,1,860.0,0.0,288.0,1710,0,0,0,0,547.2,3.648,160.0
0,0,676,9444,1,860.0,0.0,300.0,1383,0,0,0,0,540.0,3.6,-160.0
0,0,681,9494,1,860.0,0.0,272.0,1800,0,0,0,0,556.8,3.712,240.0
0,0,686,9545,1,820.0,0.0,296.0,1306,0,0,0,0,542.4,3.616,-240.0
0,0,691,9595,1,820.0,0.0,288.0,1710,0,0,0,0,547.2,3.648,160.0
0,0,696,9645,1,812.0,0.0,284.0,1633,0,0,0,0,549.6,3.664,80.0
0,0,701,9696,1,812.0,0.0,288.0,1289,0,0,0,0,547.2,3.648,-261.8
0,0,706,9746,1,812.0,0.0,288.0,1710,0,0,0,0,547.2,3.648,160.0
0,0,711,9796,1,812.0,0.0,292.0,1228,0,0,0,0,544.8,3.632,-320.0
0,0,716,9846,1,316.0,0.0,296.0,1546,0,0,0,0,542.4,3.616,0.0
0,0,721,9896,1,316.0,0.0,292.0,1388,0,0,0,0,544.8,3.632,-160.0
0,0,726,9946,1,368.0,0.0,292.0,1708,0,0,0,0,544.8,3.632,160.0
0,0,731,9996,1,368.0,0.0,288.0,1630,0,0,0,0,547.2,3.648,80.0
0,0,736,10047,1,640.0,0.0,296.0,1386,0,0,0,0,542.4,3.616,-160.0
0,0,741,10097,1,640.0,0.0,296.0,1466,0,0,0,0,542.4,3.616,-80.0
0,0,746,10147,1,660.0,0.0,288.0,1390,0,0,0,0,547.2,3.648,-160.0
0,0,751,10198,1,660.0,0.0,288.0,1776,0,0,0,0,547.2,4.012,225.4
0,0,756,10248,1,628.0,0.0,284.0,1393,0,0,0,0,549.6,3.664,-160.0
0,0,761,10298,1,628.0,0.0,296.0,1546,0,0,0,0,542.4,3.616,0.0
0,0,766,10348,1,620.0,0.0,288.0,1790,0,0,0,0,547.2,3.648,240.0
0,0,771,10398,1,620.0,0.0,284.0,1473,0,0,0,0,549.6,3.664,-80.0
0,0,776,10448,1,644.0,0.0,292.0,1388,0,0,0,0,544.8,3.632,-160.0
0,0,781,10498,1,644.0,0.0,292.0,1628,0,0,0,0,544.8,3.632,80.0
0,0,786,10549,1,816.0,0.0,280.0,1853,0,0,0,0,552.0,3.68,298.1
0,0,791,10599,1,816.0,0.0,284.0,1793,0,0,0,0,549.6,3.664,240.0
0,0,796,10649,1,684.0,0.0,284.0,1553,0,0,0,0,549.6,3.664,0.0
0,0,801,10699,1,684.0,0.0,272.0,1800,0,0,0,0,556.8,3.712,240.0
0,0,806,10750,1,672.0,0.0,276.0,1798,0,0,0,0,554.4,3.695,240.0
0,0,811,10800,1,672.0,0.0,284.0,1793,0,0,0,0,549.6,3.664,240.0
0,0,816,10850,1,784.0,0.0,284.0,1633,0,0,0,0,549.6,3.664,80.0
0,0,821,10900,1,784.0,0.0,272.0,1720,0,0,0,0,556.8,3.712,160.0
0,0,826,10950,1,684.0,0.0,288.0,1630,0,0,0,0,547.2,3.648,80.0
0,0,831,11000,1,684.0,0.0,332.0,1000,0,0,0,0,520.8,3.472,-1200.0
0,0,836,11051,1,684.0,0.0,288.0,1798,0,0,0,0,547.2,4.012,247.2
0,0,841,11101,1,684.0,0.0,280.0,1635,0,0,0,0,552.0,3.68,80.0
0,0,846,11151,1,792.0,0.0,292.0,1388,0,0,0,0,544.8,3.632,-160.0
0,0,851,11201,1,792.0,0.0,300.0,1223,0,0,0,0,540.0,3.6,-320.0
0,0,856,11252,1,796.0,0.0,264.0,1965,0,0,0,0,561.6,3.744,400.0
0,0,861,11302,1,796.0,0.0,272.0,1560,0,0,0,0,556.8,3.712,0.0
0,0,866,11352,1,800.0,0.0,272.0,1800,0,0,0,0,556.8,3.712,240.0
0,0,871,11402,1,800.0,0.0,268.0,2000,0,0,0,0,559.2,3.728,560.0
0,0,876,11452,1,800.0,0.0,292.0,1228,0,0,0,0,544.8,3.632,-320.0
0,0,881,11502,1,800.0,0.0,284.0,1313,0,0,0,0,549.6,3.664,-240.0
0,0,886,11552,1,824.0,0.0,308.0,1218,0,0,0,0,535.2,3.568,-320.0
0,0,891,11603,1,860.0,0.0,288.0,1550,0,0,0,0,547.2,3.648,0.0
0,0,896,11653,1,860.0,0.0,292.0,1628,0,0,0,0,544.8,3.632,80.0
0,0,901,11703,1,860.0,0.0,296.0,1000,0,0,0,0,542.4,3.616,-880.0
0,0,906,11754,1,860.0,0.0,304.0,1177,0,0,0,0,537.6,3.584,-363.6
0,0,911,11804,1,860.0,0.0,284.0,1473,0,0,0,0,549.6,3.664,-80.0
0,0,916,11854,1,860.0,0.0,288.0,1790,0,0,0,0,547.2,3.648,240.0
0,0,921,11904,1,860.0,0.0,304.0,1141,0,0,0,0,537.6,3.584,-400.0
0,0,926,11954,1,860.0,0.0,276.0,1798,0,0,0,0,554.4,3.695,240.0
0,0,931,12004,1,856.0,0.0,284.0,1393,0,0,0,0,549.6,3.664,-160.0
0,0,936,12054,1,856.0,0.0,300.0,1383,0,0,0,0,540.0,3.6,-160.0
0,0,941,12105,1,860.0,0.0,284.0,1713,0,0,0,0,549.6,3.664,160.0
0,0,946,12155,1,860.0,0.0,296.0,1546,0,0,0,0,542.4,3.616,0.0
0,0,951,12205,1,860.0,0.0,276.0,1558,0,0,0,0,554.4,3.695,0.0
0,0,956,12256,1,860.0,0.0,296.0,1473,0,0,0,0,542.4,3.616,-72.72
0,0,961,12306,1,856.0,0.0,284.0,1713,0,0,0,0,549.6,3.664,160.0
0,0,966,12356,1,856.0,0.0,284.0,1793,0,0,0,0,549.6,3.664,240.0
0,0,971,12406,1,856.0,0.0,292.0,1788,0,0,0,0,544.8,3.632,240.0
0,0,976,12456,1,856.0,0.0,288.0,1630,0,0,0,0,547.2,3.648,80.0
0,0,981,12506,1,860.0,0.0,288.0,1630,0,0,0,0,547.2,3.648,80.0
0,0,986,12556,1,860.0,0.0,280.0,1795,0,0,0,0,552.0,3.68,240.0
0,0,991,12607,1,860.0,0.0,284.0,1502,0,0,0,0,549.6,3.664,-50.9
0,0,996,12657,1,860.0,0.0,284.0,1313,0,0,0,0,549.6,3.664,-240.0
0,0,1001,12707,1,860.0,0.0,292.0,1708,0,0,0,0,544.8,3.632,160.0
0,0,1006,12758,1,860.0,0.0,276.0,1631,0,0,0,0,554.4,4.065,72.72
0,0,1011,12808,1,364.0,0.0,304.0,1000,0,0,0,0,537.6,3.584,-640.0
0,0,1016,12858,1,364.0,0.0,280.0,1395,0,0,0,0,552.0,3.68,-160.0
0,0,1021,12908,1,428.0,0.0,280.0,1635,0,0,0,0,552.0,3.68,80.0
0,0,1026,12958,1,428.0,0.0,288.0,1710,0,0,0,0,547.2,3.648,160.0
0,0,1031,13008,1,428.0,0.0,304.0,1061,0,0,0,0,537.6,3.584,-480.0
0,0,1036,13058,1,428.0,0.0,300.0,1143,0,0,0,0,540.0,3.6,-400.0
0,0,1041,13109,1,788.0,0.0,288.0,1558,0,0,0,0,547.2,3.648,7.272
0,0,1046,13159,1,788.0,0.0,264.0,2000,0,0,0,0,561.6,3.744,560.0
0,0,1051,13209,1,792.0,0.0,288.0,1310,0,0,0,0,547.2,3.648,-240.0
0,0,1056,13259,1,792.0,0.0,276.0,1718,0,0,0,0,554.4,3.695,160.0
0,0,1061,13310,1,664.0,0.0,292.0,1228,0,0,0,0,544.8,3.632,-320.0
0,0,1066,13360,1,664.0,0.0,272.0,1640,0,0,0,0,556.8,3.712,80.0
0,0,1071,13410,1,656.0,0.0,292.0,1628,0,0,0,0,544.8,3.632,80.0
0,0,1076,13460,1,656.0,0.0,284.0,1553,0,0,0,0,549.6,3.664,0.0
0,0,1081,13510,1,748.0,0.0,280.0,1475,0,0,0,0,552.0,3.68,-80.0
0,0,1086,13560,1,748.0,0.0,284.0,1553,0,0,0,0,549.6,3.664,0.0
0,0,1091,13611,1,748.0,0.0,288.0,1507,0,0,0,0,547.2,4.012,-43.63
0,0,1096,13661,1,764.0,0.0,284.0,1633,0,0,0,0,549.6,3.664,80.0
0,0,1101,13711,1,764.0,0.0,284.0,1713,0,0,0,0,549.6,3.664,160.0
0,0,1106,13761,1,776.0,0.0,284.0,1793,0,0,0,0,549.6,3.664,240.0
0,0,1111,13812,1,776.0,0.0,296.0,1306,0,0,0,0,542.4,3.616,-240.0
0,0,1116,13862,1,776.0,0.0,288.0,1870,0,0,0,0,547.2,3.648,320.0
0,0,1121,13912,1,776.0,0.0,296.0,1546,0,0,0,0,542.4,3.616,0.0
0,0,1126,13962,1,712.0,0.0,296.0,1306,0,0,0,0,542.4,3.616,-240.0
0,0,1131,14012,1,712.0,0.0,272.0,2000,0,0,0,0,556.8,3.712,640.0
0,0,1136,14062,1,712.0,0.0,288.0,1470,0,0,0,0,547.2,3.648,-80.0
0,0,1141,14112,1,712.0,0.0,292.0,1788,0,0,0,0,544.8,3.632,240.0
0,0,1146,14163,1,796.0,0.0,284.0,1393,0,0,0,0,549.6,3.664,-160.0
0,0,1151,14213,1,796.0,0.0,292.0,1388,0,0,0,0,544.8,3.632,-160.0
0,0,1156,14263,1,828.0,0.0,296.0,1306,0,0,0,0,542.4,3.616,-240.0
0,0,1161,14314,1,828.0,0.0,304.0,1003,0,0,0,0,537.6,3.584,-538.1
0,0,1166,14364,1,320.0,0.0,296.0,1306,0,0,0,0,542.4,3.616,-240.0
0,0,1171,14414,1,320.0,0.0,288.0,1310,0,0,0,0,547.2,3.648,-240.0
0,0,1176,14464,1,328.0,0.0,304.0,1461,0,0,0,0,537.6,3.584,-80.0
0,0,1181,14514,1,328.0,0.0,288.0,1710,0,0,0,0,547.2,3.648,160.0
0,0,1186,14564,1,800.0,0.0,284.0,1873,0,0,0,0,549.6,3.664,320.0
0,0,1191,14614,1,800.0,0.0,284.0,1793,0,0,0,0,549.6,3.664,240.0
0,0,1196,14665,1,816.0,0.0,288.0,1470,0,0,0,0,547.2,3.648,-80.0
0,0,1201,14715,1,816.0,0.0,288.0,1550,0,0,0,0,547.2,3.648,0.0
0,0,1206,14765,1,824.0,0.0,276.0,1798,0,0,0,0,554.4,3.695,240.0
0,0,1211,14816,1,824.0,0.0,304.0,1308,0,0,0,0,537.6,3.584,-232.7
0,0,1216,14866,1,788.0,0.0,296.0,1546,0,0,0,0,542.4,3.616,0.0
0,0,1221,14916,1,788.0,0.0,284.0,2000,0,0,0,0,549.6,3.664,480.0
0,0,1226,14966,1,796.0,0.0,292.0,1228,0,0,0,0,544.8,3.632,-320.0
0,0,1231,15016,1,796.0,0.0,284.0,1473,0,0,0,0,549.6,3.664,-80.0
0,0,1236,15066,1,716.0,0.0,276.0,1478,0,0,0,0,554.4,3.695,-80.0
0,0,1241,15116,1,716.0,0.0,276.0,1558,0,0,0,0,554.4,3.695,0.0
0,0,1246,15167,1,688.0,0.0,288.0,1630,0,0,0,0,547.2,3.648,80.0
0,0,1251,15217,1,688.0,0.0,296.0,1466,0,0,0,0,542.4,3.616,-80.0
0,0,1256,15267,1,760.0,0.0,300.0,1303,0,0,0,0,540.0,3.6,-240.0
0,0,1261,15318,1,760.0,0.0,276.0,1783,0,0,0,0,554.4,4.065,225.4
0,0,1266,15368,1,752.0,0.0,292.0,1868,0,0,0,0,544.8,3.632,320.0
0,0,1271,15418,1,752.0,0.0,312.0,1000,0,0,0,0,532.8,3.552,-560.0
0,0,1276,15468,1,768.0,0.0,284.0,1793,0,0,0,0,549.6,3.664,240.0
0,0,1281,15518,1,768.0,0.0,288.0,1630,0,0,0,0,547.2,3.648,80.0
0,0,1286,15568,1,780.0,0.0,292.0,1148,0,0,0,0,544.8,3.632,-400.0
0,0,1291,15618,1,780.0,0.0,288.0,1310,0,0,0,0,547.2,3.648,-240.0
0,0,1296,15669,1,860.0,0.0,272.0,1713,0,0,0,0,556.8,3.712,152.72
0,0,1301,15719,1,860.0,0.0,304.0,1141,0,0,0,0,537.6,3.584,-400.0
0,0,1306,15769,1,860.0,0.0,288.0,1390,0,0,0,0,547.2,3.648,-160.0
0,0,1311,15819,1,856.0,0.0,284.0,1633,0,0,0,0,549.6,3.664,80.0
0,0,1316,15870,1,856.0,0.0,296.0,1066,0,0,0,0,542.4,3.616,-480.0
0,0,1321,15920,1,856.0,0.0,276.0,1958,0,0,0,0,554.4,3.695,400.0
0,0,1326,15970,1,856.0,0.0,284.0,1633,0,0,0,0,549.6,3.664,80.0
0,0,1331,16020,1,860.0,0.0,292.0,1708,0,0,0,0,544.8,3.632,160.0
0,0,1336,16070,1,860.0,0.0,288.0,1870,0,0,0,0,547.2,3.648,320.0
0,0,1341,16120,1,732.0,0.0,280.0,1875,0,0,0,0,552.0,3.68,320.0
0,0,1346,16171,1,732.0,0.0,296.0,1270,0,0,0,0,542.4,3.977,-276.3
0,0,1351,16221,1,712.0,0.0,288.0,1630,0,0,0,0,547.2,3.648,80.0
0,0,1356,16271,1,712.0,0.0,296.0,1546,0,0,0,0,542.4,3.616,0.0
0,0,1361,16321,1,724.0,0.0,288.0,1230,0,0,0,0,547.2,3.648,-320.0
0,0,1366,16372,1,724.0,0.0,288.0,1310,0,0,0,0,547.2,3.648,-240.0
0,0,1371,16422,1,724.0,0.0,284.0,1953,0,0,0,0,549.6,3.664,400.0
0,0,1376,16472,1,724.0,0.0,300.0,1463,0,0,0,0,540.0,3.6,-80.0
0,0,1381,16522,1,724.0,0.0,276.0,1958,0,0,0,0,554.4,3.695,400.0
0,0,1386,16572,1,724.0,0.0,284.0,1553,0,0,0,0,549.6,3.664,0.0
0,0,1391,16622,1,692.0,0.0,296.0,1306,0,0,0,0,542.4,3.616,-240.0
0,0,1396,16672,1,692.0,0.0,284.0,1713,0,0,0,0,549.6,3.664,160.0
0,0,1401,16723,1,700.0,0.0,296.0,1466,0,0,0,0,542.4,3.616,-80.0
0,0,1406,16773,1,700.0,0.0,284.0,1553,0,0,0,0,549.6,3.664,0.0
0,0,1411,16823,1,776.0,0.0,284.0,1793,0,0,0,0,549.6,3.664,240.0
0,0,1416,16874,1,776.0,0.0,288.0,1456,0,0,0,0,547.2,3.648,-94.54
0,0,1421,16924,1,860.0,0.0,292.0,1628,0,0,0,0,544.8,3.632,80.0
0,0,1426,16974,1,860.0,0.0,292.0,1388,0,0,0,0,544.8,3.632,-160.0
0,0,1431,17024,1,860.0,0.0,316.0,1000,0,0,0,0,530.4,3.536,-640.0
0,0,1436,17074,1,860.0,0.0,284.0,1793,0,0,0,0,549.6,3.664,240.0
0,0,1441,17124,1,860.0,0.0,284.0,2000,0,0,0,0,549.6,3.664,560.0
0,0,1446,17174,1,860.0,0.0,272.0,1720,0,0,0,0,556.8,3.712,160.0
0,0,1451,17225,1,860.0,0.0,292.0,1548,0,0,0,0,544.8,3.632,0.0
0,0,1456,17275,1,860.0,0.0,284.0,1713,0,0,0,0,549.6,3.664,160.0
0,0,1461,17325,1,860.0,0.0,276.0,1638,0,0,0,0,554.4,3.695,80.0
0,0,1466,17376,1,860.0,0.0,292.0,1388,0,0,0,0,544.8,3.632,-160.0
0,0,1471,17426,1,796.0,0.0,280.0,1715,0,0,0,0,552.0,3.68,160.0
0,0,1476,17476,1,796.0,0.0,284.0,1793,0,0,0,0,549.6,3.664,240.0
0,0,1481,17526,1,856.0,0.0,272.0,1880,0,0,0,0,556.8,3.712,320.0
0,0,1486,17576,1,856.0,0.0,280.0,2000,0,0,0,0,552.0,3.68,480.0
0,0,1491,17626,1,860.0,0.0,284.0,1313,0,0,0,0,549.6,3.664,-240.0
0,0,1496,17676,1,860.0,0.0,276.0,1958,0,0,0,0,554.4,3.695,400.0
0,0,1501,17727,1,860.0,0.0,276.0,1747,0,0,0,0,554.4,3.695,189.0
0,0,1506,17777,1,860.0,0.0,284.0,1793,0,0,0,0,549.6,3.664,240.0
0,0,1511,17827,1,700.0,0.0,284.0,1793,0,0,0,0,549.6,3.664,240.0
0,0,1516,17878,1,704.0,0.0,272.0,1931,0,0,0,0,556.8,4.083,370.9
0,0,1521,17928,1,704.0,0.0,276.0,1718,0,0,0,0,554.4,3.695,160.0
0,0,1526,17978,1,860.0,0.0,272.0,1880,0,0,0,0,556.8,3.712,320.0
0,0,1531,18028,1,860.0,0.0,284.0,1793,0,0,0,0,549.6,3.664,240.0
0,0,1536,18078,1,860.0,0.0,284.0,1793,0,0,0,0,549.6,3.664,240.0
0,0,1541,18128,1,860.0,0.0,288.0,1790,0,0,0,0,547.2,3.648,240.0
0,0,1546,18178,1,856.0,0.0,296.0,1306,0,0,0,0,542.4,3.616,-240.0
0,0,1551,18229,1,856.0,0.0,272.0,1742,0,0,0,0,556.8,3.712,181.8
0,0,1556,18279,1,860.0,0.0,288.0,1470,0,0,0,0,547.2,3.648,-80.0
0,0,1561,18329,1,860.0,0.0,296.0,1146,0,0,0,0,542.4,3.616,-400.0
0,0,1566,18379,1,860.0,0.0,272.0,1880,0,0,0,0,556.8,3.712,320.0
0,0,1571,18430,1,860.0,0.0,292.0,1148,0,0,0,0,544.8,3.632,-400.0
0,0,1576,18480,1,700.0,0.0,292.0,1388,0,0,0,0,544.8,3.632,-160.0
0,0,1581,18530,1,700.0,0.0,300.0,1063,0,0,0,0,540.0,3.6,-480.0
0,0,1586,18580,1,860.0,0.0,292.0,1388,0,0,0,0,544.8,3.632,-160.0
0,0,1591,18630,1,860.0,0.0,264.0,1885,0,0,0,0,561.6,3.744,320.0
0,0,1596,18680,1,860.0,0.0,288.0,1470,0,0,0,0,547.2,3.648,-80.0
0,0,1601,18731,1,860.0,0.0,284.0,1640,0,0,0,0,549.6,4.03,87.27
0,0,1606,18781,1,860.0,0.0,284.0,1393,0,0,0,0,549.6,3.664,-160.0
0,0,1611,18831,1,860.0,0.0,296.0,1466,0,0,0,0,542.4,3.616,-80.0
0,0,1616,18881,1,860.0,0.0,276.0,1718,0,0,0,0,554.4,3.695,160.0
0,0,1621,18932,1,860.0,0.0,284.0,1633,0,0,0,0,549.6,3.664,80.0
0,0,1626,18982,1,404.0,0.0,284.0,1553,0,0,0,0,549.6,3.664,0.0
0,0,1631,19032,1,404.0,0.0,284.0,1313,0,0,0,0,549.6,3.664,-240.0
0,0,1636,19082,1,856.0,0.0,276.0,1478,0,0,0,0,554.4,3.695,-80.0
0,0,1641,19132,1,856.0,0.0,300.0,1463,0,0,0,0,540.0,3.6,-80.0
0,0,1646,19182,1,860.0,0.0,292.0,1548,0,0,0,0,544.8,3.632,0.0
0,0,1651,19232,1,860.0,0.0,264.0,1805,0,0,0,0,561.6,3.744,240.0
0,0,1656,19283,1,856.0,0.0,276.0,1718,0,0,0,0,554.4,3.695,160.0
0,0,1661,19333,1,856.0,0.0,268.0,2000,0,0,0,0,559.2,3.728,640.0
0,0,1666,19383,1,860.0,0.0,284.0,1633,0,0,0,0,549.6,3.664,80.0
0,0,1671,19434,1,860.0,0.0,272.0,2000,0,0,0,0,556.8,3.712,807.2
0,0,1676,19484,1,852.0,0.0,272.0,2000,0,0,0,0,556.8,3.712,480.0
0,0,1681,19534,1,852.0,0.0,284.0,1473,0,0,0,0,549.6,3.664,-80.0
0,0,1686,19584,1,856.0,0.0,284.0,1393,0,0,0,0,549.6,3.664,-160.0
0,0,1691,19634,1,856.0,0.0,284.0,1313,0,0,0,0,549.6,3.664,-240.0
0,0,1696,19684,1,852.0,0.0,296.0,1706,0,0,0,0,542.4,3.616,160.0
0,0,1701,19734,1,852.0,0.0,292.0,1948,0,0,0,0,544.8,3.632,400.0
0,0,1706,19785,1,852.0,0.0,288.0,1630,0,0,0,0,547.2,3.648,80.0
0,0,1711,19835,1,852.0,0.0,304.0,1000,0,0,0,0,537.6,3.584,-800.0
0,0,1716,19885,1,860.0,0.0,284.0,1873,0,0,0,0,549.6,3.664,320.0
0,0,1721,19936,1,860.0,0.0,284.0,1407,0,0,0,0,549.6,3.664,-145.45
0,0,1726,19986,1,860.0,0.0,264.0,1725,0,0,0,0,561.6,3.744,160.0
0,0,1731,20036,1,816.0,0.0,284.0,1953,0,0,0,0,549.6,3.664,400.0
0,0,1736,20086,1,816.0,0.0,308.0,1298,0,0,0,0,535.2,3.568,-240.0
0,0,1741,20136,1,816.0,0.0,300.0,1463,0,0,0,0,540.0,3.6,-80.0
0,0,1746,20186,1,816.0,0.0,288.0,1310,0,0,0,0,547.2,3.648,-240.0
0,0,1751,20236,1,816.0,0.0,292.0,1468,0,0,0,0,544.8,3.632,-80.0
0,0,1756,20287,1,816.0,0.0,304.0,1000,0,0,0,0,537.6,3.584,-545.4
0,0,1761,20337,1,860.0,0.0,292.0,1308,0,0,0,0,544.8,3.632,-240.0
0,0,1766,20387,1,860.0,0.0,288.0,1630,0,0,0,0,547.2,3.648,80.0
0,0,1771,20438,1,860.0,0.0,288.0,1478,0,0,0,0,547.2,4.012,-72.72
0,0,1776,20488,1,860.0,0.0,296.0,1466,0,0,0,0,542.4,3.616,-80.0
0,0,1781,20538,1,812.0,0.0,272.0,1720,0,0,0,0,556.8,3.712,160.0
0,0,1786,20588,1,812.0,0.0,276.0,1638,0,0,0,0,554.4,3.695,80.0
0,0,1791,20638,1,776.0,0.0,276.0,2000,0,0,0,0,554.4,3.695,560.0
0,0,1796,20688,1,776.0,0.0,280.0,1555,0,0,0,0,552.0,3.68,0.0
0,0,1801,20738,1,712.0,0.0,304.0,1000,0,0,0,0,537.6,3.584,-880.0
0,0,1806,20789,1,712.0,0.0,276.0,1572,0,0,0,0,554.4,3.695,14.545
0,0,1811,20839,1,772.0,0.0,288.0,1470,0,0,0,0,547.2,3.648,-80.0
0,0,1816,20889,1,772.0,0.0,264.0,2000,0,0,0,0,561.6,3.744,640.0
0,0,1821,20939,1,780.0,0.0,304.0,1000,0,0,0,0,537.6,3.584,-560.0
0,0,1826,20990,1,780.0,0.0,304.0,1221,0,0,0,0,537.6,3.584,-320.0
0,0,1831,21040,1,804.0,0.0,308.0,1138,0,0,0,0,535.2,3.568,-400.0
0,0,1836,21090,1,804.0,0.0,272.0,1800,0,0,0,0,556.8,3.712,240.0
0,0,1841,21140,1,808.0,0.0,304.0,1061,0,0,0,0,537.6,3.584,-480.0
0,0,1846,21190,1,808.0,0.0,288.0,1550,0,0,0,0,547.2,3.648,0.0
0,0,1851,21240,1,724.0,0.0,280.0,1475,0,0,0,0,552.0,3.68,-80.0
0,0,1856,21291,1,724.0,0.0,288.0,1551,0,0,0,0,547.2,4.012,0.0
0,0,1861,21341,1,444.0,0.0,284.0,1473,0,0,0,0,549.6,3.664,-80.0
0,0,1866,21391,0,444.0,0.0,304.0,1304,0,0,0,0,537.6,7.28,-240.0
0,0,1871,21441,1,720.0,0.0,276.0,1718,0,0,0,0,554.4,3.695,160.0
0,0,1876,21492,1,720.0,0.0,284.0,1553,0,0,0,0,549.6,3.664,0.0
0,0,1881,21542,1,796.0,0.0,284.0,1393,0,0,0,0,549.6,3.664,-160.0
0,0,1886,21592,1,796.0,0.0,292.0,1308,0,0,0,0,544.8,3.632,-240.0
0,0,1891,21642,1,812.0,0.0,276.0,1798,0,0,0,0,554.4,3.695,240.0
0,0,1896,21692,1,812.0,0.0,284.0,1633,0,0,0,0,549.6,3.664,80.0
0,0,1901,21742,1,816.0,0.0,284.0,1553,0,0,0,0,549.6,3.664,0.0
0,0,1906,21792,1,816.0,0.0,284.0,1953,0,0,0,0,549.6,3.664,400.0
0,0,1911,21843,1,872.0,0.0,284.0,1713,0,0,0,0,549.6,3.664,160.0
0,0,1916,21893,1,872.0,0.0,300.0,1543,0,0,0,0,540.0,3.6,0.0
0,0,1921,21943,1,816.0,0.0,272.0,1800,0,0,0,0,556.8,3.712,240.0
0,0,1926,21994,1,816.0,0.0,300.0,1005,0,0,0,0,540.0,3.6,-538.1
0,0,1931,22044,1,816.0,0.0,284.0,1713,0,0,0,0,549.6,3.664,160.0
0,0,1936,22094,1,828.0,0.0,296.0,1386,0,0,0,0,542.4,3.616,-160.0
0,0,1941,22144,1,828.0,0.0,260.0,2000,0,0,0,0,564.0,3.76,480.0
0,0,1946,22194,1,860.0,0.0,284.0,1793,0,0,0,0,549.6,3.664,240.0
0,0,1951,22244,1,860.0,0.0,272.0,1480,0,0,0,0,556.8,3.712,-80.0
0,0,1956,22294,1,860.0,0.0,300.0,1143,0,0,0,0,540.0,3.6,-400.0
0,0,1961,22345,1,860.0,0.0,304.0,1141,0,0,0,0,537.6,3.584,-400.0
0,0,1966,22395,1,864.0,0.0,276.0,1718,0,0,0,0,554.4,3.695,160.0
0,0,1971,22445,1,864.0,0.0,276.0,1958,0,0,0,0,554.4,3.695,400.0
0,0,1976,22496,1,860.0,0.0,304.0,1272,0,0,0,0,537.6,3.584,-269.0
0,0,1981,22546,1,860.0,0.0,268.0,1802,0,0,0,0,559.2,3.728,240.0
0,0,1986,22596,1,872.0,0.0,296.0,1226,0,0,0,0,542.4,3.616,-320.0
0,0,1991,22646,1,872.0,0.0,288.0,1630,0,0,0,0,547.2,3.648,80.0
0,0,1996,22696,1,860.0,0.0,284.0,1713,0,0,0,0,549.6,3.664,160.0
0,0,2001,22746,1,860.0,0.0,296.0,1626,0,0,0,0,542.4,3.616,80.0
0,0,2006,22796,1,860.0,0.0,280.0,1635,0,0,0,0,552.0,3.68,80.0
0,0,2011,22847,1,860.0,0.0,296.0,1000,0,0,0,0,542.4,3.616,-603.6
0,0,2016,22897,1,796.0,0.0,284.0,1553,0,0,0,0,549.6,3.664,0.0
0,0,2021,22947,1,796.0,0.0,280.0,1475,0,0,0,0,552.0,3.68,-80.0
0,0,2026,22998,1,792.0,0.0,272.0,1895,0,0,0,0,556.8,4.083,334.5
0,0,2031,23048,1,792.0,0.0,296.0,1226,0,0,0,0,542.4,3.616,-320.0
0,0,2036,23098,1,796.0,0.0,268.0,1482,0,0,0,0,559.2,3.728,-80.0
0,0,2041,23148,1,796.0,0.0,288.0,1550,0,0,0,0,547.2,3.648,0.0
0,0,2046,23198,1,772.0,0.0,272.0,1640,0,0,0,0,556.8,3.712,80.0
0,0,2051,23248,1,772.0,0.0,288.0,1310,0,0,0,0,547.2,3.648,-240.0
0,0,2056,23298,1,776.0,0.0,296.0,1146,0,0,0,0,542.4,3.616,-400.0
0,0,2061,23349,1,776.0,0.0,272.0,1705,0,0,0,0,556.8,3.712,145.45
0,0,2066,23399,1,856.0,0.0,284.0,1393,0,0,0,0,549.6,3.664,-160.0
0,0,2071,23449,1,856.0,0.0,284.0,1313,0,0,0,0,549.6,3.664,-240.0
0,0,2076,23499,1,860.0,0.0,284.0,1553,0,0,0,0,549.6,3.664,0.0
0,0,2081,23550,1,860.0,0.0,292.0,1548,0,0,0,0,544.8,3.632,0.0
0,0,2086,23600,1,784.0,0.0,280.0,1555,0,0,0,0,552.0,3.68,0.0
0,0,2091,23650,1,784.0,0.0,284.0,1553,0,0,0,0,549.6,3.664,0.0
0,0,2096,23700,1,860.0,0.0,272.0,1400,0,0,0,0,556.8,3.712,-160.0
0,0,2101,23750,1,860.0,0.0,288.0,1630,0,0,0,0,547.2,3.648,80.0
0,0,2106,23800,1,860.0,0.0,292.0,1788,0,0,0,0,544.8,3.632,240.0
0,0,2111,23851,1,860.0,0.0,276.0,1703,0,0,0,0,554.4,4.065,145.45
0,0,2116,23901,1,860.0,0.0,300.0,1383,0,0,0,0,540.0,3.6,-160.0
0,0,2121,23951,1,860.0,0.0,292.0,1228,0,0,0,0,544.8,3.632,-320.0
0,0,2126,24001,1,864.0,0.0,272.0,1560,0,0,0,0,556.8,3.712,0.0
0,0,2131,24052,1,864.0,0.0,288.0,1550,0,0,0,0,547.2,3.648,0.0
0,0,2136,24102,1,860.0,0.0,276.0,1478,0,0,0,0,554.4,3.695,-80.0
0,0,2141,24152,1,856.0,0.0,284.0,1713,0,0,0,0,549.6,3.664,160.0
0,0,2146,24202,1,856.0,0.0,288.0,1550,0,0,0,0,547.2,3.648,0.0
0,0,2151,24252,1,860.0,0.0,292.0,1388,0,0,0,0,544.8,3.632,-160.0
0,0,2156,24302,1,860.0,0.0,276.0,1798,0,0,0,0,554.4,3.695,240.0
0,0,2161,24352,1,860.0,0.0,304.0,1301,0,0,0,0,537.6,3.584,-240.0
0,0,2166,24403,1,860.0,0.0,284.0,1793,0,0,0,0,549.6,3.664,240.0
0,0,2171,24453,1,860.0,0.0,284.0,1473,0,0,0,0,549.6,3.664,-80.0
0,0,2176,24503,1,860.0,0.0,284.0,1553,0,0,0,0,549.6,3.664,0.0
0,0,2181,24554,1,860.0,0.0,284.0,1676,0,0,0,0,549.6,3.664,123.63
0,0,2186,24604,1,860.0,0.0,264.0,1885,0,0,0,0,561.6,3.744,320.0
0,0,2191,24654,1,732.0,0.0,272.0,1960,0,0,0,0,556.8,3.712,400.0
0,0,2196,24704,1,732.0,0.0,284.0,1153,0,0,0,0,549.6,3.664,-400.0
0,0,2201,24754,1,716.0,0.0,276.0,1558,0,0,0,0,554.4,3.695,0.0
0,0,2206,24804,1,716.0,0.0,276.0,1478,0,0,0,0,554.4,3.695,-80.0
0,0,2211,24854,1,768.0,0.0,296.0,1066,0,0,0,0,542.4,3.616,-480.0
0,0,2216,24905,1,768.0,0.0,288.0,1230,0,0,0,0,547.2,3.648,-320.0
0,0,2221,24955,1,788.0,0.0,296.0,1626,0,0,0,0,542.4,3.616,80.0
0,0,2226,25005,1,788.0,0.0,284.0,1313,0,0,0,0,549.6,3.664,-240.0
0,0,2231,25056,1,820.0,0.0,284.0,1436,0,0,0,0,549.6,3.664,-116.36
0,0,2236,25106,1,820.0,0.0,272.0,1880,0,0,0,0,556.8,3.712,320.0
0,0,2241,25156,1,816.0,0.0,280.0,1395,0,0,0,0,552.0,3.68,-160.0
0,0,2246,25206,1,816.0,0.0,272.0,1800,0,0,0,0,556.8,3.712,240.0
0,0,2251,25256,1,784.0,0.0,280.0,1635,0,0,0,0,552.0,3.68,80.0
0,0,2256,25306,1,784.0,0.0,276.0,1798,0,0,0,0,554.4,3.695,240.0
0,0,2261,25356,1,856.0,0.0,280.0,1635,0,0,0,0,552.0,3.68,80.0
0,0,2266,25407,1,856.0,0.0,276.0,1739,0,0,0,0,554.4,3.695,181.8
0,0,2271,25457,1,860.0,0.0,288.0,1550,0,0,0,0,547.2,3.648,0.0
0,0,2276,25507,1,860.0,0.0,268.0,1962,0,0,0,0,559.2,3.728,400.0
0,0,2281,25558,1,860.0,0.0,296.0,1430,0,0,0,0,542.4,3.977,-116.36
0,0,2286,25608,1,860.0,0.0,284.0,1153,0,0,0,0,549.6,3.664,-400.0
0,0,2291,25658,1,860.0,0.0,284.0,1233,0,0,0,0,549.6,3.664,-320.0
0,0,2296,25708,1,860.0,0.0,276.0,1958,0,0,0,0,554.4,3.695,400.0
0,0,2301,25758,1,856.0,0.0,276.0,1638,0,0,0,0,554.4,3.695,80.0
0,0,2306,25808,1,856.0,0.0,284.0,1473,0,0,0,0,549.6,3.664,-80.0
0,0,2311,25858,1,860.0,0.0,296.0,1706,0,0,0,0,542.4,3.616,160.0
0,0,2316,25909,1,860.0,0.0,284.0,1436,0,0,0,0,549.6,3.664,-116.36
0,0,2321,25959,1,860.0,0.0,280.0,1475,0,0,0,0,552.0,3.68,-80.0
0,0,2326,26009,1,860.0,0.0,304.0,1141,0,0,0,0,537.6,3.584,-400.0
0,0,2331,26059,1,804.0,0.0,288.0,1550,0,0,0,0,547.2,3.648,0.0
0,0,2336,26110,1,804.0,0.0,292.0,1548,0,0,0,0,544.8,3.632,0.0
0,0,2341,26160,1,800.0,0.0,284.0,1313,0,0,0,0,549.6,3.664,-240.0
0,0,2346,26210,1,820.0,0.0,296.0,1000,0,0,0,0,542.4,3.616,-640.0
0,0,2351,26260,1,820.0,0.0,280.0,1795,0,0,0,0,552.0,3.68,240.0
0,0,2356,26310,1,820.0,0.0,280.0,1395,0,0,0,0,552.0,3.68,-160.0
0,0,2361,26360,1,820.0,0.0,288.0,1390,0,0,0,0,547.2,3.648,-160.0
0,0,2366,26411,1,820.0,0.0,292.0,1330,0,0,0,0,544.8,3.995,-218.1
0,0,2371,26461,1,820.0,0.0,276.0,1558,0,0,0,0,554.4,3.695,0.0
0,0,2376,26511,1,824.0,0.0,296.0,1146,0,0,0,0,542.4,3.616,-400.0
0,0,2381,26561,1,824.0,0.0,272.0,1480,0,0,0,0,556.8,3.712,-80.0
0,0,2386,26612,1,792.0,0.0,284.0,1473,0,0,0,0,549.6,3.664,-80.0
0,0,2391,26662,1,792.0,0.0,288.0,1070,0,0,0,0,547.2,3.648,-480.0
0,0,2396,26712,1,792.0,0.0,288.0,1790,0,0,0,0,547.2,3.648,240.0
0,0,2401,26762,1,792.0,0.0,288.0,1550,0,0,0,0,547.2,3.648,0.0
0,0,2406,26812,1,740.0,0.0,288.0,1310,0,0,0,0,547.2,3.648,-240.0
0,0,2411,26862,1,740.0,0.0,296.0,1386,0,0,0,0,542.4,3.616,-160.0
0,0,2416,26912,1,780.0,0.0,284.0,1473,0,0,0,0,549.6,3.664,-80.0
0,0,2421,26963,1,780.0,0.0,276.0,1798,0,0,0,0,554.4,3.695,240.0
0,0,2426,27013,1,784.0,0.0,304.0,1141,0,0,0,0,537.6,3.584,-400.0
0,0,2431,27063,1,784.0,0.0,300.0,1063,0,0,0,0,540.0,3.6,-480.0
0,0,2436,27114,1,744.0,0.0,292.0,1672,0,0,0,0,544.8,3.632,123.63
0,0,2441,27164,1,744.0,0.0,296.0,1000,0,0,0,0,542.4,3.616,-560.0
0,0,2446,27214,1,748.0,0.0,272.0,1960,0,0,0,0,556.8,3.712,400.0
0,0,2451,27264,1,748.0,0.0,284.0,1313,0,0,0,0,549.6,3.664,-240.0
0,0,2456,27314,1,748.0,0.0,292.0,1388,0,0,0,0,544.8,3.632,-160.0
0,0,2461,27364,1,748.0,0.0,288.0,1710,0,0,0,0,547.2,3.648,160.0
0,0,2466,27414,1,468.0,0.0,264.0,2000,0,0,0,0,561.6,3.744,640.0
0,0,2471,27465,1,468.0,0.0,300.0,1463,0,0,0,0,540.0,3.6,-80.0
0,0,2476,27515,1,752.0,0.0,264.0,2000,0,0,0,0,561.6,3.744,720.0
0,0,2481,27565,1,752.0,0.0,284.0,1153,0,0,0,0,549.6,3.664,-400.0
0,0,2486,27616,1,768.0,0.0,272.0,1553,0,0,0,0,556.8,3.712,-7.272
0,0,2491,27666,1,768.0,0.0,276.0,1718,0,0,0,0,554.4,3.695,160.0
0,0,2496,27716,1,864.0,0.0,264.0,2000,0,0,0,0,561.6,3.744,640.0
0,0,2501,27766,1,864.0,0.0,260.0,1967,0,0,0,0,564.0,3.76,400.0
0,0,2506,27816,1,860.0,0.0,264.0,1805,0,0,0,0,561.6,3.744,240.0
0,0,2511,27866,1,860.0,0.0,272.0,1800,0,0,0,0,556.8,3.712,240.0
0,0,2516,27916,1,856.0,0.0,284.0,1553,0,0,0,0,549.6,3.664,0.0
0,0,2521,27967,1,856.0,0.0,288.0,1790,0,0,0,0,547.2,3.648,240.0
0,0,2526,28017,1,860.0,0.0,288.0,1310,0,0,0,0,547.2,3.648,-240.0
0,0,2531,28067,1,860.0,0.0,288.0,1390,0,0,0,0,547.2,3.648,-160.0
0,0,2536,28118,1,856.0,0.0,284.0,1757,0,0,0,0,549.6,4.03,203.6
0,0,2541,28168,1,856.0,0.0,292.0,1228,0,0,0,0,544.8,3.632,-320.0
0,0,2546,28218,1,860.0,0.0,288.0,1630,0,0,0,0,547.2,3.648,80.0
0,0,2551,28268,1,860.0,0.0,304.0,1301,0,0,0,0,537.6,3.584,-240.0
0,0,2556,28318,1,860.0,0.0,296.0,1306,0,0,0,0,542.4,3.616,-240.0
0,0,2561,28368,1,856.0,0.0,268.0,1722,0,0,0,0,559.2,3.728,160.0
0,0,2566,28418,1,856.0,0.0,296.0,1000,0,0,0,0,542.4,3.616,-640.0
0,0,2571,28469,1,856.0,0.0,272.0,1364,0,0,0,0,556.8,3.712,-196.3
0,0,2576,28519,1,856.0,0.0,276.0,1000,0,0,0,0,554.4,3.695,-640.0
0,0,2581,28569,1,860.0,0.0,280.0,1395,0,0,0,0,552.0,3.68,-160.0
0,0,2586,28619,1,860.0,0.0,284.0,1553,0,0,0,0,549.6,3.664,0.0
0,0,2591,28670,1,860.0,0.0,284.0,1473,0,0,0,0,549.6,3.664,-80.0
0,0,2596,28720,1,860.0,0.0,300.0,1303,0,0,0,0,540.0,3.6,-240.0
0,0,2601,28770,1,860.0,0.0,288.0,1470,0,0,0,0,547.2,3.648,-80.0
0,0,2606,28820,1,860.0,0.0,276.0,1318,0,0,0,0,554.4,3.695,-240.0
0,0,2611,28870,1,856.0,0.0,276.0,1718,0,0,0,0,554.4,3.695,160.0
0,0,2616,28920,1,856.0,0.0,288.0,1310,0,0,0,0,547.2,3.648,-240.0
0,0,2621,28971,1,860.0,0.0,276.0,1543,0,0,0,0,554.4,4.065,-14.545
0,0,2626,29021,1,860.0,0.0,300.0,1383,0,0,0,0,540.0,3.6,-160.0
0,0,2631,29071,1,864.0,0.0,288.0,1310,0,0,0,0,547.2,3.648,-240.0
0,0,2636,29121,1,864.0,0.0,264.0,2000,0,0,0,0,561.6,3.744,560.0
0,0,2641,29172,1,860.0,0.0,292.0,1388,0,0,0,0,544.8,3.632,-160.0
0,0,2646,29222,1,860.0,0.0,284.0,1473,0,0,0,0,549.6,3.664,-80.0
0,0,2651,29272,1,856.0,0.0,284.0,1713,0,0,0,0,549.6,3.664,160.0
0,0,2656,29322,1,856.0,0.0,292.0,1228,0,0,0,0,544.8,3.632,-320.0
0,0,2661,29372,1,860.0,0.0,284.0,1553,0,0,0,0,549.6,3.664,0.0
0,0,2666,29422,1,860.0,0.0,276.0,1798,0,0,0,0,554.4,3.695,240.0
0,0,2671,29472,1,860.0,0.0,292.0,1148,0,0,0,0,544.8,3.632,-400.0
0,0,2676,29523,1,860.0,0.0,300.0,1063,0,0,0,0,540.0,3.6,-480.0
0,0,2681,29573,1,860.0,0.0,280.0,1795,0,0,0,0,552.0,3.68,240.0
0,0,2686,29623,1,860.0,0.0,276.0,1638,0,0,0,0,554.4,3.695,80.0
0,0,2691,29674,1,848.0,0.0,276.0,1921,0,0,0,0,554.4,3.695,363.6
0,0,2696,29724,1,848.0,0.0,284.0,1313,0,0,0,0,549.6,3.664,-240.0
0,0,2701,29774,1,860.0,0.0,272.0,1800,0,0,0,0,556.8,3.712,240.0
0,0,2706,29824,1,860.0,0.0,276.0,1718,0,0,0,0,554.4,3.695,160.0
0,0,2711,29874,1,864.0,0.0,276.0,1718,0,0,0,0,554.4,3.695,160.0
0,0,2716,29924,1,864.0,0.0,272.0,1640,0,0,0,0,556.8,3.712,80.0
0,0,2721,29974,1,860.0,0.0,284.0,1553,0,0,0,0,549.6,3.664,0.0
0,0,2726,30025,1,860.0,0.0,284.0,1153,0,0,0,0,549.6,3.664,-400.0
0,0,2731,30075,1,860.0,0.0,284.0,1553,0,0,0,0,549.6,3.664,0.0
0,0,2736,30125,1,860.0,0.0,284.0,1553,0,0,0,0,549.6,3.664,0.0
0,0,2741,30176,1,860.0,0.0,272.0,1967,0,0,0,0,556.8,3.712,407.2
0,0,2746,30226,1,860.0,0.0,296.0,1226,0,0,0,0,542.4,3.616,-320.0
0,0,2751,30276,1,856.0,0.0,292.0,1148,0,0,0,0,544.8,3.632,-400.0
0,0,2756,30326,1,856.0,0.0,280.0,1555,0,0,0,0,552.0,3.68,0.0
0,0,2761,30376,1,860.0,0.0,272.0,1960,0,0,0,0,556.8,3.712,400.0
0,0,2766,30426,1,856.0,0.0,284.0,1633,0,0,0,0,549.6,3.664,80.0
0,0,2771,30476,1,856.0,0.0,284.0,1633,0,0,0,0,549.6,3.664,80.0
0,0,2776,30527,1,856.0,0.0,256.0,1897,0,0,0,0,566.4,3.775,327.2
0,0,2781,30577,1,856.0,0.0,284.0,1553,0,0,0,0,549.6,3.664,0.0
0,0,2786,30627,1,860.0,0.0,280.0,1635,0,0,0,0,552.0,3.68,80.0
0,0,2791,30678,1,860.0,0.0,284.0,1800,0,0,0,0,549.6,4.03,247.2
0,0,2796,30728,1,860.0,0.0,276.0,1958,0,0,0,0,554.4,3.695,400.0
0,0,2801,30778,1,860.0,0.0,280.0,1875,0,0,0,0,552.0,3.68,320.0
0,0,2806,30828,1,860.0,0.0,276.0,1558,0,0,0,0,554.4,3.695,0.0
0,0,2811,30878,1,860.0,0.0,272.0,1800,0,0,0,0,556.8,3.712,240.0
0,0,2816,30928,1,860.0,0.0,300.0,1383,0,0,0,0,540.0,3.6,-160.0
0,0,2821,30978,1,860.0,0.0,292.0,1788,0,0,0,0,544.8,3.632,240.0
0,0,2826,31029,1,860.0,0.0,284.0,1305,0,0,0,0,549.6,3.664,-247.2
0,0,2831,31079,1,860.0,0.0,264.0,2000,0,0,0,0,561.6,3.744,560.0
0,0,2836,31129,1,724.0,0.0,276.0,1718,0,0,0,0,554.4,3.695,160.0
0,0,2841,31179,1,724.0,0.0,264.0,2000,0,0,0,0,561.6,3.744,560.0
0,0,2846,31230,1,720.0,0.0,272.0,1800,0,0,0,0,556.8,3.712,240.0
0,0,2851,31280,1,720.0,0.0,284.0,1313,0,0,0,0,549.6,3.664,-240.0
0,0,2856,31330,1,680.0,0.0,284.0,1553,0,0,0,0,549.6,3.664,0.0
0,0,2861,31380,1,680.0,0.0,288.0,1230,0,0,0,0,547.2,3.648,-320.0
0,0,2866,31430,1,704.0,0.0,280.0,1235,0,0,0,0,552.0,3.68,-320.0
0,0,2871,31480,1,704.0,0.0,276.0,1718,0,0,0,0,554.4,3.695,160.0
0,0,2876,31531,1,756.0,0.0,272.0,1575,0,0,0,0,556.8,4.083,14.545
0,0,2881,31581,1,756.0,0.0,284.0,1313,0,0,0,0,549.6,3.664,-240.0
0,0,2886,31631,1,712.0,0.0,256.0,1170,0,0,0,0,566.4,3.775,-400.0
0,0,2891,31681,1,712.0,0.0,256.0,1810,0,0,0,0,566.4,3.775,240.0
0,0,2896,31732,1,768.0,0.0,272.0,1800,0,0,0,0,556.8,3.712,240.0
0,0,2901,31782,1,768.0,0.0,260.0,1247,0,0,0,0,564.0,3.76,-320.0
0,0,2906,31832,1,788.0,0.0,268.0,1562,0,0,0,0,559.2,3.728,0.0
0,0,2911,31882,1,788.0,0.0,272.0,1640,0,0,0,0,556.8,3.712,80.0
0,0,2916,31932,1,728.0,0.0,264.0,1565,0,0,0,0,561.6,3.744,0.0
0,0,2921,31982,1,728.0,0.0,244.0,2000,0,0,0,0,573.6,3.824,800.0
0,0,2926,32032,1,696.0,0.0,296.0,1546,0,0,0,0,542.4,3.616,0.0
0,0,2931,32083,1,696.0,0.0,276.0,1958,0,0,0,0,554.4,3.695,400.0
0,0,2936,32133,1,816.0,0.0,236.0,2000,0,0,0,0,578.4,3.855,1120.0
0,0,2941,32183,1,816.0,0.0,260.0,1647,0,0,0,0,564.0,3.76,80.0
0,0,2946,32234,1,820.0,0.0,276.0,1099,0,0,0,0,554.4,3.695,-458.1
0,0,2951,32284,1,820.0,0.0,272.0,1560,0,0,0,0,556.8,3.712,0.0
0,0,2956,32334,1,752.0,0.0,284.0,1313,0,0,0,0,549.6,3.664,-240.0
0,0,2961,32384,1,752.0,0.0,272.0,1240,0,0,0,0,556.8,3.712,-320.0
0,0,2966,32434,1,388.0,0.0,264.0,1885,0,0,0,0,561.6,3.744,320.0
0,0,2971,32484,1,408.0,0.0,304.0,1000,0,0,0,0,537.6,3.584,-960.0
0,0,2976,32534,1,408.0,0.0,312.0,1000,0,0,0,0,532.8,3.552,-560.0
0,0,2981,32585,1,420.0,0.0,320.0,1451,0,0,0,0,528.0,3.52,-80.0
0,0,2986,32635,1,420.0,0.0,356.0,1109,0,0,0,0,506.4,3.376,-400.0
0,0,2991,32685,1,404.0,0.0,400.0,1000,0,0,0,0,480.0,3.2,-560.0
0,0,2996,32736,1,404.0,0.0,440.0,1000,0,0,0,0,456.0,3.04,-458.1
0,0,3001,32786,1,344.0,0.0,456.0,1049,0,0,0,0,446.4,2.976,-400.0
0,0,3006,32836,1,344.0,0.0,496.0,1265,0,0,0,0,422.4,2.816,-160.0
0,0,3011,32886,1,368.0,0.0,520.0,1330,0,0,0,0,408.0,2.72,-80.0
0,0,3016,32936,1,368.0,0.0,532.0,1323,0,0,0,0,400.8,2.672,-80.0
0,0,3021,32986,1,368.0,0.0,588.0,1000,0,0,0,0,367.2,2.448,-640.0
0,0,3026,33036,1,368.0,0.0,604.0,1279,0,0,0,0,357.6,2.384,-80.0
0,0,3031,33087,1,360.0,0.0,652.0,1000,0,0,0,0,328.8,2.192,-603.6
0,0,3036,33137,1,360.0,0.0,728.0,1000,0,0,0,0,283.2,1.887,-720.0
0,0,3041,33187,1,420.0,0.0,756.0,1028,0,0,0,0,266.4,1.776,-240.0
0,0,3046,33238,1,420.0,0.0,784.0,1000,0,0,0,0,249.6,1.83,-327.2
0,0,3051,33288,1,432.0,0.0,852.0,1000,0,0,0,0,208.8,1.392,-240.0
0,0,3056,33338,1,432.0,0.0,928.0,1000,0,0,0,0,163.2,1.088,-960.0
0,0,3061,33388,1,440.0,0.0,944.0,1074,0,0,0,0,153.6,1.024,-80.0
0,0,3066,33438,1,440.0,0.0,996.0,1000,0,0,0,0,122.4,0.816,-960.0
0,0,3071,33488,1,432.0,0.0,1044.0,1000,0,0,0,0,93.6,0.624,-1040.0
0,0,3076,33538,1,432.0,0.0,1044.0,1094,0,0,0,0,93.6,0.624,0.0
0,0,3081,33589,1,704.0,0.0,1100.0,1000,0,0,0,0,60.0,0.4,-741.8
0,0,3086,33639,1,704.0,0.0,1120.0,1128,0,0,0,0,48.0,0.32,80.0
0,0,3091,33689,1,716.0,0.0,1144.0,1000,0,0,0,0,33.6,0.224,-320.0
0,0,3096,33739,1,716.0,0.0,1172.0,1000,0,0,0,0,16.8,0.112,-480.0
0,0,3101,33790,1,732.0,0.0,1224.0,1000,0,0,0,0,-14.4,-0.096,-880.0
0,0,3106,33840,1,732.0,0.0,1204.0,1000,0,0,0,0,-2.4,-0.016,0.0
0,0,3111,33890,1,720.0,0.0,1252.0,1000,0,0,0,0,-31.2,-0.208,-880.0
0,0,3116,33940,1,720.0,0.0,1248.0,1000,0,0,0,0,-28.8,-0.192,-240.0
0,0,3121,33990,1,860.0,0.0,1276.0,1000,0,0,0,0,-45.6,-0.304,-240.0
0,0,3126,34040,1,860.0,0.0,1280.0,1191,0,0,0,0,-48.0,-0.32,240.0
0,0,3131,34091,1,792.0,0.0,1296.0,1007,0,0,0,0,-57.6,-0.4224,65.45
0,0,3136,34141,1,792.0,0.0,1284.0,1349,0,0,0,0,-50.4,-0.336,400.0
0,0,3141,34191,1,732.0,0.0,1328.0,1000,0,0,0,0,-76.8,-0.512,-720.0
0,0,3146,34241,1,732.0,0.0,1324.0,1000,0,0,0,0,-74.4,-0.496,-240.0
0,0,3151,34292,1,672.0,0.0,1312.0,1000,0,0,0,0,-67.2,-0.448,-320.0
0,0,3156,34342,1,672.0,0.0,1292.0,1344,0,0,0,0,-55.2,-0.368,400.0
0,0,3161,34392,1,660.0,0.0,1304.0,1000,0,0,0,0,-62.4,-0.416,-400.0
0,0,3166,34442,1,660.0,0.0,1276.0,1034,0,0,0,0,-45.6,-0.304,80.0
0,0,3171,34492,1,648.0,0.0,1256.0,1286,0,0,0,0,-33.6,-0.224,320.0
0,0,3176,34542,1,648.0,0.0,1256.0,1206,0,0,0,0,-33.6,-0.224,240.0
0,0,3181,34592,1,736.0,0.0,1256.0,1000,0,0,0,0,-33.6,-0.224,-320.0
0,0,3186,34643,1,1056.0,0.0,1180.0,1972,0,0,0,0,12.0,0.08,960.0
0,0,3191,34693,1,1056.0,0.0,1184.0,1409,0,0,0,0,9.6,0.064,400.0
0,0,3196,34743,1,1012.0,0.0,1172.0,1016,0,0,0,0,16.8,0.112,0.0
0,0,3201,34794,1,1012.0,0.0,1176.0,1174,0,0,0,0,14.4,0.096,160.0
0,0,3206,34844,1,920.0,0.0,1140.0,1036,0,0,0,0,36.0,0.24,0.0
0,0,3211,34894,1,920.0,0.0,1144.0,1000,0,0,0,0,33.6,0.224,-80.0
0,0,3216,34944,1,912.0,0.0,1108.0,1535,0,0,0,0,55.2,0.368,480.0
0,0,3221,34994,1,912.0,0.0,1124.0,1000,0,0,0,0,45.6,0.304,-480.0
0,0,3226,35044,1,916.0,0.0,1120.0,1048,0,0,0,0,48.0,0.32,0.0
0,0,3231,35094,1,916.0,0.0,1100.0,1220,0,0,0,0,60.0,0.4,160.0
0,0,3236,35145,1,920.0,0.0,1104.0,1000,0,0,0,0,57.6,0.384,-320.0
0,0,3241,35195,1,920.0,0.0,1072.0,1717,0,0,0,0,76.8,0.512,640.0
0,0,3246,35245,1,860.0,0.0,1080.0,1152,0,0,0,0,72.0,0.48,80.0
0,0,3251,35296,1,860.0,0.0,1080.0,1000,0,0,0,0,72.0,0.48,-72.72
0,0,3256,35346,1,836.0,0.0,1068.0,1159,0,0,0,0,79.2,0.528,80.0
0,0,3261,35396,1,836.0,0.0,1064.0,1162,0,0,0,0,81.6,0.544,80.0
0,0,3266,35446,1,820.0,0.0,1088.0,1000,0,0,0,0,67.2,0.448,-480.0
0,0,3271,35496,1,820.0,0.0,1088.0,1307,0,0,0,0,67.2,0.448,240.0
0,0,3276,35546,1,472.0,0.0,1072.0,1397,0,0,0,0,76.8,0.512,320.0
0,0,3281,35596,1,472.0,0.0,1084.0,1000,0,0,0,0,69.6,0.464,-400.0
0,0,3286,35647,1,476.0,0.0,1060.0,1317,0,0,0,0,84.0,0.56,232.7
0,0,3291,35697,1,476.0,0.0,1064.0,1000,0,0,0,0,81.6,0.544,-160.0
0,0,3296,35747,1,648.0,0.0,1064.0,1000,0,0,0,0,81.6,0.544,-160.0
0,0,3301,35798,1,648.0,0.0,1028.0,1613,0,0,0,0,103.2,0.7568,509.0
0,0,3306,35848,1,636.0,0.0,1048.0,1000,0,0,0,0,91.2,0.608,-560.0
0,0,3311,35898,1,636.0,0.0,1048.0,1000,0,0,0,0,91.2,0.608,-560.0
0,0,3316,35948,1,644.0,0.0,1060.0,1000,0,0,0,0,84.0,0.56,-480.0
0,0,3321,35998,1,644.0,0.0,1080.0,1152,0,0,0,0,72.0,0.48,80.0
0,0,3326,36048,1,608.0,0.0,1064.0,1242,0,0,0,0,81.6,0.544,160.0
0,0,3331,36098,1,608.0,0.0,1068.0,1000,0,0,0,0,79.2,0.528,-160.0
0,0,3336,36149,1,668.0,0.0,1040.0,1518,0,0,0,0,96.0,0.64,421.8
0,0,3341,36199,1,668.0,0.0,1076.0,1000,0,0,0,0,74.4,0.496,-240.0
0,0,3346,36249,1,680.0,0.0,1072.0,1000,0,0,0,0,76.8,0.512,-160.0
0,0,3351,36299,1,680.0,0.0,1080.0,1000,0,0,0,0,72.0,0.48,-160.0
0,0,3356,36350,1,800.0,0.0,1076.0,1314,0,0,0,0,74.4,0.496,240.0
0,0,3361,36400,1,800.0,0.0,1084.0,1150,0,0,0,0,69.6,0.464,80.0
0,0,3366,36450,1,800.0,0.0,1092.0,1225,0,0,0,0,64.8,0.432,160.0
0,0,3371,36500,1,800.0,0.0,1124.0,1000,0,0,0,0,45.6,0.304,-320.0
0,0,3376,36550,1,800.0,0.0,1136.0,1000,0,0,0,0,38.4,0.256,-320.0
0,0,3381,36600,1,800.0,0.0,1136.0,1000,0,0,0,0,38.4,0.256,-80.0
0,0,3386,36651,1,808.0,0.0,1148.0,1431,0,0,0,0,31.2,0.2288,400.0
0,0,3391,36701,1,808.0,0.0,1168.0,1000,0,0,0,0,19.2,0.128,-720.0
0,0,3396,36751,1,748.0,0.0,1160.0,1184,0,0,0,0,24.0,0.16,160.0
0,0,3401,36801,1,728.0,0.0,1176.0,1000,0,0,0,0,14.4,0.096,-320.0
0,0,3406,36852,1,728.0,0.0,1180.0,1012,0,0,0,0,12.0,0.08,0.0
0,0,3411,36902,1,736.0,0.0,1160.0,1424,0,0,0,0,24.0,0.16,400.0
0,0,3416,36952,1,736.0,0.0,1192.0,1000,0,0,0,0,4.8,0.032,-640.0
0,0,3421,37002,1,712.0,0.0,1196.0,1162,0,0,0,0,2.4,0.016,160.0
0,0,3426,37052,1,712.0,0.0,1184.0,1000,0,0,0,0,9.6,0.064,-80.0
0,0,3431,37102,1,704.0,0.0,1196.0,1162,0,0,0,0,2.4,0.016,160.0
0,0,3436,37152,1,704.0,0.0,1208.0,1000,0,0,0,0,-4.8,-0.032,-160.0
0,0,3441,37203,1,676.0,0.0,1224.0,1000,0,0,0,0,-14.4,-0.096,-160.0
0,0,3446,37253,1,676.0,0.0,1232.0,1140,0,0,0,0,-19.2,-0.128,160.0
0,0,3451,37303,1,656.0,0.0,1236.0,1000,0,0,0,0,-21.6,-0.14399,-320.0
0,0,3456,37354,1,656.0,0.0,1236.0,1000,0,0,0,0,-21.6,-0.14399,21.81
0,0,3461,37404,1,656.0,0.0,1260.0,1000,0,0,0,0,-36.0,-0.24,-160.0
0,0,3466,37454,1,656.0,0.0,1236.0,1000,0,0,0,0,-21.6,-0.14399,0.0
0,0,3471,37504,1,624.0,0.0,1264.0,1000,0,0,0,0,-38.4,-0.256,-720.0
0,0,3476,37554,1,624.0,0.0,1264.0,1000,0,0,0,0,-38.4,-0.256,-80.0
0,0,3481,37604,1,616.0,0.0,1240.0,1055,0,0,0,0,-24.0,-0.16,80.0
0,0,3486,37654,1,616.0,0.0,1264.0,1121,0,0,0,0,-38.4,-0.256,160.0
0,0,3491,37705,1,1360.0,0.0,1288.0,1000,0,0,0,0,-52.8,-0.352,-320.0
0,0,3496,37755,1,1360.0,0.0,1288.0,1000,0,0,0,0,-52.8,-0.352,0.0
0,0,3501,37805,1,548.0,0.0,1288.0,1000,0,0,0,0,-52.8,-0.352,-320.0
0,0,3506,37856,1,548.0,0.0,1288.0,1000,0,0,0,0,-52.8,-0.352,-152.72
0,0,3511,37906,1,380.0,0.0,1284.0,1000,0,0,0,0,-50.4,-0.336,0.0
0,0,3516,37956,1,380.0,0.0,1284.0,1269,0,0,0,0,-50.4,-0.336,320.0
0,0,3521,38006,1,388.0,0.0,1268.0,1198,0,0,0,0,-40.8,-0.272,240.0
0,0,3526,38056,1,388.0,0.0,1264.0,1041,0,0,0,0,-38.4,-0.256,80.0
0,0,3531,38106,1,424.0,0.0,1232.0,1620,0,0,0,0,-19.2,-0.128,640.0
0,0,3536,38156,1,424.0,0.0,1220.0,1387,0,0,0,0,-12.0,-0.08,400.0
0,0,3541,38207,1,404.0,0.0,1160.0,2000,0,0,0,0,24.0,0.16,1105.4
0,0,3546,38257,1,404.0,0.0,1152.0,1188,0,0,0,0,28.8,0.192,160.0
0,0,3551,38307,1,344.0,0.0,1140.0,1000,0,0,0,0,36.0,0.24,-400.0
0,0,3556,38358,1,344.0,0.0,1100.0,1264,0,0,0,0,60.0,0.44,203.6
0,0,3561,38408,1,300.0,0.0,1076.0,1234,0,0,0,0,74.4,0.496,160.0
0,0,3566,38458,1,300.0,0.0,1032.0,1341,0,0,0,0,100.8,0.672,240.0
0,0,3571,38508,1,300.0,0.0,1000.0,1000,0,0,0,0,120.0,0.8,-240.0
0,0,3576,38558,1,300.0,0.0,976.0,1215,0,0,0,0,134.4,0.896,80.0
0,0,3581,38608,1,332.0,0.0,964.0,1000,0,0,0,0,141.6,0.9439,-240.0
0,0,3586,38658,1,332.0,0.0,956.0,1227,0,0,0,0,146.4,0.976,80.0
0,0,3591,38709,1,300.0,0.0,920.0,1649,0,0,0,0,168.0,1.12,480.0
0,0,3596,38759,1,300.0,0.0,928.0,1000,0,0,0,0,163.2,1.088,-560.0
0,0,3601,38809,1,1292.0,0.0,884.0,1270,0,0,0,0,189.6,1.2639,80.0
0,0,3606,38859,1,1256.0,0.0,868.0,1600,0,0,0,0,199.2,1.3279,400.0
0,0,3611,38910,1,1256.0,0.0,864.0,1362,0,0,0,0,201.6,1.344,160.0
0,0,3616,38960,1,1160.0,0.0,832.0,1302,0,0,0,0,220.8,1.472,80.0
0,0,3621,39010,1,1160.0,0.0,808.0,1156,0,0,0,0,235.2,1.568,-80.0
0,0,3626,39060,1,1056.0,0.0,788.0,1488,0,0,0,0,247.2,1.648,240.0
0,0,3631,39110,1,1056.0,0.0,768.0,1260,0,0,0,0,259.2,1.727,0.0
0,0,3636,39160,1,1116.0,0.0,748.0,1433,0,0,0,0,271.2,1.808,160.0
0,0,3641,39211,1,1116.0,0.0,716.0,1757,0,0,0,0,290.4,2.129,465.4
0,0,3646,39261,1,996.0,0.0,716.0,1052,0,0,0,0,290.4,1.935,-240.0
0,0,3651,39311,1,996.0,0.0,716.0,1692,0,0,0,0,290.4,1.935,400.0
0,0,3656,39361,1,908.0,0.0,712.0,1294,0,0,0,0,292.8,1.952,0.0
0,0,3661,39412,1,908.0,0.0,728.0,1125,0,0,0,0,283.2,1.887,-160.0
0,0,3666,39462,1,932.0,0.0,704.0,1219,0,0,0,0,297.6,1.984,-80.0
0,0,3671,39512,1,932.0,0.0,708.0,1137,0,0,0,0,295.2,1.968,-160.0
0,0,3676,39562,1,920.0,0.0,708.0,1297,0,0,0,0,295.2,1.968,0.0
0,0,3681,39612,1,920.0,0.0,688.0,1389,0,0,0,0,307.2,2.048,80.0
0,0,3686,39662,1,880.0,0.0,684.0,1631,0,0,0,0,309.6,2.064,320.0
0,0,3691,39712,1,880.0,0.0,692.0,1626,0,0,0,0,304.8,2.032,320.0
0,0,3696,39763,1,856.0,0.0,672.0,1638,0,0,0,0,316.8,2.112,320.0
0,0,3701,39813,1,856.0,0.0,676.0,1000,0,0,0,0,314.4,2.096,-400.0
0,0,3706,39863,1,836.0,0.0,672.0,1478,0,0,0,0,316.8,2.112,160.0
0,0,3711,39914,1,836.0,0.0,688.0,1134,0,0,0,0,307.2,2.048,-174.5
0,0,3716,39964,1,828.0,0.0,696.0,1000,0,0,0,0,302.4,2.016,-480.0
0,0,3721,40014,1,828.0,0.0,696.0,1144,0,0,0,0,302.4,2.016,-160.0
0,0,3726,40064,1,816.0,0.0,692.0,1146,0,0,0,0,304.8,2.032,-160.0
0,0,3731,40114,1,816.0,0.0,684.0,1311,0,0,0,0,309.6,2.064,0.0
0,0,3736,40164,1,800.0,0.0,696.0,1224,0,0,0,0,302.4,2.016,-80.0
0,0,3741,40214,1,800.0,0.0,696.0,1224,0,0,0,0,302.4,2.016,-80.0
0,0,3746,40265,1,1364.0,0.0,708.0,1000,0,0,0,0,295.2,1.968,-320.0
0,0,3751,40315,1,1364.0,0.0,700.0,1782,0,0,0,0,300.0,2.0,480.0
0,0,3756,40365,1,760.0,0.0,736.0,1000,0,0,0,0,278.4,1.856,-560.0
0,0,3761,40416,1,760.0,0.0,724.0,1280,0,0,0,0,285.6,1.903,-7.272
0,0,3766,40466,1,780.0,0.0,744.0,1000,0,0,0,0,273.6,1.824,-400.0
0,0,3771,40516,1,780.0,0.0,736.0,1760,0,0,0,0,278.4,1.856,480.0
0,0,3776,40566,1,776.0,0.0,768.0,1000,0,0,0,0,259.2,1.727,-560.0
0,0,3781,40616,1,776.0,0.0,776.0,1336,0,0,0,0,254.4,1.696,80.0
0,0,3786,40666,1,776.0,0.0,792.0,1000,0,0,0,0,244.8,1.632,-640.0
0,0,3791,40716,1,776.0,0.0,792.0,1246,0,0,0,0,244.8,1.632,0.0
0,0,3796,40767,1,820.0,0.0,816.0,1210,0,0,0,0,230.4,1.536,-21.81
0,0,3801,40817,1,820.0,0.0,848.0,1052,0,0,0,0,211.2,1.408,-160.0
0,0,3806,40867,1,832.0,0.0,844.0,1295,0,0,0,0,213.6,1.424,80.0
0,0,3811,40918,1,832.0,0.0,828.0,1115,0,0,0,0,223.2,1.6368,-109.09
0,0,3816,40968,1,784.0,0.0,892.0,1000,0,0,0,0,184.8,1.232,-960.0
0,0,3821,41018,1,784.0,0.0,904.0,1018,0,0,0,0,177.6,1.184,-160.0
0,0,3826,41068,1,784.0,0.0,940.0,1000,0,0,0,0,156.0,1.04,-720.0
0,0,3831,41118,1,784.0,0.0,956.0,1000,0,0,0,0,146.4,0.976,-480.0
0,0,3836,41168,1,784.0,0.0,940.0,1157,0,0,0,0,156.0,1.04,0.0
0,0,3841,41218,1,800.0,0.0,960.0,1000,0,0,0,0,144.0,0.96,-240.0
0,0,3846,41269,1,800.0,0.0,968.0,1554,0,0,0,0,139.2,0.928,414.5
0,0,3851,41319,1,824.0,0.0,1024.0,1000,0,0,0,0,105.6,0.704,-720.0
0,0,3856,41369,0,824.0,0.0,1056.0,1000,0,0,0,0,86.4,2.576,-720.0
0,0,3861,41419,0,828.0,0.0,1008.0,2000,0,0,0,0,115.2,5.711,1040.0
0,0,3866,41470,0,828.0,0.0,1068.0,1000,0,0,0,0,79.2,8.532,-320.0
0,0,3871,41520,0,992.0,0.0,1076.0,1165,0,0,0,0,74.4,11.108,80.0
0,0,3876,41570,0,992.0,0.0,1072.0,1330,0,0,0,0,76.8,13.348,240.0
0,0,3881,41620,0,808.0,0.0,1076.0,1410,0,0,0,0,74.4,15.748,320.0
0,0,3886,41670,0,808.0,0.0,1060.0,1582,0,0,0,0,84.0,18.32,480.0
0,0,3891,41720,0,804.0,0.0,1000.0,1861,0,0,0,0,120.0,21.89,720.0
0,0,3896,41771,0,804.0,0.0,940.0,2000,0,0,0,0,156.0,26.38,1149.0
0,0,3901,41821,0,980.0,0.0,892.0,2000,0,0,0,0,184.8,32.18,800.0
0,0,3906,41871,0,980.0,0.0,844.0,1252,0,0,0,0,213.6,39.14,0.0
0,0,3911,41921,0,992.0,0.0,804.0,1844,0,0,0,0,237.6,46.66,560.0
0,0,3916,41972,0,992.0,0.0,772.0,1712,0,0,0,0,256.8,55.19,400.0
0,0,3921,42022,0,968.0,0.0,744.0,1737,0,0,0,0,273.6,64.23,400.0
0,0,3926,42072,0,968.0,0.0,724.0,1839,0,0,0,0,285.6,73.47,480.0
0,0,3931,42122,0,864.0,0.0,712.0,1375,0,0,0,0,292.8,83.11,0.0
0,0,3936,42172,0,864.0,0.0,732.0,1453,0,0,0,0,280.8,92.84,80.0
0,0,3941,42222,0,864.0,0.0,708.0,1397,0,0,0,0,295.2,102.57,0.0
0,0,3946,42272,0,864.0,0.0,696.0,1495,0,0,0,0,302.4,112.67,80.0
0,0,3951,42323,0,400.0,0.0,672.0,1440,0,0,0,0,316.8,123.39,0.0
0,0,3956,42373,0,400.0,0.0,656.0,2000,0,0,0,0,326.4,134.07,640.0
0,0,3961,42423,0,352.0,0.0,656.0,1151,0,0,0,0,326.4,145.05,-320.0
0,0,3966,42474,0,352.0,0.0,624.0,2000,0,0,0,0,345.6,156.48,530.9
0,0,3971,42524,0,348.0,0.0,608.0,1603,0,0,0,0,355.2,168.2,80.0
0,0,3976,42574,0,348.0,0.0,592.0,1865,0,0,0,0,364.8,180.3,320.0
0,0,3981,42624,0,348.0,0.0,556.0,1979,0,0,0,0,386.4,193.0,400.0
0,0,3986,42674,0,348.0,0.0,528.0,1849,0,0,0,0,403.2,206.3,240.0
0,0,3991,42724,0,348.0,0.0,516.0,1310,0,0,0,0,410.4,219.9,-320.0
0,0,3996,42774,0,348.0,0.0,496.0,2000,0,0,0,0,422.4,233.6,400.0
0,0,4001,42825,0,340.0,0.0,524.0,1173,0,0,0,0,405.6,247.6,-480.0
0,0,4006,42875,0,340.0,0.0,504.0,1839,0,0,0,0,417.6,261.4,160.0
0,0,4011,42925,0,336.0,0.0,492.0,1860,0,0,0,0,424.8,275.6,160.0
0,0,4016,42976,0,336.0,0.0,500.0,2000,0,0,0,0,420.0,289.7,407.2
0,0,4021,43026,0,368.0,0.0,528.0,1146,0,0,0,0,403.2,303.5,-560.0
0,0,4026,43076,0,1108.0,0.0,500.0,2000,0,0,0,0,420.0,317.4,320.0
0,0,4031,43126,0,1108.0,0.0,532.0,1012,0,0,0,0,400.8,331.2,-720.0
0,0,4036,43176,0,1060.0,0.0,548.0,1175,0,0,0,0,391.2,344.6,-560.0
0,0,4041,43226,0,1060.0,0.0,568.0,1000,0,0,0,0,379.2,357.5,-800.0
0,0,4046,43276,0,1044.0,0.0,596.0,1492,0,0,0,0,362.4,369.8,-240.0
0,0,4051,43327,0,1044.0,0.0,612.0,1145,0,0,0,0,352.8,382.2,-589.0
0,0,4056,43377,0,980.0,0.0,628.0,1257,0,0,0,0,343.2,394.0,-480.0
0,0,4061,43427,0,980.0,0.0,644.0,1418,0,0,0,0,333.6,405.2,-320.0
0,0,4066,43478,0,976.0,0.0,676.0,1563,0,0,0,0,314.4,416.0,-167.2
0,0,4071,43528,0,976.0,0.0,692.0,1651,0,0,0,0,304.8,426.4,-80.0
0,0,4076,43578,0,960.0,0.0,696.0,2000,0,0,0,0,302.4,436.4,480.0
0,0,4081,43628,0,960.0,0.0,692.0,1511,0,0,0,0,304.8,446.6,-240.0
0,0,4086,43678,0,872.0,0.0,680.0,2000,0,0,0,0,312.0,456.6,560.0
0,0,4091,43728,0,872.0,0.0,700.0,1446,0,0,0,0,300.0,466.9,-320.0
0,0,0,43778,0,848.0,0.0,692.0,1941,0,0,0,0,304.8,476.9,160.0
0,0,5,43829,0,848.0,0.0,712.0,1467,0,0,0,0,292.8,487.1,-312.7
0,0,10,43879,0,640.0,0.0,736.0,1135,0,0,0,0,278.4,496.8,-640.0
0,0,15,43929,0,640.0,0.0,744.0,1459,0,0,0,0,273.6,506.2,-320.0
0,0,20,43979,0,736.0,0.0,764.0,1616,0,0,0,0,261.6,515.1,-160.0
0,0,25,44030,0,736.0,0.0,780.0,1535,0,0,0,0,252.0,523.7,-240.0
0,0,30,44080,0,516.0,0.0,808.0,1287,0,0,0,0,235.2,531.9,-480.0
0,0,35,44130,0,516.0,0.0,844.0,1000,0,0,0,0,213.6,539.7,-800.0
0,0,40,44180,0,516.0,0.0,808.0,1782,0,0,0,0,235.2,547.4,0.0
0,0,45,44230,0,516.0,0.0,820.0,1703,0,0,0,0,228.0,555.1,-80.0
0,0,50,44280,0,520.0,0.0,844.0,1456,0,0,0,0,213.6,562.6,-320.0
0,0,55,44331,0,520.0,0.0,856.0,1245,0,0,0,0,206.4,569.8,-530.9
0,0,60,44381,0,516.0,0.0,840.0,1633,0,0,0,0,216.0,577.0,-160.0
0,0,65,44431,0,516.0,0.0,328.0,2000,0,0,0,0,523.2,586.1,10640.0
0,0,70,44481,0,484.0,0.0,516.0,1000,0,0,0,0,410.4,605.3,-7920.0
0,0,75,44532,0,484.0,0.0,548.0,2000,0,0,0,0,391.2,617.2,3040.0
0,0,80,44582,0,480.0,0.0,792.0,1471,0,0,0,0,244.8,626.6,-400.0
0,0,85,44632,0,480.0,0.0,764.0,2000,0,0,0,0,261.6,635.0,560.0
0,0,90,44682,0,464.0,0.0,760.0,2000,0,0,0,0,264.0,643.5,480.0
0,0,95,44732,0,464.0,0.0,904.0,1000,0,0,0,0,177.6,650.2,-1200.0
0,0,100,44782,0,440.0,0.0,872.0,2000,0,0,0,0,196.8,656.7,160.0
0,0,105,44832,0,440.0,0.0,808.0,2000,0,0,0,0,235.2,664.1,480.0
0,0,110,44883,0,400.0,0.0,804.0,2000,0,0,0,0,237.6,671.5,800.0
0,0,115,44933,0,400.0,0.0,824.0,2000,0,0,0,0,225.6,678.7,1440.0
0,0,120,44983,0,356.0,0.0,908.0,2000,0,0,0,0,175.2,684.4,480.0
0,0,125,45034,0,356.0,0.0,864.0,2000,0,0,0,0,201.6,690.7,938.1
0,0,130,45084,0,364.0,0.0,816.0,2000,0,0,0,0,230.4,696.0,3920.0
0,0,135,45134,0,300.0,0.0,976.0,1275,0,0,0,0,134.4,700.9,-560.0
0,0,140,45184,0,300.0,0.0,984.0,1115,0,0,0,0,129.6,705.7,-720.0
0,0,145,45234,0,300.0,0.0,892.0,1000,0,0,0,0,184.8,711.8,-1680.0
0,0,150,45284,0,300.0,0.0,908.0,1000,0,0,0,0,175.2,717.6,-1040.0
0,0,155,45334,0,336.0,0.0,852.0,1000,0,0,0,0,208.8,730.5,-10320.0
0,0,160,45385,0,336.0,0.0,888.0,1843,0,0,0,0,187.2,736.6,-80.0
0,0,165,45435,0,340.0,0.0,764.0,2000,0,0,0,0,261.6,744.3,2320.0
0,0,170,45485,0,340.0,0.0,460.0,2000,0,0,0,0,444.0,756.7,3040.0
0,0,175,45536,0,340.0,0.0,548.0,1000,0,0,0,0,391.2,771.2,-2152.0
0,0,180,45586,0,340.0,0.0,816.0,1000,0,0,0,0,230.4,779.7,-1200.0
0,0,185,45636,0,508.0,0.0,812.0,2000,0,0,0,0,232.8,787.4,240.0
0,0,190,45686,0,508.0,0.0,732.0,2000,0,0,0,0,280.8,796.3,1600.0
0,0,195,45736,0,760.0,0.0,804.0,2000,0,0,0,0,237.6,804.0,240.0
0,0,200,45786,0,760.0,0.0,720.0,2000,0,0,0,0,288.0,812.5,1600.0
0,0,205,45836,0,760.0,0.0,724.0,1000,0,0,0,0,285.6,822.5,-1120.0
0,0,210,45887,0,760.0,0.0,712.0,2000,0,0,0,0,292.8,832.1,385.4
0,0,215,45937,0,804.0,0.0,652.0,2000,0,0,0,0,328.8,842.3,960.0
0,0,220,45987,0,804.0,0.0,796.0,1000,0,0,0,0,242.4,851.2,-1280.0
0,0,225,46038,0,800.0,0.0,764.0,2000,0,0,0,0,261.6,859.9,80.0
0,0,230,46088,0,800.0,0.0,712.0,1203,0,0,0,0,292.8,870.2,-960.0
0,0,235,46138,0,832.0,0.0,848.0,1000,0,0,0,0,211.2,878.4,-1840.0
0,0,240,46188,0,832.0,0.0,824.0,2000,0,0,0,0,225.6,884.9,1360.0
0,0,245,46238,0,808.0,0.0,1924.0,1000,0,0,0,0,-434.4,883.0,-179200.0
0,0,250,46288,0,808.0,0.0,3372.0,1000,0,0,0,0,-1303.2,849.6,-169600.0
0,0,255,46338,0,728.0,0.0,2128.0,2000,0,0,0,0,-556.8,815.3,382400.0
0,0,260,46389,0,728.0,0.0,2100.0,1700,0,0,0,0,-540.0,797.0,443.6
0,0,265,46439,0,680.0,0.0,188.0,2000,0,0,0,0,607.2,797.3,359200.0
0,0,270,46489,0,680.0,0.0,188.0,2000,0,0,0,0,607.2,817.6,0.0
0,0,275,46539,0,496.0,0.0,188.0,2000,0,0,0,0,607.2,837.8,0.0
0,0,280,46590,0,496.0,0.0,188.0,2000,0,0,0,0,607.2,858.4,0.0
0,0,285,46640,0,468.0,0.0,188.0,2000,0,0,0,0,607.2,878.7,0.0
0,0,290,46690,0,468.0,0.0,188.0,2000,0,0,0,0,607.2,898.9,0.0
0,0,295,46740,0,552.0,0.0,188.0,2000,0,0,0,0,607.2,919.2,0.0
0,0,300,46790,0,552.0,0.0,188.0,2000,0,0,0,0,607.2,939.4,0.0
0,0,305,46840,0,540.0,0.0,188.0,2000,0,0,0,0,607.2,959.6,0.0
0,0,310,46891,0,540.0,0.0,188.0,2000,0,0,0,0,607.2,980.3,0.0
0,0,315,46941,0,540.0,0.0,188.0,2000,0,0,0,0,607.2,1000.0,0.0
0,0,320,46991,0,540.0,0.0,188.0,2000,0,0,0,0,607.2,1000.0,0.0
0,0,325,47041,0,544.0,0.0,188.0,2000,0,0,0,0,607.2,1000.0,0.0
0,0,330,47092,0,544.0,0.0,188.0,2000,0,0,0,0,607.2,1000.0,0.0
0,0,335,47142,0,544.0,0.0,440.0,2000,0,0,0,0,456.0,916.4,822400.0
0,0,340,47192,0,544.0,0.0,84.0,2000,0,0,0,0,669.6,937.3,320.0
0,0,345,47242,0,540.0,0.0,460.0,1000,0,0,0,0,444.0,954.9,-3520.0
0,0,350,47292,0,536.0,0.0,384.0,2000,0,0,0,0,489.6,969.2,400.0
0,0,355,47342,0,536.0,0.0,24.0,2000,0,0,0,0,705.6,992.2,1440.0
0,0,360,47392,0,540.0,0.0,24.0,2000,0,0,0,0,705.6,1000.0,0.0
0,0,365,47443,0,540.0,0.0,24.0,2000,0,0,0,0,705.6,1000.0,0.0
0,0,370,47493,0,536.0,0.0,24.0,2000,0,0,0,0,705.6,1000.0,0.0
0,0,375,47543,0,536.0,0.0,24.0,2000,0,0,0,0,705.6,1000.0,0.0
0,0,380,47594,0,464.0,0.0,24.0,2000,0,0,0,0,705.6,1000.0,0.0
0,0,385,47644,0,464.0,0.0,24.0,2000,0,0,0,0,705.6,1000.0,0.0
0,0,390,47694,0,436.0,0.0,664.0,1000,0,0,0,0,321.6,1000.0,-11600.0
0,0,395,47744,0,436.0,0.0,880.0,1000,0,0,0,0,192.0,1000.0,-1360.0
0,0,400,47794,0,448.0,0.0,24.0,2000,0,0,0,0,705.6,1000.0,1520.0
0,0,405,47844,0,448.0,0.0,24.0,2000,0,0,0,0,705.6,1000.0,0.0
0,0,410,47894,0,424.0,0.0,24.0,2000,0,0,0,0,705.6,1000.0,0.0
0,0,415,47945,0,424.0,0.0,512.0,1000,0,0,0,0,412.8,1000.0,-9760.0
0,0,420,47995,0,432.0,0.0,828.0,2000,0,0,0,0,223.2,1000.0,560.0
0,0,425,48045,0,432.0,0.0,1392.0,1000,0,0,0,0,-115.2,998.5,-8000.0
0,0,430,48096,0,440.0,0.0,1252.0,2000,0,0,0,0,-31.2,994.3,4160.0
0,0,435,48146,0,440.0,0.0,812.0,2000,0,0,0,0,232.8,997.2,7120.0
0,0,440,48196,0,468.0,0.0,96.0,2000,0,0,0,0,662.4,1000.0,13760.0
0,0,445,48246,0,468.0,0.0,620.0,1000,0,0,0,0,348.0,1000.0,-9760.0
0,0,450,48296,0,592.0,0.0,232.0,2000,0,0,0,0,580.8,1000.0,2240.0
0,0,455,48346,0,592.0,0.0,232.0,2000,0,0,0,0,580.8,1000.0,0.0
0,0,460,48396,0,608.0,0.0,232.0,2000,0,0,0,0,580.8,1000.0,0.0
0,0,465,48447,0,608.0,0.0,232.0,2000,0,0,0,0,580.8,1000.0,0.0
0,0,470,48497,0,636.0,0.0,232.0,2000,0,0,0,0,580.8,1000.0,0.0
0,0,475,48547,0,636.0,0.0,232.0,2000,0,0,0,0,580.8,1000.0,0.0
0,0,480,48598,0,636.0,0.0,232.0,2000,0,0,0,0,580.8,1000.0,0.0
0,0,485,48648,0,636.0,0.0,232.0,2000,0,0,0,0,580.8,1000.0,0.0
0,0,490,48698,0,640.0,0.0,232.0,2000,0,0,0,0,580.8,1000.0,0.0
0,0,495,48748,0,640.0,0.0,232.0,2000,0,0,0,0,580.8,1000.0,0.0
0,0,500,48798,0,640.0,0.0,232.0,2000,0,0,0,0,580.8,1000.0,0.0
0,0,505,48848,0,640.0,0.0,232.0,2000,0,0,0,0,580.8,1000.0,0.0
0,0,510,48898,0,548.0,0.0,232.0,2000,0,0,0,0,580.8,1000.0,0.0
0,0,515,48949,0,548.0,0.0,12764.0,1000,0,0,0,0,-6938.0,953.7,-868000.0
0,0,520,48999,0,536.0,0.0,196.0,1536,0,0,0,0,602.4,974.5,-1040.0
0,0,525,49049,0,536.0,0.0,152.0,2000,0,0,0,0,628.8,995.0,640.0
0,0,530,49099,0,516.0,0.0,72.0,2000,0,0,0,0,676.8,1000.0,1120.0
0,0,535,49150,0,516.0,0.0,64.0,2000,0,0,0,0,681.6,1000.0,80.0
0,0,540,49200,0,528.0,0.0,80.0,2000,0,0,0,0,672.0,1000.0,240.0
0,0,545,49250,0,528.0,0.0,116.0,2000,0,0,0,0,650.4,1000.0,-80.0
0,0,550,49300,0,472.0,0.0,104.0,2000,0,0,0,0,657.6,1000.0,240.0
0,0,555,49350,0,468.0,0.0,92.0,2000,0,0,0,0,664.8,1000.0,0.0
0,0,560,49400,0,468.0,0.0,124.0,2000,0,0,0,0,645.6,1000.0,-160.0
0,0,565,49451,0,532.0,0.0,36.0,2000,0,0,0,0,698.4,1000.0,414.5
0,0,570,49501,0,532.0,0.0,36.0,2000,0,0,0,0,698.4,1000.0,0.0
0,0,575,49551,0,528.0,0.0,60.0,2000,0,0,0,0,684.0,1000.0,-160.0
0,0,580,49601,0,528.0,0.0,52.0,1968,0,0,0,0,688.8,1000.0,-720.0
0,0,585,49652,0,528.0,0.0,112.0,2000,0,0,0,0,652.8,1000.0,-480.0
0,0,590,49702,0,528.0,0.0,80.0,2000,0,0,0,0,672.0,1000.0,1280.0
0,0,595,49752,0,472.0,0.0,96.0,2000,0,0,0,0,662.4,1000.0,80.0
0,0,600,49802,0,472.0,0.0,120.0,2000,0,0,0,0,648.0,1000.0,720.0
