InitialVarHeader,InitialVars,logNo,timeStep,controlMode,forwardSensor1,forwardSensor2,AltitudeSensor,throttleControl,yawControl,rollControl,pitchControl,stablilityModeControl,errorP,errorI,errorD
ALTITUDE_KP,0.5,6,2721,0,-12110.0,0.0,312.0,1000,0,0,0,0,0.0,0.0,0.0
ALTITUDE_KI,0.25,11,2771,0,-12110.0,0.0,312.0,1000,0,0,0,0,0.0,0.0,0.0
ALTITUDE_KD,0.03,16,2821,0,1360.0,0.0,312.0,1800,0,0,0,0,444.0,11.12,8880.0
THROTTLE_LIMIT,1800.0,21,2871,0,1360.0,0.0,308.0,1508,0,0,0,0,446.0,22.24,40.0
ALTITUDE_PID_GAIN_RATIO,0.5,26,2922,0,1280.0,0.0,308.0,1479,0,0,0,0,446.0,33.57,0.0
ALTITUDE_HOVER_HEIGHT,1200.0,31,2972,0,1200.0,0.0,308.0,1490,0,0,0,0,446.0,44.66,0.0
0,0,36,3022,0,1200.0,0.0,316.0,1417,0,0,0,0,442.0,55.78,-80.0
0,0,41,3072,0,1200.0,0.0,304.0,1634,0,0,0,0,448.0,66.95,120.0
0,0,46,3122,0,1200.0,0.0,312.0,1442,0,0,0,0,444.0,78.09,-80.0
0,0,51,3172,0,1164.0,0.0,316.0,1491,0,0,0,0,442.0,89.16,-40.0
0,0,56,3222,0,1164.0,0.0,316.0,1542,0,0,0,0,442.0,100.21,0.0
0,0,61,3273,0,1152.0,0.0,308.0,1637,0,0,0,0,446.0,111.56,80.0
0,0,66,3323,0,1152.0,0.0,312.0,1526,0,0,0,0,444.0,122.65,-40.0
0,0,71,3373,0,1036.0,0.0,316.0,1535,0,0,0,0,442.0,133.74,-40.0
0,0,76,3424,0,1036.0,0.0,324.0,1510,0,0,0,0,438.0,144.97,-72.72
0,0,81,3474,0,916.0,0.0,320.0,1635,0,0,0,0,440.0,155.98,40.0
0,0,86,3524,0,916.0,0.0,312.0,1691,0,0,0,0,444.0,167.0,80.0
0,0,91,3574,0,996.0,0.0,308.0,1664,0,0,0,0,446.0,178.1,40.0
0,0,96,3624,0,996.0,0.0,308.0,1635,0,0,0,0,446.0,189.2,0.0
0,0,101,3674,0,948.0,0.0,304.0,1688,0,0,0,0,448.0,200.4,40.0
0,0,106,3724,0,948.0,0.0,316.0,1533,0,0,0,0,442.0,211.5,-120.0
0,0,111,3775,0,904.0,0.0,308.0,1745,0,0,0,0,446.0,222.8,76.36
0,0,116,3825,0,904.0,0.0,312.0,1637,0,0,0,0,444.0,233.9,-40.0
0,0,121,3875,0,948.0,0.0,316.0,1647,0,0,0,0,442.0,245.0,-40.0
0,0,126,3926,0,948.0,0.0,312.0,1736,0,0,0,0,444.0,256.3,36.36
0,0,131,3976,0,996.0,0.0,300.0,1800,0,0,0,0,450.0,267.5,120.0
0,0,136,4026,0,996.0,0.0,304.0,1686,0,0,0,0,448.0,278.7,-40.0
0,0,141,4076,0,1364.0,0.0,316.0,1611,0,0,0,0,442.0,289.8,-120.0
0,0,146,4126,0,1364.0,0.0,320.0,1700,0,0,0,0,440.0,300.8,-40.0
0,0,151,4176,0,1384.0,0.0,312.0,1800,0,0,0,0,444.0,311.8,80.0
0,0,156,4226,0,1384.0,0.0,308.0,1800,0,0,0,0,446.0,323.0,40.0
0,0,161,4277,0,1384.0,0.0,312.0,1738,0,0,0,0,444.0,334.3,-40.0
0,0,166,4327,0,1384.0,0.0,312.0,1789,0,0,0,0,444.0,345.4,0.0
0,0,171,4377,0,1364.0,0.0,312.0,1800,0,0,0,0,444.0,356.5,0.0
0,0,176,4427,0,1364.0,0.0,308.0,1800,0,0,0,0,446.0,367.7,40.0
0,0,181,4478,0,1332.0,0.0,316.0,1741,0,0,0,0,442.0,379.0,-80.0
0,0,186,4528,0,1332.0,0.0,312.0,1800,0,0,0,0,444.0,390.1,40.0
0,0,191,4578,0,1296.0,0.0,308.0,1800,0,0,0,0,446.0,401.2,40.0
0,0,196,4628,0,1296.0,0.0,304.0,1800,0,0,0,0,448.0,412.4,40.0
0,0,201,4678,0,1012.0,0.0,312.0,1787,0,0,0,0,444.0,423.5,-80.0
0,0,206,4728,0,1012.0,0.0,312.0,1800,0,0,0,0,444.0,434.7,0.0
0,0,211,4779,0,1004.0,0.0,316.0,1800,0,0,0,0,442.0,446.1,-36.36
0,0,216,4829,0,1004.0,0.0,308.0,1800,0,0,0,0,446.0,457.1,80.0
0,0,221,4879,0,992.0,0.0,316.0,1800,0,0,0,0,442.0,468.2,-80.0
0,0,226,4929,1,992.0,0.0,308.0,1528,0,0,0,0,446.0,2.23,80.0
0,0,231,4980,1,992.0,0.0,312.0,1406,0,0,0,0,444.0,2.22,-40.0
0,0,236,5030,1,992.0,0.0,312.0,1446,0,0,0,0,444.0,2.22,0.0
0,0,241,5080,1,992.0,0.0,304.0,1530,0,0,0,0,448.0,2.24,80.0
0,0,246,5130,1,988.0,0.0,316.0,1324,0,0,0,0,442.0,2.21,-120.0
0,0,251,5180,1,988.0,0.0,312.0,1486,0,0,0,0,444.0,2.22,40.0
0,0,256,5230,1,988.0,0.0,308.0,1488,0,0,0,0,446.0,2.23,40.0
0,0,261,5280,1,988.0,0.0,312.0,1406,0,0,0,0,444.0,2.22,-40.0
0,0,266,5331,1,992.0,0.0,308.0,1484,0,0,0,0,446.0,2.23,36.36
0,0,271,5381,1,992.0,0.0,308.0,1448,0,0,0,0,446.0,2.23,0.0
0,0,276,5431,1,1468.0,0.0,304.0,1490,0,0,0,0,448.0,2.24,40.0
0,0,281,5482,1,1468.0,0.0,316.0,1324,0,0,0,0,442.0,2.21,-120.0
0,0,286,5532,1,1468.0,0.0,316.0,1444,0,0,0,0,442.0,2.21,0.0
0,0,291,5582,1,1468.0,0.0,316.0,1444,0,0,0,0,442.0,2.21,0.0
0,0,296,5632,1,1468.0,0.0,320.0,1402,0,0,0,0,440.0,2.2,-40.0
0,0,301,5682,1,1468.0,0.0,320.0,1442,0,0,0,0,440.0,2.2,0.0
0,0,306,5732,1,912.0,0.0,308.0,1568,0,0,0,0,446.0,2.23,120.0
0,0,311,5782,1,912.0,0.0,308.0,1448,0,0,0,0,446.0,2.23,0.0
0,0,316,5833,1,912.0,0.0,316.0,1364,0,0,0,0,442.0,2.21,-80.0
0,0,321,5883,1,912.0,0.0,304.0,1570,0,0,0,0,448.0,2.24,120.0
0,0,326,5933,1,912.0,0.0,320.0,1282,0,0,0,0,440.0,2.2,-160.0
0,0,331,5984,1,912.0,0.0,316.0,1480,0,0,0,0,442.0,2.21,36.36
0,0,336,6034,1,1044.0,0.0,304.0,1570,0,0,0,0,448.0,2.24,120.0
0,0,341,6084,1,1044.0,0.0,304.0,1450,0,0,0,0,448.0,2.24,0.0
0,0,346,6134,1,1404.0,0.0,312.0,1366,0,0,0,0,444.0,2.22,-80.0
0,0,351,6184,1,1404.0,0.0,312.0,1446,0,0,0,0,444.0,2.22,0.0
0,0,356,6234,1,1412.0,0.0,316.0,1404,0,0,0,0,442.0,2.21,-40.0
0,0,361,6284,1,1412.0,0.0,312.0,1486,0,0,0,0,444.0,2.22,40.0
0,0,366,6335,1,1412.0,0.0,312.0,1446,0,0,0,0,444.0,2.22,0.0
0,0,371,6385,1,1412.0,0.0,304.0,1530,0,0,0,0,448.0,2.24,80.0
0,0,376,6435,1,1412.0,0.0,324.0,1240,0,0,0,0,438.0,2.19,-200.0
0,0,381,6486,1,1412.0,0.0,312.0,1566,0,0,0,0,444.0,2.442,120.0
0,0,386,6536,1,1412.0,0.0,308.0,1488,0,0,0,0,446.0,2.23,40.0
0,0,391,6586,1,1412.0,0.0,316.0,1364,0,0,0,0,442.0,2.21,-80.0
0,0,396,6636,1,504.0,0.0,316.0,1444,0,0,0,0,442.0,2.21,0.0
0,0,401,6686,1,504.0,0.0,308.0,1528,0,0,0,0,446.0,2.23,80.0
0,0,406,6736,1,504.0,0.0,312.0,1406,0,0,0,0,444.0,2.22,-40.0
0,0,411,6786,1,504.0,0.0,320.0,1362,0,0,0,0,440.0,2.2,-80.0
0,0,416,6837,1,504.0,0.0,312.0,1518,0,0,0,0,444.0,2.22,72.72
0,0,421,6887,1,504.0,0.0,304.0,1530,0,0,0,0,448.0,2.24,80.0
0,0,426,6937,1,1400.0,0.0,316.0,1324,0,0,0,0,442.0,2.21,-120.0
0,0,431,6987,1,1400.0,0.0,316.0,1444,0,0,0,0,442.0,2.21,0.0
0,0,436,7038,1,1404.0,0.0,312.0,1486,0,0,0,0,444.0,2.22,40.0
0,0,441,7088,1,1404.0,0.0,312.0,1446,0,0,0,0,444.0,2.22,0.0
0,0,446,7138,1,1404.0,0.0,312.0,1446,0,0,0,0,444.0,2.22,0.0
0,0,451,7188,1,1404.0,0.0,316.0,1404,0,0,0,0,442.0,2.21,-40.0
0,0,456,7238,1,1404.0,0.0,332.0,1276,0,0,0,0,434.0,2.169,-160.0
0,0,461,7288,1,1400.0,0.0,316.0,1604,0,0,0,0,442.0,2.21,160.0
0,0,466,7339,1,1400.0,0.0,308.0,1521,0,0,0,0,446.0,2.453,72.72
0,0,471,7389,1,1384.0,0.0,312.0,1406,0,0,0,0,444.0,2.22,-40.0
0,0,476,7439,1,1384.0,0.0,304.0,1530,0,0,0,0,448.0,2.24,80.0
0,0,481,7489,1,1380.0,0.0,308.0,1408,0,0,0,0,446.0,2.23,-40.0
0,0,486,7540,1,1380.0,0.0,316.0,1360,0,0,0,0,442.0,2.21,-83.63
0,0,491,7590,1,1380.0,0.0,316.0,1444,0,0,0,0,442.0,2.21,0.0
0,0,496,7640,1,1380.0,0.0,312.0,1486,0,0,0,0,444.0,2.22,40.0
0,0,501,7690,1,1384.0,0.0,316.0,1404,0,0,0,0,442.0,2.21,-40.0
0,0,506,7740,1,1384.0,0.0,312.0,1486,0,0,0,0,444.0,2.22,40.0
0,0,511,7790,1,1400.0,0.0,300.0,1572,0,0,0,0,450.0,2.25,120.0
0,0,516,7840,1,1400.0,0.0,308.0,1368,0,0,0,0,446.0,2.23,-80.0
0,0,521,7891,1,1420.0,0.0,320.0,1322,0,0,0,0,440.0,2.2,-120.0
0,0,526,7941,1,1420.0,0.0,316.0,1484,0,0,0,0,442.0,2.21,40.0
0,0,531,7991,1,1472.0,0.0,320.0,1402,0,0,0,0,440.0,2.2,-40.0
0,0,536,8042,1,1472.0,0.0,320.0,1442,0,0,0,0,440.0,2.2,0.0
0,0,541,8092,1,1476.0,0.0,312.0,1526,0,0,0,0,444.0,2.22,80.0
0,0,546,8142,1,1476.0,0.0,316.0,1404,0,0,0,0,442.0,2.21,-40.0
0,0,551,8192,1,1476.0,0.0,316.0,1444,0,0,0,0,442.0,2.21,0.0
0,0,556,8242,1,1476.0,0.0,312.0,1486,0,0,0,0,444.0,2.22,40.0
0,0,561,8292,1,1476.0,0.0,308.0,1488,0,0,0,0,446.0,2.23,40.0
0,0,566,8342,1,1476.0,0.0,312.0,1406,0,0,0,0,444.0,2.22,-40.0
0,0,571,8393,1,1476.0,0.0,320.0,1362,0,0,0,0,440.0,2.2,-80.0
0,0,576,8443,1,1476.0,0.0,312.0,1526,0,0,0,0,444.0,2.22,80.0
0,0,581,8493,1,1476.0,0.0,316.0,1404,0,0,0,0,442.0,2.21,-40.0
0,0,586,8544,1,1476.0,0.0,312.0,1486,0,0,0,0,444.0,2.22,40.0
0,0,591,8594,1,1476.0,0.0,304.0,1530,0,0,0,0,448.0,2.24,80.0
0,0,596,8644,1,1476.0,0.0,308.0,1408,0,0,0,0,446.0,2.23,-40.0
0,0,601,8694,1,1476.0,0.0,316.0,1364,0,0,0,0,442.0,2.21,-80.0
0,0,606,8744,1,1476.0,0.0,316.0,1444,0,0,0,0,442.0,2.21,0.0
0,0,611,8794,1,1476.0,0.0,304.0,1570,0,0,0,0,448.0,2.24,120.0
0,0,616,8844,1,1476.0,0.0,304.0,1450,0,0,0,0,448.0,2.24,0.0
0,0,621,8895,1,1472.0,0.0,312.0,1366,0,0,0,0,444.0,2.22,-80.0
0,0,626,8945,1,1472.0,0.0,320.0,1362,0,0,0,0,440.0,2.2,-80.0
0,0,631,8995,1,1432.0,0.0,316.0,1484,0,0,0,0,442.0,2.21,40.0
0,0,636,9046,1,1432.0,0.0,308.0,1524,0,0,0,0,446.0,2.453,76.36
0,0,641,9096,1,992.0,0.0,312.0,1406,0,0,0,0,444.0,2.22,-40.0
0,0,646,9146,1,992.0,0.0,316.0,1404,0,0,0,0,442.0,2.21,-40.0
0,0,651,9196,1,992.0,0.0,304.0,1570,0,0,0,0,448.0,2.24,120.0
0,0,656,9246,1,992.0,0.0,308.0,1408,0,0,0,0,446.0,2.23,-40.0
0,0,661,9296,1,948.0,0.0,304.0,1490,0,0,0,0,448.0,2.24,40.0
0,0,666,9346,1,948.0,0.0,308.0,1408,0,0,0,0,446.0,2.23,-40.0
0,0,671,9397,1,900.0,0.0,312.0,1409,0,0,0,0,444.0,2.22,-36.36
0,0,676,9447,1,800.0,0.0,316.0,1404,0,0,0,0,442.0,2.21,-40.0
0,0,681,9497,1,800.0,0.0,312.0,1486,0,0,0,0,444.0,2.22,40.0
0,0,686,9547,1,760.0,0.0,304.0,1530,0,0,0,0,448.0,2.24,80.0
0,0,691,9598,1,760.0,0.0,312.0,1366,0,0,0,0,444.0,2.22,-80.0
0,0,696,9648,1,756.0,0.0,312.0,1446,0,0,0,0,444.0,2.22,0.0
0,0,701,9698,1,756.0,0.0,304.0,1530,0,0,0,0,448.0,2.24,80.0
0,0,706,9748,1,756.0,0.0,312.0,1366,0,0,0,0,444.0,2.22,-80.0
0,0,711,9798,1,756.0,0.0,316.0,1404,0,0,0,0,442.0,2.21,-40.0
0,0,716,9848,1,756.0,0.0,308.0,1528,0,0,0,0,446.0,2.23,80.0
0,0,721,9899,1,756.0,0.0,316.0,1364,0,0,0,0,442.0,2.431,-80.0
0,0,726,9949,1,756.0,0.0,304.0,1570,0,0,0,0,448.0,2.24,120.0
0,0,731,9999,1,756.0,0.0,312.0,1366,0,0,0,0,444.0,2.22,-80.0
0,0,736,10049,1,756.0,0.0,304.0,1530,0,0,0,0,448.0,2.24,80.0
0,0,741,10100,1,756.0,0.0,316.0,1324,0,0,0,0,442.0,2.21,-120.0
0,0,746,10150,1,776.0,0.0,316.0,1444,0,0,0,0,442.0,2.21,0.0
0,0,751,10200,1,776.0,0.0,312.0,1486,0,0,0,0,444.0,2.22,40.0
0,0,756,10250,1,784.0,0.0,316.0,1404,0,0,0,0,442.0,2.21,-40.0
0,0,761,10300,1,784.0,0.0,308.0,1528,0,0,0,0,446.0,2.23,80.0
0,0,766,10350,1,1428.0,0.0,312.0,1406,0,0,0,0,444.0,2.22,-40.0
0,0,771,10400,1,1428.0,0.0,304.0,1530,0,0,0,0,448.0,2.24,80.0
0,0,776,10451,1,1432.0,0.0,316.0,1335,0,0,0,0,442.0,2.21,-109.09
0,0,781,10501,1,1432.0,0.0,312.0,1486,0,0,0,0,444.0,2.22,40.0
0,0,786,10551,1,1436.0,0.0,320.0,1362,0,0,0,0,440.0,2.2,-80.0
0,0,791,10602,1,1436.0,0.0,312.0,1522,0,0,0,0,444.0,2.22,76.36
0,0,796,10652,1,1436.0,0.0,308.0,1488,0,0,0,0,446.0,2.23,40.0
0,0,801,10702,1,1436.0,0.0,312.0,1406,0,0,0,0,444.0,2.22,-40.0
0,0,806,10752,1,1436.0,0.0,324.0,1320,0,0,0,0,438.0,2.19,-120.0
0,0,811,10802,1,1436.0,0.0,320.0,1482,0,0,0,0,440.0,2.2,40.0
0,0,816,10852,1,1436.0,0.0,312.0,1526,0,0,0,0,444.0,2.22,80.0
0,0,821,10902,1,1436.0,0.0,308.0,1488,0,0,0,0,446.0,2.23,40.0
0,0,826,10953,1,1436.0,0.0,304.0,1490,0,0,0,0,448.0,2.24,40.0
0,0,831,11003,1,1436.0,0.0,316.0,1324,0,0,0,0,442.0,2.21,-120.0
0,0,836,11053,1,1436.0,0.0,312.0,1486,0,0,0,0,444.0,2.22,40.0
0,0,841,11104,1,1436.0,0.0,304.0,1526,0,0,0,0,448.0,2.24,76.36
0,0,846,11154,1,1436.0,0.0,316.0,1324,0,0,0,0,442.0,2.21,-120.0
0,0,851,11204,1,1436.0,0.0,308.0,1528,0,0,0,0,446.0,2.23,80.0
0,0,856,11254,1,1440.0,0.0,308.0,1448,0,0,0,0,446.0,2.23,0.0
0,0,861,11304,1,1440.0,0.0,304.0,1490,0,0,0,0,448.0,2.24,40.0
0,0,866,11354,1,1440.0,0.0,304.0,1450,0,0,0,0,448.0,2.24,0.0
0,0,871,11404,1,1440.0,0.0,312.0,1366,0,0,0,0,444.0,2.22,-80.0
0,0,876,11455,1,1440.0,0.0,308.0,1488,0,0,0,0,446.0,2.23,40.0
0,0,881,11505,1,1440.0,0.0,316.0,1364,0,0,0,0,442.0,2.21,-80.0
0,0,886,11555,1,1444.0,0.0,308.0,1528,0,0,0,0,446.0,2.23,80.0
0,0,891,11606,1,1444.0,0.0,316.0,1364,0,0,0,0,442.0,2.431,-80.0
0,0,896,11656,1,1444.0,0.0,304.0,1570,0,0,0,0,448.0,2.24,120.0
0,0,901,11706,1,1448.0,0.0,312.0,1366,0,0,0,0,444.0,2.22,-80.0
0,0,906,11756,1,1448.0,0.0,312.0,1446,0,0,0,0,444.0,2.22,0.0
0,0,911,11806,1,1472.0,0.0,316.0,1404,0,0,0,0,442.0,2.21,-40.0
0,0,916,11856,1,1472.0,0.0,308.0,1528,0,0,0,0,446.0,2.23,80.0
0,0,921,11906,1,1472.0,0.0,308.0,1448,0,0,0,0,446.0,2.23,0.0
0,0,926,11957,1,1472.0,0.0,308.0,1455,0,0,0,0,446.0,2.23,7.272
0,0,931,12007,1,1472.0,0.0,312.0,1406,0,0,0,0,444.0,2.22,-40.0
0,0,936,12057,1,1472.0,0.0,312.0,1446,0,0,0,0,444.0,2.22,0.0
0,0,941,12107,1,1476.0,0.0,296.0,1614,0,0,0,0,452.0,2.26,160.0
0,0,946,12158,1,1476.0,0.0,312.0,1293,0,0,0,0,444.0,2.22,-152.72
0,0,951,12208,1,1476.0,0.0,316.0,1404,0,0,0,0,442.0,2.21,-40.0
0,0,956,12258,1,1476.0,0.0,308.0,1528,0,0,0,0,446.0,2.23,80.0
0,0,961,12308,1,1476.0,0.0,304.0,1490,0,0,0,0,448.0,2.24,40.0
0,0,966,12358,1,1476.0,0.0,304.0,1450,0,0,0,0,448.0,2.24,0.0
0,0,971,12408,1,1472.0,0.0,316.0,1324,0,0,0,0,442.0,2.21,-120.0
0,0,976,12459,1,1472.0,0.0,324.0,1360,0,0,0,0,438.0,2.409,-80.0
0,0,981,12509,1,1008.0,0.0,308.0,1608,0,0,0,0,446.0,2.23,160.0
0,0,986,12559,1,1008.0,0.0,304.0,1490,0,0,0,0,448.0,2.24,40.0
0,0,991,12609,1,1008.0,0.0,304.0,1450,0,0,0,0,448.0,2.24,0.0
0,0,996,12660,1,1008.0,0.0,308.0,1408,0,0,0,0,446.0,2.23,-40.0
0,0,1001,12710,1,1008.0,0.0,304.0,1490,0,0,0,0,448.0,2.24,40.0
0,0,1006,12760,1,1008.0,0.0,316.0,1324,0,0,0,0,442.0,2.21,-120.0
0,0,1011,12810,1,1032.0,0.0,308.0,1528,0,0,0,0,446.0,2.23,80.0
0,0,1016,12860,1,1032.0,0.0,316.0,1364,0,0,0,0,442.0,2.21,-80.0
0,0,1021,12910,1,1352.0,0.0,316.0,1444,0,0,0,0,442.0,2.21,0.0
0,0,1026,12960,1,1352.0,0.0,304.0,1570,0,0,0,0,448.0,2.24,120.0
0,0,1031,13011,1,1416.0,0.0,312.0,1369,0,0,0,0,444.0,2.22,-76.36
0,0,1036,13061,1,1416.0,0.0,312.0,1446,0,0,0,0,444.0,2.22,0.0
0,0,1041,13111,1,1420.0,0.0,308.0,1488,0,0,0,0,446.0,2.23,40.0
0,0,1046,13162,1,1420.0,0.0,316.0,1364,0,0,0,0,442.0,2.21,-80.0
0,0,1051,13212,1,1472.0,0.0,308.0,1528,0,0,0,0,446.0,2.23,80.0
0,0,1056,13262,1,1472.0,0.0,312.0,1406,0,0,0,0,444.0,2.22,-40.0
0,0,1061,13312,1,1472.0,0.0,304.0,1530,0,0,0,0,448.0,2.24,80.0
0,0,1066,13362,1,1472.0,0.0,304.0,1450,0,0,0,0,448.0,2.24,0.0
0,0,1071,13412,1,1432.0,0.0,308.0,1408,0,0,0,0,446.0,2.23,-40.0
0,0,1076,13462,1,1432.0,0.0,308.0,1448,0,0,0,0,446.0,2.23,0.0
0,0,1081,13513,1,1432.0,0.0,308.0,1448,0,0,0,0,446.0,2.23,0.0
0,0,1086,13563,1,1432.0,0.0,308.0,1448,0,0,0,0,446.0,2.23,0.0
0,0,1091,13613,1,1432.0,0.0,308.0,1448,0,0,0,0,446.0,2.23,0.0
0,0,1096,13664,1,1412.0,0.0,304.0,1490,0,0,0,0,448.0,2.24,40.0
0,0,1101,13714,1,1412.0,0.0,312.0,1366,0,0,0,0,444.0,2.22,-80.0
0,0,1106,13764,1,1408.0,0.0,300.0,1572,0,0,0,0,450.0,2.25,120.0
0,0,1111,13814,1,1408.0,0.0,312.0,1326,0,0,0,0,444.0,2.22,-120.0
0,0,1116,13864,1,1408.0,0.0,308.0,1488,0,0,0,0,446.0,2.23,40.0
0,0,1121,13914,1,1408.0,0.0,308.0,1448,0,0,0,0,446.0,2.23,0.0
0,0,1126,13964,1,1408.0,0.0,312.0,1406,0,0,0,0,444.0,2.22,-40.0
0,0,1131,14015,1,1408.0,0.0,308.0,1488,0,0,0,0,446.0,2.23,40.0
0,0,1136,14065,1,1400.0,0.0,304.0,1490,0,0,0,0,448.0,2.24,40.0
0,0,1141,14115,1,1400.0,0.0,324.0,1240,0,0,0,0,438.0,2.19,-200.0
0,0,1146,14166,1,1400.0,0.0,304.0,1650,0,0,0,0,448.0,2.464,200.0
0,0,1151,14216,1,1400.0,0.0,308.0,1408,0,0,0,0,446.0,2.23,-40.0
0,0,1156,14266,1,1400.0,0.0,316.0,1364,0,0,0,0,442.0,2.21,-80.0
0,0,1161,14316,1,1400.0,0.0,312.0,1486,0,0,0,0,444.0,2.22,40.0
0,0,1166,14366,1,1428.0,0.0,308.0,1488,0,0,0,0,446.0,2.23,40.0
0,0,1171,14416,1,1428.0,0.0,304.0,1490,0,0,0,0,448.0,2.24,40.0
0,0,1176,14466,1,1472.0,0.0,308.0,1408,0,0,0,0,446.0,2.23,-40.0
0,0,1181,14517,1,1472.0,0.0,304.0,1490,0,0,0,0,448.0,2.24,40.0
0,0,1186,14567,1,1472.0,0.0,320.0,1282,0,0,0,0,440.0,2.2,-160.0
0,0,1191,14617,1,1472.0,0.0,308.0,1568,0,0,0,0,446.0,2.23,120.0
0,0,1196,14667,1,1472.0,0.0,308.0,1448,0,0,0,0,446.0,2.23,0.0
0,0,1201,14718,1,1472.0,0.0,316.0,1360,0,0,0,0,442.0,2.21,-83.63
0,0,1206,14768,1,1472.0,0.0,308.0,1528,0,0,0,0,446.0,2.23,80.0
0,0,1211,14818,1,1472.0,0.0,308.0,1448,0,0,0,0,446.0,2.23,0.0
0,0,1216,14868,1,1472.0,0.0,308.0,1448,0,0,0,0,446.0,2.23,0.0
0,0,1221,14918,1,1472.0,0.0,316.0,1364,0,0,0,0,442.0,2.21,-80.0
0,0,1226,14968,1,1472.0,0.0,316.0,1444,0,0,0,0,442.0,2.21,0.0
0,0,1231,15019,1,1472.0,0.0,308.0,1517,0,0,0,0,446.0,2.453,69.09
0,0,1236,15069,1,1472.0,0.0,308.0,1448,0,0,0,0,446.0,2.23,0.0
0,0,1241,15119,1,1472.0,0.0,308.0,1448,0,0,0,0,446.0,2.23,0.0
0,0,1246,15169,1,1432.0,0.0,308.0,1448,0,0,0,0,446.0,2.23,0.0
0,0,1251,15220,1,1432.0,0.0,296.0,1574,0,0,0,0,452.0,2.26,120.0
0,0,1256,15270,1,1432.0,0.0,308.0,1328,0,0,0,0,446.0,2.23,-120.0
0,0,1261,15320,1,1432.0,0.0,312.0,1406,0,0,0,0,444.0,2.22,-40.0
0,0,1266,15370,1,1432.0,0.0,308.0,1488,0,0,0,0,446.0,2.23,40.0
0,0,1271,15420,1,1432.0,0.0,308.0,1448,0,0,0,0,446.0,2.23,0.0
0,0,1276,15470,1,1432.0,0.0,312.0,1406,0,0,0,0,444.0,2.22,-40.0
0,0,1281,15520,1,1432.0,0.0,296.0,1614,0,0,0,0,452.0,2.26,160.0
0,0,1286,15571,1,1404.0,0.0,308.0,1328,0,0,0,0,446.0,2.23,-120.0
0,0,1291,15621,1,1404.0,0.0,304.0,1490,0,0,0,0,448.0,2.24,40.0
0,0,1296,15671,1,1476.0,0.0,308.0,1408,0,0,0,0,446.0,2.23,-40.0
0,0,1301,15722,1,1476.0,0.0,312.0,1406,0,0,0,0,444.0,2.22,-40.0
0,0,1306,15772,1,1476.0,0.0,308.0,1488,0,0,0,0,446.0,2.23,40.0
0,0,1311,15822,1,1476.0,0.0,304.0,1490,0,0,0,0,448.0,2.24,40.0
0,0,1316,15872,1,1476.0,0.0,304.0,1450,0,0,0,0,448.0,2.24,0.0
0,0,1321,15922,1,1472.0,0.0,304.0,1450,0,0,0,0,448.0,2.24,0.0
0,0,1326,15972,1,1472.0,0.0,308.0,1408,0,0,0,0,446.0,2.23,-40.0
0,0,1331,16022,1,1472.0,0.0,304.0,1490,0,0,0,0,448.0,2.24,40.0
0,0,1336,16073,1,1472.0,0.0,316.0,1324,0,0,0,0,442.0,2.21,-120.0
0,0,1341,16123,1,1472.0,0.0,304.0,1570,0,0,0,0,448.0,2.24,120.0
0,0,1346,16173,1,1472.0,0.0,296.0,1534,0,0,0,0,452.0,2.26,80.0
0,0,1351,16224,1,1472.0,0.0,308.0,1328,0,0,0,0,446.0,2.23,-120.0
0,0,1356,16274,1,1472.0,0.0,316.0,1364,0,0,0,0,442.0,2.21,-80.0
0,0,1361,16324,1,1472.0,0.0,312.0,1486,0,0,0,0,444.0,2.22,40.0
0,0,1366,16374,1,1472.0,0.0,304.0,1530,0,0,0,0,448.0,2.24,80.0
0,0,1371,16424,1,1472.0,0.0,312.0,1366,0,0,0,0,444.0,2.22,-80.0
0,0,1376,16474,1,1472.0,0.0,308.0,1488,0,0,0,0,446.0,2.23,40.0
0,0,1381,16524,1,1472.0,0.0,304.0,1490,0,0,0,0,448.0,2.24,40.0
0,0,1386,16575,1,1472.0,0.0,308.0,1411,0,0,0,0,446.0,2.23,-36.36
0,0,1391,16625,1,1472.0,0.0,316.0,1364,0,0,0,0,442.0,2.21,-80.0
0,0,1396,16675,1,1472.0,0.0,312.0,1486,0,0,0,0,444.0,2.22,40.0
0,0,1401,16726,1,1472.0,0.0,304.0,1530,0,0,0,0,448.0,2.464,80.0
0,0,1406,16776,1,1472.0,0.0,300.0,1492,0,0,0,0,450.0,2.25,40.0
0,0,1411,16826,1,1476.0,0.0,308.0,1368,0,0,0,0,446.0,2.23,-80.0
0,0,1416,16876,1,1476.0,0.0,308.0,1448,0,0,0,0,446.0,2.23,0.0
0,0,1421,16926,1,1476.0,0.0,312.0,1406,0,0,0,0,444.0,2.22,-40.0
0,0,1426,16976,1,1476.0,0.0,316.0,1404,0,0,0,0,442.0,2.21,-40.0
0,0,1431,17026,1,1476.0,0.0,316.0,1444,0,0,0,0,442.0,2.21,0.0
0,0,1436,17077,1,1476.0,0.0,304.0,1570,0,0,0,0,448.0,2.24,120.0
0,0,1441,17127,1,1472.0,0.0,304.0,1450,0,0,0,0,448.0,2.24,0.0
0,0,1446,17177,1,1472.0,0.0,304.0,1450,0,0,0,0,448.0,2.24,0.0
0,0,1451,17227,1,1404.0,0.0,308.0,1408,0,0,0,0,446.0,2.23,-40.0
0,0,1456,17278,1,1404.0,0.0,296.0,1563,0,0,0,0,452.0,2.26,109.09
0,0,1461,17328,1,1376.0,0.0,308.0,1328,0,0,0,0,446.0,2.23,-120.0
0,0,1466,17378,1,1376.0,0.0,308.0,1448,0,0,0,0,446.0,2.23,0.0
0,0,1471,17428,1,1372.0,0.0,304.0,1490,0,0,0,0,448.0,2.24,40.0
0,0,1476,17478,1,1372.0,0.0,304.0,1450,0,0,0,0,448.0,2.24,0.0
0,0,1481,17528,1,1372.0,0.0,316.0,1324,0,0,0,0,442.0,2.21,-120.0
0,0,1486,17579,1,1372.0,0.0,308.0,1528,0,0,0,0,446.0,2.453,80.0
0,0,1491,17629,1,1376.0,0.0,316.0,1364,0,0,0,0,442.0,2.21,-80.0
0,0,1496,17679,1,1376.0,0.0,316.0,1444,0,0,0,0,442.0,2.21,0.0
0,0,1501,17729,1,1376.0,0.0,312.0,1486,0,0,0,0,444.0,2.22,40.0
0,0,1506,17780,1,1376.0,0.0,308.0,1491,0,0,0,0,446.0,2.23,43.63
0,0,1511,17830,1,1412.0,0.0,300.0,1532,0,0,0,0,450.0,2.25,80.0
0,0,1516,17880,1,1412.0,0.0,316.0,1284,0,0,0,0,442.0,2.21,-160.0
0,0,1521,17930,1,1452.0,0.0,308.0,1528,0,0,0,0,446.0,2.23,80.0
0,0,1526,17980,1,1476.0,0.0,304.0,1490,0,0,0,0,448.0,2.24,40.0
0,0,1531,18030,1,1476.0,0.0,308.0,1408,0,0,0,0,446.0,2.23,-40.0
0,0,1536,18080,1,1476.0,0.0,300.0,1532,0,0,0,0,450.0,2.25,80.0
0,0,1541,18131,1,1476.0,0.0,316.0,1291,0,0,0,0,442.0,2.21,-152.72
0,0,1546,18181,1,1476.0,0.0,316.0,1444,0,0,0,0,442.0,2.21,0.0
0,0,1551,18231,1,1476.0,0.0,304.0,1570,0,0,0,0,448.0,2.24,120.0
0,0,1556,18282,1,1464.0,0.0,304.0,1450,0,0,0,0,448.0,2.24,0.0
0,0,1561,18332,1,1464.0,0.0,308.0,1408,0,0,0,0,446.0,2.23,-40.0
0,0,1566,18382,1,1460.0,0.0,304.0,1490,0,0,0,0,448.0,2.24,40.0
0,0,1571,18432,1,1460.0,0.0,304.0,1450,0,0,0,0,448.0,2.24,0.0
0,0,1576,18482,1,1460.0,0.0,308.0,1408,0,0,0,0,446.0,2.23,-40.0
0,0,1581,18532,1,1460.0,0.0,304.0,1490,0,0,0,0,448.0,2.24,40.0
0,0,1586,18582,1,1440.0,0.0,308.0,1408,0,0,0,0,446.0,2.23,-40.0
0,0,1591,18633,1,1440.0,0.0,304.0,1493,0,0,0,0,448.0,2.24,43.63
0,0,1596,18683,1,1440.0,0.0,304.0,1450,0,0,0,0,448.0,2.24,0.0
0,0,1601,18733,1,1440.0,0.0,308.0,1408,0,0,0,0,446.0,2.23,-40.0
0,0,1606,18784,1,1440.0,0.0,324.0,1294,0,0,0,0,438.0,2.19,-145.45
0,0,1611,18834,1,1440.0,0.0,304.0,1650,0,0,0,0,448.0,2.24,200.0
0,0,1616,18884,1,1440.0,0.0,304.0,1450,0,0,0,0,448.0,2.24,0.0
0,0,1621,18934,1,1440.0,0.0,300.0,1492,0,0,0,0,450.0,2.25,40.0
0,0,1626,18984,1,1444.0,0.0,308.0,1368,0,0,0,0,446.0,2.23,-80.0
0,0,1631,19034,1,1444.0,0.0,304.0,1490,0,0,0,0,448.0,2.24,40.0
0,0,1636,19084,1,1448.0,0.0,304.0,1450,0,0,0,0,448.0,2.24,0.0
0,0,1641,19135,1,1448.0,0.0,304.0,1450,0,0,0,0,448.0,2.24,0.0
0,0,1646,19185,1,1448.0,0.0,300.0,1492,0,0,0,0,450.0,2.25,40.0
0,0,1651,19235,1,1448.0,0.0,308.0,1368,0,0,0,0,446.0,2.23,-80.0
0,0,1656,19286,1,1448.0,0.0,304.0,1490,0,0,0,0,448.0,2.464,40.0
0,0,1661,19336,1,1448.0,0.0,300.0,1492,0,0,0,0,450.0,2.25,40.0
0,0,1666,19386,1,1444.0,0.0,312.0,1326,0,0,0,0,444.0,2.22,-120.0
0,0,1671,19436,1,1444.0,0.0,300.0,1572,0,0,0,0,450.0,2.25,120.0
0,0,1676,19486,1,892.0,0.0,296.0,1494,0,0,0,0,452.0,2.26,40.0
0,0,1681,19536,1,892.0,0.0,308.0,1328,0,0,0,0,446.0,2.23,-120.0
0,0,1686,19586,1,892.0,0.0,316.0,1364,0,0,0,0,442.0,2.21,-80.0
0,0,1691,19637,1,892.0,0.0,304.0,1570,0,0,0,0,448.0,2.24,120.0
0,0,1696,19687,1,892.0,0.0,308.0,1408,0,0,0,0,446.0,2.23,-40.0
0,0,1701,19737,1,892.0,0.0,308.0,1448,0,0,0,0,446.0,2.23,0.0
0,0,1706,19787,1,892.0,0.0,296.0,1574,0,0,0,0,452.0,2.26,120.0
0,0,1711,19838,1,892.0,0.0,300.0,1412,0,0,0,0,450.0,2.25,-40.0
0,0,1716,19888,1,892.0,0.0,300.0,1452,0,0,0,0,450.0,2.25,0.0
0,0,1721,19938,1,892.0,0.0,316.0,1284,0,0,0,0,442.0,2.21,-160.0
0,0,1726,19988,1,892.0,0.0,312.0,1486,0,0,0,0,444.0,2.22,40.0
0,0,1731,20038,1,860.0,0.0,312.0,1446,0,0,0,0,444.0,2.22,0.0
0,0,1736,20088,1,860.0,0.0,328.0,1278,0,0,0,0,436.0,2.18,-160.0
0,0,1741,20139,1,860.0,0.0,336.0,1361,0,0,0,0,432.0,2.376,-72.72
0,0,1746,20189,1,860.0,0.0,328.0,1518,0,0,0,0,436.0,2.18,80.0
0,0,1751,20239,1,860.0,0.0,348.0,1228,0,0,0,0,426.0,2.129,-200.0
0,0,1756,20289,1,860.0,0.0,340.0,1512,0,0,0,0,430.0,2.149,80.0
0,0,1761,20340,1,860.0,0.0,364.0,1194,0,0,0,0,418.0,2.09,-225.4
0,0,1766,20390,1,860.0,0.0,364.0,1420,0,0,0,0,418.0,2.09,0.0
0,0,1771,20440,1,892.0,0.0,376.0,1294,0,0,0,0,412.0,2.06,-120.0
0,0,1776,20490,1,892.0,0.0,396.0,1204,0,0,0,0,402.0,2.01,-200.0
0,0,1781,20540,1,892.0,0.0,424.0,1109,0,0,0,0,388.0,1.939,-280.0
0,0,1786,20590,1,892.0,0.0,432.0,1305,0,0,0,0,384.0,1.92,-80.0
0,0,1791,20640,1,892.0,0.0,472.0,1000,0,0,0,0,364.0,1.819,-400.0
0,0,1796,20691,1,892.0,0.0,500.0,1071,0,0,0,0,350.0,1.75,-280.0
0,0,1801,20741,1,892.0,0.0,532.0,1015,0,0,0,0,334.0,1.67,-320.0
0,0,1806,20791,1,892.0,0.0,532.0,1335,0,0,0,0,334.0,1.67,0.0
0,0,1811,20842,1,892.0,0.0,564.0,1006,0,0,0,0,318.0,1.5899,-312.7
0,0,1816,20892,1,892.0,0.0,604.0,1000,0,0,0,0,298.0,1.49,-400.0
0,0,1821,20942,1,648.0,0.0,632.0,1005,0,0,0,0,284.0,1.42,-280.0
0,0,1826,20992,1,648.0,0.0,644.0,1159,0,0,0,0,278.0,1.39,-120.0
0,0,1831,21042,1,636.0,0.0,664.0,1069,0,0,0,0,268.0,1.3399,-200.0
0,0,1836,21092,1,636.0,0.0,672.0,1185,0,0,0,0,264.0,1.3199,-80.0
0,0,1841,21142,1,624.0,0.0,724.0,1000,0,0,0,0,238.0,1.1899,-520.0
0,0,1846,21193,1,624.0,0.0,736.0,1113,0,0,0,0,232.0,1.16,-120.0
0,0,1851,21243,1,520.0,0.0,808.0,1000,0,0,0,0,196.0,0.98,-720.0
0,0,1856,21293,1,520.0,0.0,840.0,1000,0,0,0,0,180.0,0.9,-320.0
0,0,1861,21344,1,520.0,0.0,872.0,1000,0,0,0,0,164.0,0.82,-320.0
0,0,1866,21394,1,520.0,0.0,896.0,1000,0,0,0,0,152.0,0.76,-240.0
0,0,1871,21444,1,520.0,0.0,928.0,1000,0,0,0,0,136.0,0.68,-320.0
0,0,1876,21494,1,520.0,0.0,948.0,1000,0,0,0,0,126.0,0.63,-200.0
0,0,1881,21544,1,696.0,0.0,1000.0,1000,0,0,0,0,100.0,0.5,-520.0
0,0,1886,21594,1,696.0,0.0,1036.0,1000,0,0,0,0,82.0,0.41,-360.0
0,0,1891,21644,1,700.0,0.0,1068.0,1000,0,0,0,0,66.0,0.3299,-320.0
0,0,1896,21695,1,700.0,0.0,1052.0,1234,0,0,0,0,74.0,0.37,160.0
0,0,1901,21745,1,732.0,0.0,1052.0,1074,0,0,0,0,74.0,0.37,0.0
0,0,1906,21795,1,732.0,0.0,1088.0,1000,0,0,0,0,56.0,0.28,-360.0
0,0,1911,21846,1,884.0,0.0,1064.0,1301,0,0,0,0,68.0,0.374,232.7
0,0,1916,21896,1,884.0,0.0,1060.0,1110,0,0,0,0,70.0,0.35,40.0
0,0,1921,21946,1,900.0,0.0,1044.0,1238,0,0,0,0,78.0,0.3899,160.0
0,0,1926,21996,1,900.0,0.0,1036.0,1162,0,0,0,0,82.0,0.41,80.0
0,0,1931,22046,1,900.0,0.0,1036.0,1082,0,0,0,0,82.0,0.41,0.0
0,0,1936,22096,1,896.0,0.0,1032.0,1124,0,0,0,0,84.0,0.42,40.0
0,0,1941,22146,1,896.0,0.0,1008.0,1336,0,0,0,0,96.0,0.48,240.0
0,0,1946,22197,1,896.0,0.0,1020.0,1000,0,0,0,0,90.0,0.45,-112.72
0,0,1951,22247,1,896.0,0.0,1020.0,1090,0,0,0,0,90.0,0.45,0.0
0,0,1956,22297,1,896.0,0.0,1020.0,1090,0,0,0,0,90.0,0.45,0.0
0,0,1961,22347,1,896.0,0.0,996.0,1342,0,0,0,0,102.0,0.51,240.0
0,0,1966,22398,1,896.0,0.0,980.0,1259,0,0,0,0,110.0,0.55,149.09
0,0,1971,22448,1,896.0,0.0,980.0,1110,0,0,0,0,110.0,0.55,0.0
0,0,1976,22498,1,876.0,0.0,948.0,1446,0,0,0,0,126.0,0.63,320.0
0,0,1981,22548,1,876.0,0.0,948.0,1126,0,0,0,0,126.0,0.63,0.0
0,0,1986,22598,1,876.0,0.0,924.0,1378,0,0,0,0,138.0,0.69,240.0
0,0,1991,22648,1,876.0,0.0,924.0,1138,0,0,0,0,138.0,0.69,0.0
0,0,1996,22699,1,928.0,0.0,884.0,1547,0,0,0,0,158.0,0.869,389.0
0,0,2001,22749,1,928.0,0.0,876.0,1242,0,0,0,0,162.0,0.81,80.0
0,0,2006,22799,1,852.0,0.0,860.0,1330,0,0,0,0,170.0,0.85,160.0
0,0,2011,22849,1,852.0,0.0,832.0,1464,0,0,0,0,184.0,0.92,280.0
0,0,2016,22900,1,852.0,0.0,832.0,1184,0,0,0,0,184.0,0.92,0.0
0,0,2021,22950,1,852.0,0.0,800.0,1521,0,0,0,0,200.0,1.0,320.0
0,0,2026,23000,1,864.0,0.0,788.0,1327,0,0,0,0,206.0,1.03,120.0
0,0,2031,23050,1,864.0,0.0,752.0,1585,0,0,0,0,224.0,1.12,360.0
0,0,2036,23100,1,864.0,0.0,752.0,1225,0,0,0,0,224.0,1.12,0.0
0,0,2041,23150,1,864.0,0.0,736.0,1393,0,0,0,0,232.0,1.16,160.0
0,0,2046,23200,1,852.0,0.0,720.0,1401,0,0,0,0,240.0,1.1999,160.0
0,0,2051,23251,1,852.0,0.0,716.0,1275,0,0,0,0,242.0,1.2099,32.72
0,0,2056,23301,1,840.0,0.0,712.0,1285,0,0,0,0,244.0,1.22,40.0
0,0,2061,23351,1,840.0,0.0,-4.1,0,0,0,0,0,209466000.0,0.0,51200.0
0,0,2066,23402,1,804.0,0.0,720.0,1092,0,0,0,0,240.0,1.1999,-149.09
0,0,2071,23452,1,804.0,0.0,716.0,1283,0,0,0,0,242.0,1.2099,40.0
0,0,2076,23502,1,800.0,0.0,704.0,1369,0,0,0,0,248.0,1.24,120.0
0,0,2081,23552,1,800.0,0.0,724.0,1039,0,0,0,0,238.0,1.1899,-200.0
0,0,2086,23602,1,796.0,0.0,732.0,1155,0,0,0,0,234.0,1.17,-80.0
0,0,2091,23652,1,796.0,0.0,784.0,1000,0,0,0,0,208.0,1.04,-520.0
0,0,2096,23702,1,796.0,0.0,804.0,1000,0,0,0,0,198.0,0.9899,-200.0
0,0,2101,23753,1,796.0,0.0,848.0,1000,0,0,0,0,176.0,0.88,-418.1
0,0,2106,23803,1,800.0,0.0,876.0,1000,0,0,0,0,162.0,0.81,-280.0
0,0,2111,23853,1,800.0,0.0,920.0,1000,0,0,0,0,140.0,0.7,-440.0
0,0,2116,23904,1,796.0,0.0,924.0,1098,0,0,0,0,138.0,0.69,-40.0
0,0,2121,23954,1,796.0,0.0,952.0,1000,0,0,0,0,124.0,0.62,-280.0
0,0,2126,24004,1,796.0,0.0,996.0,1000,0,0,0,0,102.0,0.51,-440.0
0,0,2131,24054,1,796.0,0.0,1052.0,1000,0,0,0,0,74.0,0.37,-560.0
0,0,2136,24104,1,796.0,0.0,1084.0,1000,0,0,0,0,58.0,0.29,-320.0
0,0,2141,24154,1,796.0,0.0,1120.0,1000,0,0,0,0,40.0,0.1999,-360.0
0,0,2146,24204,1,796.0,0.0,1180.0,1000,0,0,0,0,10.0,0.04999,-600.0
0,0,2151,24255,1,784.0,0.0,1236.0,1000,0,0,0,0,-18.0,-0.09,-552.7
0,0,2156,24305,1,784.0,0.0,1256.0,1000,0,0,0,0,-28.0,-0.14,-200.0
0,0,2161,24355,1,780.0,0.0,1300.0,1000,0,0,0,0,-50.0,-0.25,-440.0
0,0,2166,24406,1,780.0,0.0,1340.0,1000,0,0,0,0,-70.0,-0.385,-381.8
0,0,2171,24456,1,772.0,0.0,1364.0,1000,0,0,0,0,-82.0,-0.41,-240.0
0,0,2176,24506,1,772.0,0.0,1392.0,1000,0,0,0,0,-96.0,-0.48,-280.0
0,0,2181,24556,1,760.0,0.0,1392.0,1000,0,0,0,0,-96.0,-0.48,0.0
0,0,2186,24606,1,760.0,0.0,1400.0,1000,0,0,0,0,-100.0,-0.5,-80.0
0,0,2191,24656,1,760.0,0.0,1392.0,1000,0,0,0,0,-96.0,-0.48,80.0
0,0,2196,24706,1,760.0,0.0,1376.0,1071,0,0,0,0,-88.0,-0.44,160.0
0,0,2201,24757,1,756.0,0.0,1376.0,1000,0,0,0,0,-88.0,-0.44,0.0
0,0,2206,24807,1,756.0,0.0,1376.0,1000,0,0,0,0,-88.0,-0.44,0.0
0,0,2211,24857,1,716.0,0.0,1356.0,1121,0,0,0,0,-78.0,-0.3899,200.0
0,0,2216,24907,1,716.0,0.0,1356.0,1000,0,0,0,0,-78.0,-0.3899,0.0
0,0,2221,24958,1,688.0,0.0,1348.0,1009,0,0,0,0,-74.0,-0.37,83.63
0,0,2226,25008,1,688.0,0.0,1332.0,1093,0,0,0,0,-66.0,-0.3299,160.0
0,0,2231,25058,1,688.0,0.0,1296.0,1311,0,0,0,0,-48.0,-0.24,360.0
0,0,2236,25108,1,688.0,0.0,1296.0,1000,0,0,0,0,-48.0,-0.24,0.0
0,0,2241,25158,1,688.0,0.0,1268.0,1245,0,0,0,0,-34.0,-0.17,280.0
0,0,2246,25208,1,688.0,0.0,1248.0,1175,0,0,0,0,-24.0,-0.12,200.0
0,0,2251,25259,1,696.0,0.0,1216.0,1304,0,0,0,0,-8.0,-0.044,312.7
0,0,2256,25309,1,696.0,0.0,1196.0,1202,0,0,0,0,2.0,0.01,200.0
0,0,2261,25359,1,708.0,0.0,1168.0,1296,0,0,0,0,16.0,0.08,280.0
0,0,2266,25409,1,708.0,0.0,1140.0,1310,0,0,0,0,30.0,0.14999,280.0
0,0,2271,25460,1,712.0,0.0,1132.0,1110,0,0,0,0,34.0,0.17,76.36
0,0,2276,25510,1,712.0,0.0,1100.0,1370,0,0,0,0,50.0,0.25,320.0
0,0,2281,25560,1,712.0,0.0,1100.0,1050,0,0,0,0,50.0,0.25,0.0
0,0,2286,25610,1,712.0,0.0,1060.0,1470,0,0,0,0,70.0,0.35,400.0
0,0,2291,25660,1,696.0,0.0,1048.0,1196,0,0,0,0,76.0,0.38,120.0
0,0,2296,25710,1,696.0,0.0,1016.0,1412,0,0,0,0,92.0,0.46,320.0
0,0,2301,25760,1,728.0,0.0,992.0,1344,0,0,0,0,104.0,0.52,240.0
0,0,2306,25811,1,728.0,0.0,968.0,1356,0,0,0,0,116.0,0.58,240.0
0,0,2311,25861,1,728.0,0.0,932.0,1494,0,0,0,0,134.0,0.6699,360.0
0,0,2316,25911,1,728.0,0.0,928.0,1176,0,0,0,0,136.0,0.68,40.0
0,0,2321,25962,1,880.0,0.0,924.0,1182,0,0,0,0,138.0,0.69,43.63
0,0,2326,26012,1,880.0,0.0,912.0,1264,0,0,0,0,144.0,0.7199,120.0
0,0,2331,26062,1,880.0,0.0,884.0,1438,0,0,0,0,158.0,0.7899,280.0
0,0,2336,26112,1,880.0,0.0,848.0,1536,0,0,0,0,176.0,0.88,360.0
0,0,2341,26162,1,896.0,0.0,832.0,1344,0,0,0,0,184.0,0.92,160.0
0,0,2346,26212,1,896.0,0.0,796.0,1563,0,0,0,0,202.0,1.01,360.0
0,0,2351,26262,1,896.0,0.0,800.0,1161,0,0,0,0,200.0,1.0,-40.0
0,0,2356,26313,1,896.0,0.0,768.0,1529,0,0,0,0,216.0,1.0799,312.7
0,0,2361,26363,1,896.0,0.0,760.0,1301,0,0,0,0,220.0,1.1,80.0
0,0,2366,26413,1,896.0,0.0,720.0,1641,0,0,0,0,240.0,1.1999,400.0
0,0,2371,26464,1,912.0,0.0,696.0,1489,0,0,0,0,252.0,1.26,236.3
0,0,2376,26514,1,912.0,0.0,688.0,1337,0,0,0,0,256.0,1.28,80.0
0,0,2381,26564,1,912.0,0.0,660.0,1551,0,0,0,0,270.0,1.35,280.0
0,0,2386,26614,0,816.0,0.0,648.0,1402,0,0,0,0,276.0,6.84,120.0
0,0,2391,26664,0,816.0,0.0,624.0,1541,0,0,0,0,288.0,13.87,240.0
0,0,2396,26714,0,800.0,0.0,612.0,1435,0,0,0,0,294.0,21.15,120.0
0,0,2401,26764,0,800.0,0.0,588.0,1574,0,0,0,0,306.0,28.77,240.0
0,0,2406,26815,0,796.0,0.0,544.0,1800,0,0,0,0,328.0,36.95,440.0
0,0,2411,26865,0,796.0,0.0,504.0,1793,0,0,0,0,348.0,45.38,400.0
0,0,2416,26915,0,736.0,0.0,484.0,1612,0,0,0,0,358.0,54.2,200.0
0,0,2421,26966,0,736.0,0.0,432.0,1800,0,0,0,0,384.0,63.81,512.7
0,0,2426,27016,0,736.0,0.0,372.0,1800,0,0,0,0,414.0,73.92,600.0
0,0,2431,27066,0,736.0,0.0,324.0,1800,0,0,0,0,438.0,84.72,480.0
0,0,2436,27116,0,736.0,0.0,280.0,1800,0,0,0,0,460.0,95.99,440.0
0,0,2441,27166,0,736.0,0.0,248.0,1800,0,0,0,0,476.0,107.69,320.0
0,0,2446,27216,0,736.0,0.0,240.0,1679,0,0,0,0,480.0,119.65,80.0
0,0,2451,27266,0,736.0,0.0,228.0,1737,0,0,0,0,486.0,131.72,120.0
0,0,2456,27317,0,740.0,0.0,232.0,1588,0,0,0,0,484.0,144.08,-40.0
0,0,2461,27367,0,740.0,0.0,244.0,1514,0,0,0,0,478.0,156.14,-120.0
0,0,2466,27417,0,740.0,0.0,252.0,1562,0,0,0,0,474.0,168.0,-80.0
0,0,2471,27467,0,740.0,0.0,260.0,1569,0,0,0,0,470.0,179.9,-80.0
0,0,2476,27518,0,740.0,0.0,284.0,1416,0,0,0,0,458.0,191.7,-232.7
0,0,2481,27568,0,740.0,0.0,284.0,1661,0,0,0,0,458.0,203.1,0.0
0,0,2486,27618,0,644.0,0.0,300.0,1504,0,0,0,0,450.0,214.4,-160.0
0,0,2491,27668,0,644.0,0.0,304.0,1633,0,0,0,0,448.0,225.6,-40.0
0,0,2496,27718,0,624.0,0.0,320.0,1516,0,0,0,0,440.0,236.7,-160.0
0,0,2501,27768,0,624.0,0.0,308.0,1800,0,0,0,0,446.0,247.8,120.0
0,0,2506,27819,0,624.0,0.0,304.0,1743,0,0,0,0,448.0,259.2,36.36
0,0,2511,27869,0,624.0,0.0,308.0,1676,0,0,0,0,446.0,270.4,-40.0
0,0,2516,27919,0,516.0,0.0,296.0,1800,0,0,0,0,452.0,281.7,120.0
0,0,2521,27969,0,516.0,0.0,300.0,1702,0,0,0,0,450.0,292.9,-40.0
0,0,2526,28020,0,516.0,0.0,316.0,1586,0,0,0,0,442.0,304.3,-160.0
0,0,2531,28070,0,516.0,0.0,308.0,1800,0,0,0,0,446.0,315.4,80.0
0,0,2536,28120,0,504.0,0.0,332.0,1520,0,0,0,0,434.0,326.3,-240.0
0,0,2541,28170,0,504.0,0.0,356.0,1519,0,0,0,0,422.0,337.0,-240.0
0,0,2546,28220,0,516.0,0.0,384.0,1475,0,0,0,0,408.0,347.3,-280.0
0,0,2551,28270,0,516.0,0.0,392.0,1681,0,0,0,0,404.0,357.5,-80.0
0,0,2556,28320,0,532.0,0.0,404.0,1645,0,0,0,0,398.0,367.5,-120.0
0,0,2561,28371,0,532.0,0.0,428.0,1534,0,0,0,0,386.0,377.4,-229.0
0,0,2566,28421,0,532.0,0.0,448.0,1562,0,0,0,0,376.0,386.9,-200.0
0,0,2571,28471,0,532.0,0.0,472.0,1520,0,0,0,0,364.0,396.2,-240.0
0,0,2576,28522,0,532.0,0.0,468.0,1800,0,0,0,0,366.0,405.5,43.63
0,0,2581,28572,0,724.0,0.0,472.0,1738,0,0,0,0,364.0,414.7,-40.0
0,0,2586,28622,0,724.0,0.0,480.0,1703,0,0,0,0,360.0,423.7,-80.0
0,0,2591,28672,0,752.0,0.0,488.0,1708,0,0,0,0,356.0,432.6,-80.0
0,0,2596,28722,0,752.0,0.0,504.0,1629,0,0,0,0,348.0,441.4,-160.0
0,0,2601,28772,0,748.0,0.0,516.0,1672,0,0,0,0,342.0,450.0,-120.0
0,0,2606,28822,0,748.0,0.0,528.0,1674,0,0,0,0,336.0,458.5,-120.0
0,0,2611,28873,0,752.0,0.0,560.0,1470,0,0,0,0,320.0,466.8,-316.3
0,0,2616,28923,0,752.0,0.0,580.0,1584,0,0,0,0,310.0,474.7,-200.0
0,0,2621,28973,0,760.0,0.0,612.0,1456,0,0,0,0,294.0,482.2,-320.0
0,0,2626,29024,0,760.0,0.0,632.0,1577,0,0,0,0,284.0,489.5,-196.3
0,0,2631,29074,0,760.0,0.0,644.0,1654,0,0,0,0,278.0,496.5,-120.0
0,0,2636,29124,0,760.0,0.0,668.0,1529,0,0,0,0,266.0,503.3,-240.0
0,0,2641,29174,0,760.0,0.0,688.0,1565,0,0,0,0,256.0,509.7,-200.0
0,0,2646,29224,0,760.0,0.0,700.0,1646,0,0,0,0,250.0,516.0,-120.0
0,0,2651,29274,0,764.0,0.0,708.0,1688,0,0,0,0,246.0,522.1,-80.0
0,0,2656,29324,0,764.0,0.0,704.0,1800,0,0,0,0,248.0,528.3,40.0
0,0,2661,29375,0,764.0,0.0,704.0,1782,0,0,0,0,248.0,534.7,0.0
0,0,2666,29425,0,764.0,0.0,688.0,1800,0,0,0,0,256.0,541.0,160.0
0,0,2671,29475,0,772.0,0.0,692.0,1761,0,0,0,0,254.0,547.4,-40.0
0,0,2676,29526,0,772.0,0.0,716.0,1562,0,0,0,0,242.0,553.6,-232.7
0,0,2681,29576,0,828.0,0.0,732.0,1633,0,0,0,0,234.0,559.5,-160.0
0,0,2686,29626,0,828.0,0.0,764.0,1463,0,0,0,0,218.0,565.1,-320.0
0,0,2691,29676,0,828.0,0.0,804.0,1368,0,0,0,0,198.0,570.4,-400.0
0,0,2696,29726,0,828.0,0.0,840.0,1395,0,0,0,0,180.0,575.1,-360.0
0,0,2701,29776,0,828.0,0.0,888.0,1255,0,0,0,0,156.0,579.3,-480.0
0,0,2706,29826,0,828.0,0.0,912.0,1487,0,0,0,0,144.0,583.1,-240.0
0,0,2711,29877,0,832.0,0.0,916.0,1688,0,0,0,0,142.0,586.7,-40.0
0,0,2716,29927,0,832.0,0.0,912.0,1774,0,0,0,0,144.0,590.3,40.0
0,0,2721,29977,0,832.0,0.0,904.0,1800,0,0,0,0,148.0,594.0,80.0
0,0,2726,30027,0,832.0,0.0,912.0,1661,0,0,0,0,144.0,597.6,-80.0
0,0,2731,30078,0,868.0,0.0,920.0,1664,0,0,0,0,140.0,601.2,-76.36
0,0,2736,30128,0,868.0,0.0,908.0,1800,0,0,0,0,146.0,604.8,120.0
0,0,2741,30178,0,868.0,0.0,908.0,1754,0,0,0,0,146.0,608.4,0.0
0,0,2746,30228,0,868.0,0.0,916.0,1674,0,0,0,0,142.0,612.0,-80.0
0,0,2751,30278,0,868.0,0.0,916.0,1757,0,0,0,0,142.0,615.6,0.0
0,0,2756,30328,0,868.0,0.0,936.0,1551,0,0,0,0,132.0,619.0,-200.0
0,0,2761,30379,0,832.0,0.0,936.0,1754,0,0,0,0,132.0,622.3,0.0
0,0,2766,30429,0,832.0,0.0,948.0,1631,0,0,0,0,126.0,625.6,-120.0
0,0,2771,30479,0,832.0,0.0,960.0,1628,0,0,0,0,120.0,628.6,-120.0
0,0,2776,30529,0,832.0,0.0,988.0,1457,0,0,0,0,106.0,631.4,-280.0
0,0,2781,30580,0,832.0,0.0,1036.0,1250,0,0,0,0,82.0,633.8,-465.4
0,0,2786,30630,0,888.0,0.0,1076.0,1297,0,0,0,0,62.0,635.6,-400.0
0,0,2791,30680,0,888.0,0.0,1100.0,1446,0,0,0,0,50.0,636.9,-240.0
0,0,2796,30730,0,896.0,0.0,1112.0,1562,0,0,0,0,44.0,638.0,-120.0
0,0,2801,30780,0,896.0,0.0,1112.0,1683,0,0,0,0,44.0,639.1,0.0
0,0,2806,30830,0,912.0,0.0,1108.0,1726,0,0,0,0,46.0,640.2,40.0
0,0,2811,30880,0,912.0,0.0,1100.0,1771,0,0,0,0,50.0,641.4,80.0
0,0,2816,30931,0,928.0,0.0,1092.0,1769,0,0,0,0,54.0,642.8,72.72
0,0,2821,30981,0,928.0,0.0,1080.0,1800,0,0,0,0,60.0,644.2,120.0
0,0,2826,31031,0,928.0,0.0,1048.0,1800,0,0,0,0,76.0,646.0,320.0
0,0,2831,31082,0,928.0,0.0,1028.0,1800,0,0,0,0,86.0,648.1,200.0
0,0,2836,31132,0,948.0,0.0,1024.0,1778,0,0,0,0,88.0,650.2,40.0
0,0,2841,31182,0,948.0,0.0,1036.0,1614,0,0,0,0,82.0,652.4,-120.0
0,0,2846,31232,0,948.0,0.0,1040.0,1694,0,0,0,0,80.0,654.4,-40.0
0,0,2851,31282,0,948.0,0.0,1068.0,1442,0,0,0,0,66.0,656.3,-280.0
0,0,2856,31332,0,948.0,0.0,1096.0,1429,0,0,0,0,52.0,657.8,-280.0
0,0,2861,31382,0,948.0,0.0,1116.0,1500,0,0,0,0,42.0,658.9,-200.0
0,0,2866,31433,0,912.0,0.0,1144.0,1418,0,0,0,0,28.0,659.7,-269.0
0,0,2871,31483,0,912.0,0.0,1160.0,1520,0,0,0,0,20.0,660.3,-160.0
0,0,2876,31533,0,908.0,0.0,1160.0,1680,0,0,0,0,20.0,660.8,0.0
0,0,2881,31584,0,908.0,0.0,1168.0,1597,0,0,0,0,16.0,661.2,-80.0
0,0,2886,31634,0,900.0,0.0,1164.0,1719,0,0,0,0,18.0,661.6,40.0
0,0,2891,31684,0,900.0,0.0,1160.0,1722,0,0,0,0,20.0,662.2,40.0
0,0,2896,31734,0,864.0,0.0,1140.0,1800,0,0,0,0,30.0,662.8,200.0
0,0,2901,31784,0,864.0,0.0,1132.0,1777,0,0,0,0,34.0,663.6,80.0
0,0,2906,31834,0,860.0,0.0,1136.0,1656,0,0,0,0,32.0,664.4,-40.0
0,0,2911,31884,0,860.0,0.0,1124.0,1800,0,0,0,0,38.0,665.3,120.0
0,0,2916,31935,0,848.0,0.0,1124.0,1704,0,0,0,0,38.0,666.3,0.0
0,0,2921,31985,0,848.0,0.0,1144.0,1495,0,0,0,0,28.0,667.1,-200.0
0,0,2926,32035,0,832.0,0.0,1164.0,1485,0,0,0,0,18.0,667.7,-200.0
0,0,2931,32086,0,832.0,0.0,1180.0,1518,0,0,0,0,10.0,668.0,-160.0
0,0,2936,32136,0,820.0,0.0,1188.0,1594,0,0,0,0,6.0,668.2,-80.0
0,0,2941,32186,0,820.0,0.0,1208.0,1464,0,0,0,0,-4.0,668.1,-200.0
0,0,2946,32236,0,820.0,0.0,1220.0,1537,0,0,0,0,-10.0,667.9,-120.0
0,0,2951,32286,0,820.0,0.0,1224.0,1615,0,0,0,0,-12.0,667.6,-40.0
0,0,2956,32336,0,820.0,0.0,1220.0,1697,0,0,0,0,-10.0,667.3,40.0
0,0,2961,32386,0,820.0,0.0,1204.0,1800,0,0,0,0,-2.0,667.2,160.0
0,0,2966,32437,0,888.0,0.0,1184.0,1800,0,0,0,0,8.0,667.2,196.3
0,0,2971,32487,0,888.0,0.0,1196.0,1549,0,0,0,0,2.0,667.3,-120.0
0,0,2976,32537,0,888.0,0.0,1216.0,1459,0,0,0,0,-8.0,667.1,-200.0
0,0,2981,32587,0,888.0,0.0,1208.0,1743,0,0,0,0,-4.0,667.0,80.0
0,0,2986,32638,0,1168.0,0.0,1220.0,1540,0,0,0,0,-10.0,666.8,-116.36
0,0,2991,32688,0,1168.0,0.0,1216.0,1698,0,0,0,0,-8.0,666.7,40.0
0,0,2996,32738,0,1168.0,0.0,1224.0,1574,0,0,0,0,-12.0,666.4,-80.0
0,0,3001,32788,0,1168.0,0.0,1224.0,1654,0,0,0,0,-12.0,666.1,0.0
0,0,3006,32838,0,1168.0,0.0,1224.0,1653,0,0,0,0,-12.0,665.8,0.0
0,0,3011,32888,0,1124.0,0.0,1232.0,1569,0,0,0,0,-16.0,665.4,-80.0
0,0,3016,32939,0,1124.0,0.0,1236.0,1607,0,0,0,0,-18.0,665.0,-40.0
0,0,3021,32989,0,1068.0,0.0,1244.0,1562,0,0,0,0,-22.0,664.5,-80.0
0,0,3026,33039,0,1068.0,0.0,1236.0,1725,0,0,0,0,-18.0,663.9,80.0
0,0,3031,33089,0,904.0,0.0,1228.0,1729,0,0,0,0,-14.0,663.5,80.0
0,0,3036,33140,0,904.0,0.0,1240.0,1523,0,0,0,0,-20.0,663.1,-120.0
0,0,3041,33190,1,900.0,0.0,1248.0,1000,0,0,0,0,-24.0,-0.12,-80.0
0,0,3046,33240,1,900.0,0.0,1236.0,1101,0,0,0,0,-18.0,-0.09,120.0
0,0,3051,33290,1,888.0,0.0,1240.0,1000,0,0,0,0,-20.0,-0.09999,-40.0
0,0,3056,33340,1,888.0,0.0,1228.0,1105,0,0,0,0,-14.0,-0.07,120.0
0,0,3061,33390,1,888.0,0.0,1236.0,1000,0,0,0,0,-18.0,-0.09,-80.0
0,0,3066,33440,1,888.0,0.0,1240.0,1000,0,0,0,0,-20.0,-0.09999,-40.0
0,0,3071,33491,1,888.0,0.0,1236.0,1018,0,0,0,0,-18.0,-0.09,36.36
0,0,3076,33541,1,888.0,0.0,1212.0,1233,0,0,0,0,-6.0,-0.03,240.0
0,0,3081,33591,1,888.0,0.0,1212.0,1000,0,0,0,0,-6.0,-0.03,0.0
0,0,3086,33642,1,888.0,0.0,1224.0,1000,0,0,0,0,-12.0,-0.06,-120.0
0,0,3091,33692,1,888.0,0.0,1216.0,1071,0,0,0,0,-8.0,-0.04,80.0
0,0,3096,33742,1,888.0,0.0,1240.0,1000,0,0,0,0,-20.0,-0.09999,-240.0
0,0,3101,33792,1,900.0,0.0,1256.0,1000,0,0,0,0,-28.0,-0.14,-160.0
0,0,3106,33842,1,900.0,0.0,1260.0,1000,0,0,0,0,-30.0,-0.14999,-40.0
0,0,3111,33892,1,888.0,0.0,1312.0,1000,0,0,0,0,-56.0,-0.28,-520.0
0,0,3116,33942,1,888.0,0.0,1356.0,1000,0,0,0,0,-78.0,-0.3899,-440.0
0,0,3121,33993,1,844.0,0.0,1368.0,1000,0,0,0,0,-84.0,-0.42,-120.0
0,0,3126,34043,1,844.0,0.0,1348.0,1125,0,0,0,0,-74.0,-0.37,200.0
0,0,3131,34093,1,776.0,0.0,1272.0,1723,0,0,0,0,-36.0,-0.1799,760.0
0,0,3136,34144,1,776.0,0.0,1204.0,1674,0,0,0,0,-2.0,-0.01,676.3
0,0,3141,34194,1,776.0,0.0,1156.0,1502,0,0,0,0,22.0,0.11,480.0
0,0,3146,34244,1,776.0,0.0,1128.0,1316,0,0,0,0,36.0,0.1799,280.0
0,0,3151,34294,1,508.0,0.0,1072.0,1624,0,0,0,0,64.0,0.32,560.0
0,0,3156,34344,1,508.0,0.0,1056.0,1232,0,0,0,0,72.0,0.3599,160.0
0,0,3161,34394,1,500.0,0.0,1024.0,1408,0,0,0,0,88.0,0.44,320.0
0,0,3166,34444,1,500.0,0.0,1004.0,1298,0,0,0,0,98.0,0.49,200.0
0,0,3171,34495,1,480.0,0.0,992.0,1224,0,0,0,0,104.0,0.52,120.0
0,0,3176,34545,1,480.0,0.0,940.0,1650,0,0,0,0,130.0,0.65,520.0
0,0,3181,34595,1,480.0,0.0,912.0,1424,0,0,0,0,144.0,0.7199,280.0
0,0,3186,34646,1,480.0,0.0,868.0,1599,0,0,0,0,166.0,0.913,432.7
0,0,3191,34696,1,436.0,0.0,856.0,1292,0,0,0,0,172.0,0.86,120.0
0,0,3196,34746,1,436.0,0.0,800.0,1761,0,0,0,0,200.0,1.0,560.0
0,0,3201,34796,1,348.0,0.0,760.0,1621,0,0,0,0,220.0,1.1,400.0
0,0,3206,34846,1,348.0,0.0,744.0,1389,0,0,0,0,228.0,1.14,160.0
0,0,3211,34896,1,344.0,0.0,688.0,1800,0,0,0,0,256.0,1.28,560.0
0,0,3216,34946,1,344.0,0.0,632.0,1800,0,0,0,0,284.0,1.42,560.0
0,0,3221,34997,1,344.0,0.0,604.0,1568,0,0,0,0,298.0,1.49,269.0
0,0,3226,35047,1,344.0,0.0,548.0,1800,0,0,0,0,326.0,1.63,560.0
0,0,3231,35097,1,344.0,0.0,508.0,1747,0,0,0,0,346.0,1.73,400.0
0,0,3236,35147,1,816.0,0.0,476.0,1683,0,0,0,0,362.0,1.81,320.0
0,0,3241,35198,1,816.0,0.0,432.0,1800,0,0,0,0,384.0,1.92,421.8
0,0,3246,35248,1,872.0,0.0,396.0,1764,0,0,0,0,402.0,2.01,360.0
0,0,3251,35298,1,872.0,0.0,348.0,1800,0,0,0,0,426.0,2.129,480.0
0,0,3256,35348,1,888.0,0.0,308.0,1800,0,0,0,0,446.0,2.23,400.0
0,0,3261,35398,1,888.0,0.0,288.0,1658,0,0,0,0,456.0,2.28,200.0
0,0,3266,35448,1,892.0,0.0,240.0,1800,0,0,0,0,480.0,2.399,480.0
0,0,3271,35499,1,892.0,0.0,216.0,1727,0,0,0,0,492.0,2.706,232.7
0,0,3276,35549,1,892.0,0.0,188.0,1788,0,0,0,0,506.0,2.53,280.0
0,0,3281,35599,1,892.0,0.0,172.0,1676,0,0,0,0,514.0,2.57,160.0
0,0,3286,35649,1,892.0,0.0,128.0,1800,0,0,0,0,536.0,2.679,440.0
0,0,3291,35700,1,892.0,0.0,92.0,1800,0,0,0,0,554.0,2.77,360.0
0,0,3296,35750,1,888.0,0.0,84.0,1640,0,0,0,0,558.0,2.79,80.0
0,0,3301,35800,1,888.0,0.0,68.0,1728,0,0,0,0,566.0,2.83,160.0
0,0,3306,35850,1,856.0,0.0,36.0,1800,0,0,0,0,582.0,2.909,320.0
0,0,3311,35900,1,856.0,0.0,36.0,1584,0,0,0,0,582.0,2.909,0.0
0,0,3316,35950,1,828.0,0.0,36.0,1584,0,0,0,0,582.0,2.909,0.0
0,0,3321,36000,1,828.0,0.0,36.0,1584,0,0,0,0,582.0,2.909,0.0
0,0,3326,36051,1,824.0,0.0,36.0,1584,0,0,0,0,582.0,2.909,0.0
0,0,3331,36101,1,824.0,0.0,36.0,1584,0,0,0,0,582.0,2.909,0.0
0,0,3336,36151,1,788.0,0.0,36.0,1584,0,0,0,0,582.0,2.909,0.0
0,0,3341,36202,1,788.0,0.0,36.0,1584,0,0,0,0,582.0,2.909,0.0
0,0,3346,36252,1,772.0,0.0,36.0,1584,0,0,0,0,582.0,2.909,0.0
0,0,3351,36302,1,772.0,0.0,36.0,1584,0,0,0,0,582.0,2.909,0.0
0,0,3356,36352,1,684.0,0.0,36.0,1584,0,0,0,0,582.0,2.909,0.0
0,0,3361,36402,1,684.0,0.0,36.0,1584,0,0,0,0,582.0,2.909,0.0
0,0,3366,36452,1,540.0,0.0,36.0,1584,0,0,0,0,582.0,2.909,0.0
0,0,3371,36502,1,540.0,0.0,36.0,1584,0,0,0,0,582.0,2.909,0.0
0,0,3376,36553,1,536.0,0.0,36.0,1584,0,0,0,0,582.0,2.909,0.0
0,0,3381,36603,1,536.0,0.0,36.0,1584,0,0,0,0,582.0,2.909,0.0
0,0,3386,36653,1,528.0,0.0,36.0,1584,0,0,0,0,582.0,2.909,0.0
0,0,3391,36704,1,528.0,0.0,36.0,1584,0,0,0,0,582.0,2.909,0.0
0,0,3396,36754,1,444.0,0.0,36.0,1584,0,0,0,0,582.0,2.909,0.0
0,0,3401,36804,1,444.0,0.0,36.0,1584,0,0,0,0,582.0,2.909,0.0
0,0,3406,36854,1,440.0,0.0,36.0,1584,0,0,0,0,582.0,2.909,0.0
0,0,3411,36904,1,440.0,0.0,36.0,1584,0,0,0,0,582.0,2.909,0.0
0,0,3416,36954,1,440.0,0.0,36.0,1584,0,0,0,0,582.0,2.909,0.0
0,0,3421,37004,1,440.0,0.0,36.0,1584,0,0,0,0,582.0,2.909,0.0
0,0,3426,37055,1,440.0,0.0,36.0,1584,0,0,0,0,582.0,2.909,0.0
0,0,3431,37105,1,440.0,0.0,36.0,1584,0,0,0,0,582.0,2.909,0.0
0,0,3436,37155,1,440.0,0.0,36.0,1584,0,0,0,0,582.0,2.909,0.0
0,0,3441,37206,1,440.0,0.0,36.0,1585,0,0,0,0,582.0,3.201,0.0
0,0,3446,37256,1,440.0,0.0,36.0,1584,0,0,0,0,582.0,2.909,0.0
0,0,3451,37306,1,440.0,0.0,36.0,1584,0,0,0,0,582.0,2.909,0.0
0,0,3456,37356,1,440.0,0.0,36.0,1584,0,0,0,0,582.0,2.909,0.0
0,0,3461,37406,1,436.0,0.0,36.0,1584,0,0,0,0,582.0,2.909,0.0
0,0,3466,37456,1,436.0,0.0,36.0,1584,0,0,0,0,582.0,2.909,0.0
0,0,3471,37506,1,440.0,0.0,36.0,1584,0,0,0,0,582.0,2.909,0.0
0,0,3476,37557,1,440.0,0.0,36.0,1584,0,0,0,0,582.0,2.909,0.0
0,0,3481,37607,1,440.0,0.0,36.0,1584,0,0,0,0,582.0,2.909,0.0
0,0,3486,37657,1,440.0,0.0,36.0,1584,0,0,0,0,582.0,2.909,0.0
0,0,3491,37707,1,440.0,0.0,36.0,1584,0,0,0,0,582.0,2.909,0.0
0,0,3496,37758,1,440.0,0.0,36.0,1584,0,0,0,0,582.0,2.909,0.0
0,0,3501,37808,1,440.0,0.0,36.0,1584,0,0,0,0,582.0,2.909,0.0
0,0,3506,37858,1,440.0,0.0,36.0,1584,0,0,0,0,582.0,2.909,0.0
0,0,3511,37908,1,440.0,0.0,36.0,1584,0,0,0,0,582.0,2.909,0.0
0,0,3516,37958,1,440.0,0.0,36.0,1584,0,0,0,0,582.0,2.909,0.0
0,0,3521,38008,1,440.0,0.0,36.0,1584,0,0,0,0,582.0,2.909,0.0
0,0,3526,38059,1,440.0,0.0,36.0,1585,0,0,0,0,582.0,3.201,0.0
0,0,3531,38109,1,440.0,0.0,36.0,1584,0,0,0,0,582.0,2.909,0.0
0,0,3536,38159,1,440.0,0.0,36.0,1584,0,0,0,0,582.0,2.909,0.0
0,0,3541,38209,1,440.0,0.0,36.0,1584,0,0,0,0,582.0,2.909,0.0
0,0,3546,38260,1,440.0,0.0,36.0,1584,0,0,0,0,582.0,2.909,0.0
0,0,3551,38310,1,440.0,0.0,36.0,1584,0,0,0,0,582.0,2.909,0.0
0,0,3556,38360,1,440.0,0.0,36.0,1584,0,0,0,0,582.0,2.909,0.0
0,0,3561,38410,1,440.0,0.0,36.0,1584,0,0,0,0,582.0,2.909,0.0
0,0,3566,38460,1,440.0,0.0,36.0,1584,0,0,0,0,582.0,2.909,0.0
0,0,3571,38510,1,440.0,0.0,36.0,1584,0,0,0,0,582.0,2.909,0.0
0,0,3576,38560,1,440.0,0.0,36.0,1584,0,0,0,0,582.0,2.909,0.0
0,0,3581,38611,1,440.0,0.0,36.0,1584,0,0,0,0,582.0,2.909,0.0
0,0,3586,38661,1,440.0,0.0,36.0,1584,0,0,0,0,582.0,2.909,0.0
0,0,3591,38711,1,440.0,0.0,36.0,1584,0,0,0,0,582.0,2.909,0.0
0,0,3596,38762,1,440.0,0.0,36.0,1584,0,0,0,0,582.0,2.909,0.0
0,0,3601,38812,1,440.0,0.0,36.0,1584,0,0,0,0,582.0,2.909,0.0
0,0,3606,38862,1,440.0,0.0,36.0,1584,0,0,0,0,582.0,2.909,0.0
0,0,3611,38912,1,436.0,0.0,36.0,1584,0,0,0,0,582.0,2.909,0.0
0,0,3616,38962,1,436.0,0.0,36.0,1584,0,0,0,0,582.0,2.909,0.0
0,0,3621,39012,1,436.0,0.0,36.0,1584,0,0,0,0,582.0,2.909,0.0
0,0,3626,39062,1,436.0,0.0,36.0,1584,0,0,0,0,582.0,2.909,0.0
0,0,3631,39113,1,436.0,0.0,36.0,1584,0,0,0,0,582.0,2.909,0.0
0,0,3636,39163,1,436.0,0.0,36.0,1584,0,0,0,0,582.0,2.909,0.0
0,0,3641,39213,1,436.0,0.0,36.0,1584,0,0,0,0,582.0,2.909,0.0
0,0,3646,39264,1,436.0,0.0,36.0,1584,0,0,0,0,582.0,2.909,0.0
0,0,3651,39314,1,436.0,0.0,36.0,1584,0,0,0,0,582.0,2.909,0.0
0,0,3656,39364,1,436.0,0.0,36.0,1584,0,0,0,0,582.0,2.909,0.0
0,0,3661,39414,1,436.0,0.0,36.0,1584,0,0,0,0,582.0,2.909,0.0
0,0,3666,39464,1,436.0,0.0,36.0,1584,0,0,0,0,582.0,2.909,0.0
0,0,3671,39514,1,436.0,0.0,36.0,1584,0,0,0,0,582.0,2.909,0.0
0,0,3676,39564,1,440.0,0.0,36.0,1584,0,0,0,0,582.0,2.909,0.0
0,0,3681,39615,1,440.0,0.0,36.0,1584,0,0,0,0,582.0,2.909,0.0
0,0,3686,39665,1,436.0,0.0,36.0,1584,0,0,0,0,582.0,2.909,0.0
0,0,3691,39715,1,436.0,0.0,36.0,1584,0,0,0,0,582.0,2.909,0.0
0,0,3696,39766,1,436.0,0.0,36.0,1585,0,0,0,0,582.0,3.201,0.0
0,0,3701,39816,1,436.0,0.0,36.0,1584,0,0,0,0,582.0,2.909,0.0
0,0,3706,39866,1,436.0,0.0,36.0,1584,0,0,0,0,582.0,2.909,0.0
0,0,3711,39916,1,436.0,0.0,36.0,1584,0,0,0,0,582.0,2.909,0.0
0,0,3716,39966,1,436.0,0.0,36.0,1584,0,0,0,0,582.0,2.909,0.0
0,0,3721,40016,1,436.0,0.0,36.0,1584,0,0,0,0,582.0,2.909,0.0
0,0,3726,40066,1,436.0,0.0,36.0,1584,0,0,0,0,582.0,2.909,0.0
0,0,3731,40117,1,436.0,0.0,36.0,1584,0,0,0,0,582.0,2.909,0.0
0,0,3736,40167,1,436.0,0.0,36.0,1584,0,0,0,0,582.0,2.909,0.0
0,0,3741,40217,1,436.0,0.0,36.0,1584,0,0,0,0,582.0,2.909,0.0
0,0,3746,40267,1,436.0,0.0,36.0,1584,0,0,0,0,582.0,2.909,0.0
0,0,3751,40318,1,436.0,0.0,36.0,1584,0,0,0,0,582.0,2.909,0.0
0,0,3756,40368,1,440.0,0.0,36.0,1584,0,0,0,0,582.0,2.909,0.0
0,0,3761,40418,1,440.0,0.0,36.0,1584,0,0,0,0,582.0,2.909,0.0
0,0,3766,40468,1,440.0,0.0,36.0,1584,0,0,0,0,582.0,2.909,0.0
0,0,3771,40518,1,440.0,0.0,36.0,1584,0,0,0,0,582.0,2.909,0.0
0,0,3776,40568,1,440.0,0.0,36.0,1584,0,0,0,0,582.0,2.909,0.0
0,0,3781,40619,1,440.0,0.0,36.0,1585,0,0,0,0,582.0,3.201,0.0
0,0,3786,40669,1,440.0,0.0,36.0,1584,0,0,0,0,582.0,2.909,0.0
0,0,3791,40719,1,440.0,0.0,36.0,1584,0,0,0,0,582.0,2.909,0.0
0,0,3796,40769,1,440.0,0.0,36.0,1584,0,0,0,0,582.0,2.909,0.0
0,0,3801,40820,1,440.0,0.0,36.0,1584,0,0,0,0,582.0,2.909,0.0
0,0,3806,40870,1,440.0,0.0,36.0,1584,0,0,0,0,582.0,2.909,0.0
0,0,3811,40920,1,440.0,0.0,36.0,1584,0,0,0,0,582.0,2.909,0.0
0,0,3816,40970,1,440.0,0.0,36.0,1584,0,0,0,0,582.0,2.909,0.0
0,0,3821,41020,1,440.0,0.0,36.0,1584,0,0,0,0,582.0,2.909,0.0
0,0,3826,41070,1,440.0,0.0,36.0,1584,0,0,0,0,582.0,2.909,0.0
0,0,3831,41120,1,440.0,0.0,36.0,1584,0,0,0,0,582.0,2.909,0.0
0,0,3836,41171,1,440.0,0.0,36.0,1584,0,0,0,0,582.0,2.909,0.0
0,0,3841,41221,1,440.0,0.0,36.0,1584,0,0,0,0,582.0,2.909,0.0
0,0,3846,41271,1,440.0,0.0,36.0,1584,0,0,0,0,582.0,2.909,0.0
0,0,3851,41322,1,440.0,0.0,36.0,1584,0,0,0,0,582.0,2.909,0.0
0,0,3856,41372,1,440.0,0.0,36.0,1584,0,0,0,0,582.0,2.909,0.0
0,0,3861,41422,1,440.0,0.0,36.0,1584,0,0,0,0,582.0,2.909,0.0
0,0,3866,41472,1,440.0,0.0,36.0,1584,0,0,0,0,582.0,2.909,0.0
0,0,3871,41522,1,440.0,0.0,36.0,1584,0,0,0,0,582.0,2.909,0.0
0,0,3876,41572,1,440.0,0.0,36.0,1584,0,0,0,0,582.0,2.909,0.0
0,0,3881,41622,1,440.0,0.0,36.0,1584,0,0,0,0,582.0,2.909,0.0
0,0,3886,41673,1,440.0,0.0,36.0,1584,0,0,0,0,582.0,2.909,0.0
0,0,3891,41723,1,440.0,0.0,36.0,1584,0,0,0,0,582.0,2.909,0.0
0,0,3896,41773,1,440.0,0.0,36.0,1584,0,0,0,0,582.0,2.909,0.0
0,0,3901,41824,1,444.0,0.0,36.0,1584,0,0,0,0,582.0,2.909,0.0
0,0,3906,41874,1,444.0,0.0,36.0,1584,0,0,0,0,582.0,2.909,0.0
0,0,3911,41924,1,444.0,0.0,36.0,1584,0,0,0,0,582.0,2.909,0.0
0,0,3916,41974,1,444.0,0.0,36.0,1584,0,0,0,0,582.0,2.909,0.0
0,0,3921,42024,1,444.0,0.0,36.0,1584,0,0,0,0,582.0,2.909,0.0
0,0,3926,42074,1,444.0,0.0,36.0,1584,0,0,0,0,582.0,2.909,0.0
0,0,3931,42124,1,444.0,0.0,36.0,1584,0,0,0,0,582.0,2.909,0.0
0,0,3936,42175,1,444.0,0.0,36.0,1584,0,0,0,0,582.0,2.909,0.0
0,0,3941,42225,1,444.0,0.0,36.0,1584,0,0,0,0,582.0,2.909,0.0
0,0,3946,42275,1,444.0,0.0,36.0,1584,0,0,0,0,582.0,2.909,0.0
0,0,3951,42326,1,444.0,0.0,36.0,1585,0,0,0,0,582.0,3.201,0.0
0,0,3956,42376,1,444.0,0.0,36.0,1584,0,0,0,0,582.0,2.909,0.0
0,0,3961,42426,1,444.0,0.0,36.0,1584,0,0,0,0,582.0,2.909,0.0
0,0,3966,42476,1,444.0,0.0,36.0,1584,0,0,0,0,582.0,2.909,0.0
0,0,3971,42526,1,444.0,0.0,36.0,1584,0,0,0,0,582.0,2.909,0.0
0,0,3976,42576,1,444.0,0.0,36.0,1584,0,0,0,0,582.0,2.909,0.0
0,0,3981,42626,1,444.0,0.0,36.0,1584,0,0,0,0,582.0,2.909,0.0
0,0,3986,42677,1,444.0,0.0,36.0,1584,0,0,0,0,582.0,2.909,0.0
0,0,3991,42727,1,440.0,0.0,36.0,1584,0,0,0,0,582.0,2.909,0.0
0,0,3996,42777,1,440.0,0.0,36.0,1584,0,0,0,0,582.0,2.909,0.0
0,0,4001,42827,1,440.0,0.0,36.0,1584,0,0,0,0,582.0,2.909,0.0
0,0,4006,42878,1,440.0,0.0,36.0,1584,0,0,0,0,582.0,2.909,0.0
0,0,4011,42928,1,440.0,0.0,36.0,1584,0,0,0,0,582.0,2.909,0.0
0,0,4016,42978,1,440.0,0.0,36.0,1584,0,0,0,0,582.0,2.909,0.0
0,0,4021,43028,1,440.0,0.0,36.0,1584,0,0,0,0,582.0,2.909,0.0
0,0,4026,43078,1,440.0,0.0,36.0,1584,0,0,0,0,582.0,2.909,0.0
0,0,4031,43128,1,440.0,0.0,36.0,1584,0,0,0,0,582.0,2.909,0.0
0,0,4036,43179,1,440.0,0.0,36.0,1585,0,0,0,0,582.0,3.201,0.0
0,0,4041,43229,1,440.0,0.0,36.0,1584,0,0,0,0,582.0,2.909,0.0
0,0,4046,43279,1,440.0,0.0,36.0,1584,0,0,0,0,582.0,2.909,0.0
0,0,4051,43329,1,440.0,0.0,36.0,1584,0,0,0,0,582.0,2.909,0.0
0,0,4056,43380,1,440.0,0.0,36.0,1584,0,0,0,0,582.0,2.909,0.0
0,0,4061,43430,1,440.0,0.0,36.0,1584,0,0,0,0,582.0,2.909,0.0
0,0,4066,43480,1,440.0,0.0,36.0,1584,0,0,0,0,582.0,2.909,0.0
0,0,4071,43530,1,440.0,0.0,36.0,1584,0,0,0,0,582.0,2.909,0.0
0,0,4076,43580,1,440.0,0.0,36.0,1584,0,0,0,0,582.0,2.909,0.0
