InitialVarHeader,InitialVars,logNo,timeStep,controlMode,forwardSensor1,forwardSensor2,AltitudeSensor,throttleControl,yawControl,rollControl,pitchControl,stablilityModeControl,errorP,errorI,errorD
ALTITUDE_KP,0.8,6,2719,0,-13358.0,0.0,296.0,1000,0,0,0,0,0.0,0.0,0.0
ALTITUDE_KI,0.6,11,2769,0,-13358.0,0.0,304.0,1000,0,0,0,0,0.0,0.0,0.0
ALTITUDE_KD,0.0,16,2819,0,436.0,0.0,304.0,1800,0,0,0,0,716.8,26.8,7168.0
THROTTLE_LIMIT,1800.0,21,2869,0,436.0,0.0,304.0,1800,0,0,0,0,716.8,53.71,7168.0
ALTITUDE_PID_GAIN_RATIO,1.0,26,2919,0,438.0,0.0,304.0,1797,0,0,0,0,716.8,80.59,0.0
ALTITUDE_HOVER_HEIGHT,1200.0,31,2969,0,440.0,0.0,296.0,1800,0,0,0,0,723.2,107.56,64.0
0,0,36,3019,0,440.0,0.0,296.0,1800,0,0,0,0,723.2,134.63,64.0
0,0,41,3070,0,440.0,0.0,304.0,1800,0,0,0,0,716.8,162.25,-64.0
0,0,46,3120,0,440.0,0.0,304.0,1800,0,0,0,0,716.8,189.1,-64.0
0,0,51,3170,0,440.0,0.0,288.0,1800,0,0,0,0,729.6,216.2,128.0
0,0,56,3220,0,440.0,0.0,296.0,1800,0,0,0,0,723.2,243.4,64.0
0,0,61,3270,0,444.0,0.0,292.0,1800,0,0,0,0,726.4,270.6,-32.0
0,0,66,3320,0,444.0,0.0,304.0,1800,0,0,0,0,716.8,297.6,-64.0
0,0,71,3371,0,440.0,0.0,292.0,1800,0,0,0,0,726.4,325.1,-5.818
0,0,76,3421,0,440.0,0.0,296.0,1800,0,0,0,0,723.2,352.3,58.18
0,0,81,3471,0,440.0,0.0,296.0,1800,0,0,0,0,723.2,379.4,-32.0
0,0,86,3521,0,440.0,0.0,304.0,1800,0,0,0,0,716.8,406.4,-64.0
0,0,91,3572,0,440.0,0.0,304.0,1800,0,0,0,0,716.8,433.8,-58.18
0,0,96,3622,0,440.0,0.0,296.0,1800,0,0,0,0,723.2,460.8,69.81
0,0,101,3672,0,444.0,0.0,300.0,1800,0,0,0,0,720.0,487.8,32.0
0,0,106,3722,0,444.0,0.0,296.0,1800,0,0,0,0,723.2,514.8,0.0
0,0,111,3772,0,792.0,0.0,296.0,1800,0,0,0,0,723.2,541.9,32.0
0,0,116,3822,0,792.0,0.0,304.0,1800,0,0,0,0,716.8,569.0,-64.0
0,0,121,3872,0,884.0,0.0,304.0,1800,0,0,0,0,716.8,595.9,-64.0
0,0,126,3923,0,884.0,0.0,304.0,1800,0,0,0,0,716.8,623.4,-5.818
0,0,131,3973,0,884.0,0.0,300.0,1800,0,0,0,0,720.0,650.4,26.18
0,0,136,4023,0,884.0,0.0,304.0,1800,0,0,0,0,716.8,677.4,0.0
0,0,141,4074,0,888.0,0.0,304.0,1800,0,0,0,0,716.8,704.7,-26.18
0,0,146,4124,0,888.0,0.0,300.0,1800,0,0,0,0,720.0,731.6,37.81
0,0,151,4174,0,888.0,0.0,300.0,1800,0,0,0,0,720.0,758.7,32.0
0,0,156,4224,0,888.0,0.0,292.0,1800,0,0,0,0,726.4,785.8,64.0
0,0,161,4274,0,888.0,0.0,296.0,1800,0,0,0,0,723.2,812.9,32.0
0,0,166,4324,0,888.0,0.0,300.0,1800,0,0,0,0,720.0,839.9,-64.0
0,0,171,4374,0,888.0,0.0,296.0,1800,0,0,0,0,723.2,867.0,0.0
0,0,176,4425,0,888.0,0.0,312.0,1800,0,0,0,0,710.4,894.4,-90.18
0,0,181,4475,0,888.0,0.0,296.0,1800,0,0,0,0,723.2,921.3,5.818
0,0,186,4525,0,888.0,0.0,296.0,1800,0,0,0,0,723.2,948.4,128.0
0,0,191,4576,0,1240.0,0.0,300.0,1800,0,0,0,0,720.0,976.0,-32.0
0,0,196,4626,0,1240.0,0.0,304.0,1800,0,0,0,0,716.8,999.6,-64.0
0,0,201,4676,0,1240.0,0.0,308.0,1800,0,0,0,0,713.6,999.6,-64.0
0,0,206,4726,0,1240.0,0.0,296.0,1800,0,0,0,0,723.2,999.6,64.0
0,0,211,4776,0,1240.0,0.0,292.0,1800,0,0,0,0,726.4,999.6,128.0
0,0,216,4826,0,1240.0,0.0,300.0,1800,0,0,0,0,720.0,999.6,-32.0
0,0,221,4876,0,1240.0,0.0,300.0,1800,0,0,0,0,720.0,999.6,-64.0
0,0,226,4927,1,1240.0,0.0,296.0,1760,0,0,0,0,723.2,5.424,32.0
0,0,231,4977,1,1224.0,0.0,300.0,1725,0,0,0,0,720.0,5.4,0.0
0,0,236,5027,1,1192.0,0.0,300.0,1693,0,0,0,0,720.0,5.4,-32.0
0,0,241,5078,1,1192.0,0.0,284.0,1800,0,0,0,0,732.8,6.045,128.0
0,0,246,5128,1,1224.0,0.0,296.0,1760,0,0,0,0,723.2,5.424,32.0
0,0,251,5178,1,1224.0,0.0,296.0,1632,0,0,0,0,723.2,5.424,-96.0
0,0,256,5228,1,1188.0,0.0,292.0,1763,0,0,0,0,726.4,5.448,32.0
0,0,261,5278,1,1188.0,0.0,300.0,1693,0,0,0,0,720.0,5.4,-32.0
0,0,266,5328,1,1184.0,0.0,296.0,1696,0,0,0,0,723.2,5.424,-32.0
0,0,271,5378,1,1184.0,0.0,308.0,1654,0,0,0,0,713.6,5.352,-64.0
0,0,276,5429,1,1000.0,0.0,292.0,1755,0,0,0,0,726.4,5.448,23.27
0,0,281,5479,1,1000.0,0.0,292.0,1800,0,0,0,0,726.4,5.448,119.27
0,0,286,5529,1,880.0,0.0,300.0,1661,0,0,0,0,720.0,5.4,-64.0
0,0,291,5579,1,880.0,0.0,300.0,1661,0,0,0,0,720.0,5.4,-64.0
0,0,296,5630,1,880.0,0.0,296.0,1760,0,0,0,0,723.2,5.424,32.0
0,0,301,5680,1,880.0,0.0,300.0,1725,0,0,0,0,720.0,5.4,0.0
0,0,306,5730,1,880.0,0.0,304.0,1658,0,0,0,0,716.8,5.376,-64.0
0,0,311,5780,1,880.0,0.0,300.0,1725,0,0,0,0,720.0,5.4,0.0
0,0,316,5830,1,880.0,0.0,292.0,1800,0,0,0,0,726.4,5.448,96.0
0,0,321,5880,1,880.0,0.0,292.0,1795,0,0,0,0,726.4,5.448,64.0
0,0,326,5931,1,944.0,0.0,300.0,1661,0,0,0,0,720.0,5.94,-64.0
0,0,331,5981,1,944.0,0.0,308.0,1590,0,0,0,0,713.6,5.352,-128.0
0,0,336,6031,1,952.0,0.0,304.0,1690,0,0,0,0,716.8,5.376,-32.0
0,0,341,6081,1,952.0,0.0,308.0,1718,0,0,0,0,713.6,5.352,0.0
0,0,346,6132,1,1508.0,0.0,312.0,1651,0,0,0,0,710.4,5.328,-64.0
0,0,351,6182,1,1508.0,0.0,300.0,1789,0,0,0,0,720.0,5.4,64.0
0,0,356,6232,1,1508.0,0.0,300.0,1800,0,0,0,0,720.0,5.4,96.0
0,0,361,6282,1,1508.0,0.0,300.0,1725,0,0,0,0,720.0,5.4,0.0
0,0,366,6332,1,1508.0,0.0,304.0,1690,0,0,0,0,716.8,5.376,-32.0
0,0,371,6382,1,1508.0,0.0,292.0,1795,0,0,0,0,726.4,5.448,64.0
0,0,376,6432,1,1508.0,0.0,288.0,1800,0,0,0,0,729.6,5.472,128.0
0,0,381,6483,1,1508.0,0.0,296.0,1696,0,0,0,0,723.2,5.424,-32.0
0,0,386,6533,1,1500.0,0.0,300.0,1629,0,0,0,0,720.0,5.4,-96.0
0,0,391,6583,1,1500.0,0.0,300.0,1693,0,0,0,0,720.0,5.4,-32.0
0,0,396,6634,1,1500.0,0.0,296.0,1760,0,0,0,0,723.2,5.424,32.0
0,0,401,6684,1,1500.0,0.0,300.0,1725,0,0,0,0,720.0,5.4,0.0
0,0,406,6734,1,1500.0,0.0,304.0,1658,0,0,0,0,716.8,5.376,-64.0
0,0,411,6784,1,1500.0,0.0,296.0,1760,0,0,0,0,723.2,5.424,32.0
0,0,416,6834,1,1556.0,0.0,308.0,1686,0,0,0,0,713.6,5.352,-32.0
0,0,421,6884,1,1556.0,0.0,304.0,1658,0,0,0,0,716.8,5.376,-64.0
0,0,426,6934,1,1556.0,0.0,300.0,1789,0,0,0,0,720.0,5.4,64.0
0,0,431,6985,1,1556.0,0.0,300.0,1757,0,0,0,0,720.0,5.4,32.0
0,0,436,7035,1,1556.0,0.0,300.0,1725,0,0,0,0,720.0,5.4,0.0
0,0,441,7085,1,1556.0,0.0,300.0,1725,0,0,0,0,720.0,5.4,0.0
0,0,446,7136,1,1556.0,0.0,292.0,1795,0,0,0,0,726.4,5.448,64.0
0,0,451,7186,1,1556.0,0.0,300.0,1725,0,0,0,0,720.0,5.4,0.0
0,0,456,7236,1,1556.0,0.0,308.0,1590,0,0,0,0,713.6,5.352,-128.0
0,0,461,7286,1,1536.0,0.0,292.0,1795,0,0,0,0,726.4,5.448,64.0
0,0,466,7336,1,1536.0,0.0,304.0,1754,0,0,0,0,716.8,5.376,32.0
0,0,471,7386,1,796.0,0.0,296.0,1696,0,0,0,0,723.2,5.424,-32.0
0,0,476,7436,1,796.0,0.0,292.0,1800,0,0,0,0,726.4,5.448,96.0
0,0,481,7487,1,796.0,0.0,304.0,1661,0,0,0,0,716.8,5.376,-61.09
0,0,486,7537,1,796.0,0.0,296.0,1699,0,0,0,0,723.2,5.424,-29.09
0,0,491,7587,1,796.0,0.0,304.0,1722,0,0,0,0,716.8,5.376,0.0
0,0,496,7638,1,796.0,0.0,300.0,1693,0,0,0,0,720.0,5.94,-32.0
0,0,501,7688,1,824.0,0.0,304.0,1722,0,0,0,0,716.8,5.376,0.0
0,0,506,7738,1,824.0,0.0,304.0,1690,0,0,0,0,716.8,5.376,-32.0
0,0,511,7788,1,1492.0,0.0,304.0,1722,0,0,0,0,716.8,5.376,0.0
0,0,516,7838,1,1492.0,0.0,300.0,1757,0,0,0,0,720.0,5.4,32.0
0,0,521,7888,1,1492.0,0.0,292.0,1800,0,0,0,0,726.4,5.448,96.0
0,0,526,7938,1,1492.0,0.0,308.0,1654,0,0,0,0,713.6,5.352,-64.0
0,0,531,7989,1,1492.0,0.0,304.0,1623,0,0,0,0,716.8,5.376,-98.9
0,0,536,8039,1,1492.0,0.0,300.0,1786,0,0,0,0,720.0,5.4,61.09
0,0,541,8089,1,1460.0,0.0,308.0,1686,0,0,0,0,713.6,5.352,-32.0
0,0,546,8139,1,1460.0,0.0,308.0,1654,0,0,0,0,713.6,5.352,-64.0
0,0,551,8190,1,1448.0,0.0,300.0,1789,0,0,0,0,720.0,5.4,64.0
0,0,556,8240,1,1448.0,0.0,300.0,1789,0,0,0,0,720.0,5.4,64.0
0,0,561,8290,1,1448.0,0.0,300.0,1725,0,0,0,0,720.0,5.4,0.0
0,0,566,8340,1,1448.0,0.0,292.0,1795,0,0,0,0,726.4,5.448,64.0
0,0,571,8390,1,1436.0,0.0,296.0,1760,0,0,0,0,723.2,5.424,32.0
0,0,576,8440,1,1436.0,0.0,296.0,1696,0,0,0,0,723.2,5.424,-32.0
0,0,581,8491,1,1436.0,0.0,300.0,1696,0,0,0,0,720.0,5.94,-29.09
0,0,586,8541,1,1436.0,0.0,304.0,1661,0,0,0,0,716.8,5.376,-61.09
0,0,591,8591,1,1448.0,0.0,312.0,1619,0,0,0,0,710.4,5.328,-96.0
0,0,596,8641,1,1448.0,0.0,300.0,1757,0,0,0,0,720.0,5.4,32.0
0,0,601,8692,1,1476.0,0.0,308.0,1750,0,0,0,0,713.6,5.352,32.0
0,0,606,8742,1,1476.0,0.0,304.0,1690,0,0,0,0,716.8,5.376,-32.0
0,0,611,8792,1,1508.0,0.0,304.0,1754,0,0,0,0,716.8,5.376,32.0
0,0,616,8842,1,1508.0,0.0,304.0,1722,0,0,0,0,716.8,5.376,0.0
0,0,621,8892,1,1508.0,0.0,304.0,1722,0,0,0,0,716.8,5.376,0.0
0,0,626,8942,1,1508.0,0.0,304.0,1722,0,0,0,0,716.8,5.376,0.0
0,0,631,8992,1,1528.0,0.0,296.0,1792,0,0,0,0,723.2,5.424,64.0
0,0,636,9043,1,1528.0,0.0,300.0,1757,0,0,0,0,720.0,5.4,32.0
0,0,641,9093,1,1528.0,0.0,304.0,1658,0,0,0,0,716.8,5.376,-64.0
0,0,646,9143,1,1528.0,0.0,300.0,1725,0,0,0,0,720.0,5.4,0.0
0,0,651,9194,1,1528.0,0.0,292.0,1800,0,0,0,0,726.4,5.448,96.0
0,0,656,9244,1,1528.0,0.0,296.0,1760,0,0,0,0,723.2,5.424,32.0
0,0,661,9294,1,1528.0,0.0,300.0,1661,0,0,0,0,720.0,5.4,-64.0
0,0,666,9344,1,1528.0,0.0,304.0,1658,0,0,0,0,716.8,5.376,-64.0
0,0,671,9394,1,1528.0,0.0,300.0,1725,0,0,0,0,720.0,5.4,0.0
0,0,676,9444,0,1528.0,0.0,304.0,1727,0,0,0,0,716.8,10.752,0.0
0,0,681,9494,1,1528.0,0.0,296.0,1760,0,0,0,0,723.2,5.424,32.0
0,0,686,9545,1,1528.0,0.0,300.0,1757,0,0,0,0,720.0,5.4,32.0
0,0,691,9595,1,1528.0,0.0,308.0,1622,0,0,0,0,713.6,5.352,-96.0
0,0,696,9645,1,1524.0,0.0,296.0,1760,0,0,0,0,723.2,5.424,32.0
0,0,701,9696,1,1524.0,0.0,300.0,1792,0,0,0,0,720.0,5.4,66.9
0,0,706,9746,1,1520.0,0.0,300.0,1696,0,0,0,0,720.0,5.4,-29.09
0,0,711,9796,1,1520.0,0.0,308.0,1654,0,0,0,0,713.6,5.352,-64.0
0,0,716,9846,1,1520.0,0.0,296.0,1760,0,0,0,0,723.2,5.424,32.0
0,0,721,9896,1,1520.0,0.0,304.0,1754,0,0,0,0,716.8,5.376,32.0
0,0,726,9946,1,1520.0,0.0,300.0,1693,0,0,0,0,720.0,5.4,-32.0
0,0,731,9996,1,1520.0,0.0,304.0,1722,0,0,0,0,716.8,5.376,0.0
0,0,736,10047,1,1512.0,0.0,300.0,1728,0,0,0,0,720.0,5.4,2.909
0,0,741,10097,1,1512.0,0.0,296.0,1795,0,0,0,0,723.2,5.424,66.9
0,0,746,10147,1,1512.0,0.0,308.0,1654,0,0,0,0,713.6,5.352,-64.0
0,0,751,10198,1,1512.0,0.0,300.0,1693,0,0,0,0,720.0,5.94,-32.0
0,0,756,10248,1,1532.0,0.0,296.0,1800,0,0,0,0,723.2,5.424,96.0
0,0,761,10298,1,1532.0,0.0,292.0,1795,0,0,0,0,726.4,5.448,64.0
0,0,766,10348,1,1560.0,0.0,296.0,1728,0,0,0,0,723.2,5.424,0.0
0,0,771,10398,1,1560.0,0.0,292.0,1731,0,0,0,0,726.4,5.448,0.0
0,0,776,10448,1,1556.0,0.0,300.0,1693,0,0,0,0,720.0,5.4,-32.0
0,0,781,10498,1,1556.0,0.0,304.0,1626,0,0,0,0,716.8,5.376,-96.0
0,0,786,10549,1,1556.0,0.0,300.0,1725,0,0,0,0,720.0,5.4,0.0
0,0,791,10599,1,1556.0,0.0,296.0,1792,0,0,0,0,723.2,5.424,64.0
0,0,796,10649,1,1556.0,0.0,304.0,1690,0,0,0,0,716.8,5.376,-32.0
0,0,801,10699,1,1556.0,0.0,296.0,1728,0,0,0,0,723.2,5.424,0.0
0,0,806,10750,1,1528.0,0.0,296.0,1789,0,0,0,0,723.2,5.424,61.09
0,0,811,10800,1,1528.0,0.0,300.0,1690,0,0,0,0,720.0,5.4,-34.9
0,0,816,10850,1,1516.0,0.0,300.0,1693,0,0,0,0,720.0,5.4,-32.0
0,0,821,10900,1,1516.0,0.0,292.0,1795,0,0,0,0,726.4,5.448,64.0
0,0,826,10950,1,1516.0,0.0,296.0,1760,0,0,0,0,723.2,5.424,32.0
0,0,831,11000,1,1516.0,0.0,300.0,1661,0,0,0,0,720.0,5.4,-64.0
0,0,836,11051,1,1516.0,0.0,304.0,1658,0,0,0,0,716.8,5.913,-64.0
0,0,841,11101,1,1516.0,0.0,312.0,1619,0,0,0,0,710.4,5.328,-96.0
0,0,846,11151,1,1500.0,0.0,296.0,1792,0,0,0,0,723.2,5.424,64.0
0,0,851,11201,1,1500.0,0.0,300.0,1800,0,0,0,0,720.0,5.4,96.0
0,0,856,11252,1,1496.0,0.0,300.0,1690,0,0,0,0,720.0,5.4,-34.9
0,0,861,11302,1,1496.0,0.0,308.0,1652,0,0,0,0,713.6,5.352,-66.9
0,0,866,11352,1,1492.0,0.0,308.0,1654,0,0,0,0,713.6,5.352,-64.0
0,0,871,11402,1,1420.0,0.0,296.0,1800,0,0,0,0,723.2,5.424,96.0
0,0,876,11452,1,1420.0,0.0,304.0,1754,0,0,0,0,716.8,5.376,32.0
0,0,881,11502,1,1420.0,0.0,296.0,1728,0,0,0,0,723.2,5.424,0.0
0,0,886,11552,1,1420.0,0.0,304.0,1722,0,0,0,0,716.8,5.376,0.0
0,0,891,11603,1,1420.0,0.0,300.0,1693,0,0,0,0,720.0,5.4,-32.0
0,0,896,11653,1,1420.0,0.0,296.0,1792,0,0,0,0,723.2,5.424,64.0
0,0,901,11703,1,1444.0,0.0,312.0,1619,0,0,0,0,710.4,5.328,-96.0
0,0,906,11754,1,1444.0,0.0,292.0,1766,0,0,0,0,726.4,5.448,34.9
0,0,911,11804,1,1456.0,0.0,304.0,1789,0,0,0,0,716.8,5.376,66.9
0,0,916,11854,1,1456.0,0.0,316.0,1520,0,0,0,0,707.2,5.304,-192.0
0,0,921,11904,1,1472.0,0.0,288.0,1800,0,0,0,0,729.6,5.472,128.0
0,0,926,11954,1,1472.0,0.0,288.0,1800,0,0,0,0,729.6,5.472,224.0
0,0,931,12004,1,1480.0,0.0,304.0,1594,0,0,0,0,716.8,5.376,-128.0
0,0,936,12054,1,1480.0,0.0,308.0,1558,0,0,0,0,713.6,5.352,-160.0
0,0,941,12105,1,1524.0,0.0,304.0,1722,0,0,0,0,716.8,5.376,0.0
0,0,946,12155,1,1524.0,0.0,300.0,1789,0,0,0,0,720.0,5.4,64.0
0,0,951,12205,1,1524.0,0.0,300.0,1757,0,0,0,0,720.0,5.4,32.0
0,0,956,12256,1,1524.0,0.0,304.0,1690,0,0,0,0,716.8,5.376,-32.0
0,0,961,12306,1,1528.0,0.0,296.0,1760,0,0,0,0,723.2,5.424,32.0
0,0,966,12356,1,1528.0,0.0,300.0,1757,0,0,0,0,720.0,5.4,32.0
0,0,971,12406,1,1528.0,0.0,292.0,1763,0,0,0,0,726.4,5.448,32.0
0,0,976,12456,1,1528.0,0.0,308.0,1654,0,0,0,0,713.6,5.352,-64.0
0,0,981,12506,1,1524.0,0.0,292.0,1731,0,0,0,0,726.4,5.448,0.0
0,0,986,12556,1,1524.0,0.0,296.0,1800,0,0,0,0,723.2,5.424,96.0
0,0,991,12607,1,1484.0,0.0,300.0,1661,0,0,0,0,720.0,5.4,-64.0
0,0,996,12657,1,1484.0,0.0,304.0,1658,0,0,0,0,716.8,5.376,-64.0
0,0,1001,12707,1,1484.0,0.0,300.0,1725,0,0,0,0,720.0,5.4,0.0
0,0,1006,12758,1,1484.0,0.0,300.0,1757,0,0,0,0,720.0,5.94,32.0
0,0,1011,12808,1,1484.0,0.0,292.0,1795,0,0,0,0,726.4,5.448,64.0
0,0,1016,12858,1,1484.0,0.0,316.0,1584,0,0,0,0,707.2,5.304,-128.0
0,0,1021,12908,1,1484.0,0.0,308.0,1590,0,0,0,0,713.6,5.352,-128.0
0,0,1026,12958,1,1484.0,0.0,308.0,1782,0,0,0,0,713.6,5.352,64.0
0,0,1031,13008,1,1484.0,0.0,300.0,1789,0,0,0,0,720.0,5.4,64.0
0,0,1036,13058,1,1484.0,0.0,308.0,1718,0,0,0,0,713.6,5.352,0.0
0,0,1041,13109,1,1492.0,0.0,300.0,1725,0,0,0,0,720.0,5.4,0.0
0,0,1046,13159,1,1492.0,0.0,312.0,1683,0,0,0,0,710.4,5.328,-32.0
0,0,1051,13209,1,1504.0,0.0,308.0,1654,0,0,0,0,713.6,5.352,-64.0
0,0,1056,13259,1,1504.0,0.0,296.0,1800,0,0,0,0,723.2,5.424,128.0
0,0,1061,13310,1,1504.0,0.0,296.0,1800,0,0,0,0,723.2,5.424,96.0
0,0,1066,13360,1,1504.0,0.0,300.0,1693,0,0,0,0,720.0,5.4,-32.0
0,0,1071,13410,1,1504.0,0.0,308.0,1622,0,0,0,0,713.6,5.352,-96.0
0,0,1076,13460,1,1496.0,0.0,296.0,1760,0,0,0,0,723.2,5.424,32.0
0,0,1081,13510,1,1496.0,0.0,308.0,1718,0,0,0,0,713.6,5.352,0.0
0,0,1086,13560,1,1496.0,0.0,308.0,1622,0,0,0,0,713.6,5.352,-96.0
0,0,1091,13611,1,1496.0,0.0,308.0,1725,0,0,0,0,713.6,5.887,5.818
0,0,1096,13661,1,1496.0,0.0,304.0,1759,0,0,0,0,716.8,5.376,37.81
0,0,1101,13711,1,1496.0,0.0,300.0,1789,0,0,0,0,720.0,5.4,64.0
0,0,1106,13761,1,1508.0,0.0,300.0,1757,0,0,0,0,720.0,5.4,32.0
0,0,1111,13812,1,1508.0,0.0,300.0,1719,0,0,0,0,720.0,5.4,-5.818
0,0,1116,13862,1,1508.0,0.0,300.0,1719,0,0,0,0,720.0,5.4,-5.818
0,0,1121,13912,1,1508.0,0.0,308.0,1654,0,0,0,0,713.6,5.352,-64.0
0,0,1126,13962,1,1516.0,0.0,312.0,1619,0,0,0,0,710.4,5.328,-96.0
0,0,1131,14012,1,1516.0,0.0,296.0,1800,0,0,0,0,723.2,5.424,96.0
0,0,1136,14062,1,1528.0,0.0,304.0,1786,0,0,0,0,716.8,5.376,64.0
0,0,1141,14112,1,1528.0,0.0,312.0,1587,0,0,0,0,710.4,5.328,-128.0
0,0,1146,14163,1,1528.0,0.0,300.0,1748,0,0,0,0,720.0,5.4,23.27
0,0,1151,14213,1,1528.0,0.0,296.0,1800,0,0,0,0,723.2,5.424,119.27
0,0,1156,14263,1,1528.0,0.0,304.0,1690,0,0,0,0,716.8,5.376,-32.0
0,0,1161,14314,1,1528.0,0.0,300.0,1693,0,0,0,0,720.0,5.4,-32.0
0,0,1166,14364,1,1504.0,0.0,300.0,1757,0,0,0,0,720.0,5.4,32.0
0,0,1171,14414,1,1504.0,0.0,300.0,1725,0,0,0,0,720.0,5.4,0.0
0,0,1176,14464,1,1492.0,0.0,292.0,1795,0,0,0,0,726.4,5.448,64.0
0,0,1181,14514,1,1492.0,0.0,300.0,1725,0,0,0,0,720.0,5.4,0.0
0,0,1186,14564,1,1488.0,0.0,292.0,1731,0,0,0,0,726.4,5.448,0.0
0,0,1191,14614,1,1488.0,0.0,300.0,1725,0,0,0,0,720.0,5.4,0.0
0,0,1196,14665,1,1488.0,0.0,300.0,1661,0,0,0,0,720.0,5.4,-64.0
0,0,1201,14715,1,1488.0,0.0,312.0,1619,0,0,0,0,710.4,5.328,-96.0
0,0,1206,14765,1,1476.0,0.0,296.0,1760,0,0,0,0,723.2,5.424,32.0
0,0,1211,14816,1,1476.0,0.0,300.0,1800,0,0,0,0,720.0,5.4,101.81
0,0,1216,14866,1,1472.0,0.0,308.0,1628,0,0,0,0,713.6,5.352,-90.18
0,0,1221,14916,1,1472.0,0.0,304.0,1690,0,0,0,0,716.8,5.376,-32.0
0,0,1226,14966,1,1472.0,0.0,292.0,1800,0,0,0,0,726.4,5.448,128.0
0,0,1231,15016,1,1472.0,0.0,296.0,1792,0,0,0,0,723.2,5.424,64.0
0,0,1236,15066,1,1476.0,0.0,308.0,1590,0,0,0,0,713.6,5.352,-128.0
0,0,1241,15116,1,1476.0,0.0,308.0,1622,0,0,0,0,713.6,5.352,-96.0
0,0,1246,15167,1,1488.0,0.0,296.0,1800,0,0,0,0,723.2,5.424,96.0
0,0,1251,15217,1,1488.0,0.0,300.0,1789,0,0,0,0,720.0,5.4,64.0
0,0,1256,15267,1,1492.0,0.0,304.0,1658,0,0,0,0,716.8,5.376,-64.0
0,0,1261,15318,1,1492.0,0.0,304.0,1690,0,0,0,0,716.8,5.913,-32.0
0,0,1266,15368,1,1496.0,0.0,308.0,1686,0,0,0,0,713.6,5.352,-32.0
0,0,1271,15418,1,1496.0,0.0,304.0,1722,0,0,0,0,716.8,5.376,0.0
0,0,1276,15468,1,1556.0,0.0,304.0,1754,0,0,0,0,716.8,5.376,32.0
0,0,1281,15518,1,1556.0,0.0,324.0,1546,0,0,0,0,700.8,5.256,-160.0
0,0,1286,15568,1,1556.0,0.0,308.0,1686,0,0,0,0,713.6,5.352,-32.0
0,0,1291,15618,1,1556.0,0.0,308.0,1800,0,0,0,0,713.6,5.352,128.0
0,0,1296,15669,1,1560.0,0.0,312.0,1683,0,0,0,0,710.4,5.328,-32.0
0,0,1301,15719,1,1556.0,0.0,304.0,1754,0,0,0,0,716.8,5.376,32.0
0,0,1306,15769,1,1556.0,0.0,304.0,1786,0,0,0,0,716.8,5.376,64.0
0,0,1311,15819,1,1556.0,0.0,312.0,1651,0,0,0,0,710.4,5.328,-64.0
0,0,1316,15870,1,1556.0,0.0,304.0,1722,0,0,0,0,716.8,5.376,0.0
0,0,1321,15920,1,1532.0,0.0,300.0,1800,0,0,0,0,720.0,5.4,96.0
0,0,1326,15970,1,1532.0,0.0,304.0,1722,0,0,0,0,716.8,5.376,0.0
0,0,1331,16020,1,1532.0,0.0,312.0,1619,0,0,0,0,710.4,5.328,-96.0
0,0,1336,16070,1,1532.0,0.0,308.0,1686,0,0,0,0,713.6,5.352,-32.0
0,0,1341,16120,1,1528.0,0.0,296.0,1800,0,0,0,0,723.2,5.424,128.0
0,0,1346,16171,1,1528.0,0.0,308.0,1719,0,0,0,0,713.6,5.887,0.0
0,0,1351,16221,1,1528.0,0.0,304.0,1658,0,0,0,0,716.8,5.376,-64.0
0,0,1356,16271,1,1528.0,0.0,320.0,1613,0,0,0,0,704.0,5.28,-96.0
0,0,1361,16321,1,1528.0,0.0,304.0,1722,0,0,0,0,716.8,5.376,0.0
0,0,1366,16372,1,1528.0,0.0,308.0,1800,0,0,0,0,713.6,5.352,96.0
0,0,1371,16422,1,1528.0,0.0,308.0,1686,0,0,0,0,713.6,5.352,-32.0
0,0,1376,16472,1,1528.0,0.0,304.0,1754,0,0,0,0,716.8,5.376,32.0
0,0,1381,16522,1,1524.0,0.0,328.0,1542,0,0,0,0,697.6,5.232,-160.0
0,0,1386,16572,1,1524.0,0.0,304.0,1722,0,0,0,0,716.8,5.376,0.0
0,0,1391,16622,1,1524.0,0.0,308.0,1800,0,0,0,0,713.6,5.352,160.0
0,0,1396,16672,1,1524.0,0.0,308.0,1686,0,0,0,0,713.6,5.352,-32.0
0,0,1401,16723,1,1508.0,0.0,312.0,1683,0,0,0,0,710.4,5.328,-32.0
0,0,1406,16773,1,1508.0,0.0,312.0,1683,0,0,0,0,710.4,5.328,-32.0
0,0,1411,16823,1,1504.0,0.0,304.0,1786,0,0,0,0,716.8,5.376,64.0
0,0,1416,16874,1,1504.0,0.0,304.0,1783,0,0,0,0,716.8,5.376,61.09
0,0,1421,16924,1,788.0,0.0,300.0,1754,0,0,0,0,720.0,5.4,29.09
0,0,1426,16974,1,788.0,0.0,300.0,1757,0,0,0,0,720.0,5.4,32.0
0,0,1431,17024,1,760.0,0.0,296.0,1760,0,0,0,0,723.2,5.424,32.0
0,0,1436,17074,1,760.0,0.0,308.0,1654,0,0,0,0,713.6,5.352,-64.0
0,0,1441,17124,1,664.0,0.0,312.0,1587,0,0,0,0,710.4,5.328,-128.0
0,0,1446,17174,1,664.0,0.0,300.0,1789,0,0,0,0,720.0,5.4,64.0
0,0,1451,17225,1,616.0,0.0,312.0,1715,0,0,0,0,710.4,5.328,0.0
0,0,1456,17275,1,616.0,0.0,304.0,1690,0,0,0,0,716.8,5.376,-32.0
0,0,1461,17325,1,604.0,0.0,312.0,1715,0,0,0,0,710.4,5.328,0.0
0,0,1466,17376,1,604.0,0.0,332.0,1487,0,0,0,0,694.4,5.207,-212.3
0,0,1471,17426,1,604.0,0.0,344.0,1445,0,0,0,0,684.8,5.135,-244.3
0,0,1476,17476,1,604.0,0.0,336.0,1664,0,0,0,0,691.2,5.184,-32.0
0,0,1481,17526,1,604.0,0.0,344.0,1689,0,0,0,0,684.8,5.135,0.0
0,0,1486,17576,1,604.0,0.0,352.0,1555,0,0,0,0,678.4,5.088,-128.0
0,0,1491,17626,1,952.0,0.0,400.0,1196,0,0,0,0,640.0,4.8,-448.0
0,0,1496,17676,1,952.0,0.0,416.0,1119,0,0,0,0,627.2,4.704,-512.0
0,0,1501,17727,1,952.0,0.0,464.0,1081,0,0,0,0,588.8,4.416,-512.0
0,0,1506,17777,1,968.0,0.0,484.0,1033,0,0,0,0,572.8,4.296,-544.0
0,0,1511,17827,1,968.0,0.0,524.0,1064,0,0,0,0,540.8,4.056,-480.0
0,0,1516,17878,1,952.0,0.0,528.0,1192,0,0,0,0,537.6,4.435,-349.0
0,0,1521,17928,1,952.0,0.0,568.0,1160,0,0,0,0,505.6,3.792,-349.0
0,0,1526,17978,1,944.0,0.0,604.0,1000,0,0,0,0,476.8,3.576,-608.0
0,0,1531,18028,1,944.0,0.0,620.0,1051,0,0,0,0,464.0,3.48,-416.0
0,0,1536,18078,1,940.0,0.0,628.0,1269,0,0,0,0,457.6,3.432,-192.0
0,0,1541,18128,1,940.0,0.0,660.0,1115,0,0,0,0,432.0,3.24,-320.0
0,0,1546,18178,1,940.0,0.0,656.0,1214,0,0,0,0,435.2,3.264,-224.0
0,0,1551,18229,1,940.0,0.0,668.0,1373,0,0,0,0,425.6,3.192,-55.27
0,0,1556,18279,1,916.0,0.0,680.0,1235,0,0,0,0,416.0,3.12,-183.2
0,0,1561,18329,1,916.0,0.0,692.0,1217,0,0,0,0,406.4,3.048,-192.0
0,0,1566,18379,1,884.0,0.0,704.0,1207,0,0,0,0,396.8,2.976,-192.0
0,0,1571,18430,1,884.0,0.0,712.0,1233,0,0,0,0,390.4,2.928,-160.0
0,0,1576,18480,1,872.0,0.0,724.0,1223,0,0,0,0,380.8,2.856,-160.0
0,0,1581,18530,1,872.0,0.0,736.0,1181,0,0,0,0,371.2,2.784,-192.0
0,0,1586,18580,1,852.0,0.0,740.0,1242,0,0,0,0,368.0,2.76,-128.0
0,0,1591,18630,1,852.0,0.0,752.0,1233,0,0,0,0,358.4,2.688,-128.0
0,0,1596,18680,1,852.0,0.0,764.0,1159,0,0,0,0,348.8,2.616,-192.0
0,0,1601,18731,1,852.0,0.0,764.0,1264,0,0,0,0,348.8,2.877,-87.27
0,0,1606,18781,1,852.0,0.0,768.0,1324,0,0,0,0,345.6,2.592,-23.27
0,0,1611,18831,0,852.0,0.0,780.0,1213,0,0,0,0,336.0,5.04,-128.0
0,0,1616,18881,0,756.0,0.0,808.0,1010,0,0,0,0,313.6,16.92,-320.0
0,0,1621,18932,0,756.0,0.0,824.0,1000,0,0,0,0,300.8,28.62,-352.0
0,0,1626,18982,0,728.0,0.0,812.0,1318,0,0,0,0,310.4,40.17,-32.0
0,0,1631,19032,0,728.0,0.0,808.0,1493,0,0,0,0,313.6,51.85,128.0
0,0,1636,19082,0,692.0,0.0,752.0,1800,0,0,0,0,358.4,64.53,480.0
0,0,1641,19132,0,692.0,0.0,708.0,1800,0,0,0,0,393.6,78.83,800.0
0,0,1646,19182,0,664.0,0.0,668.0,1800,0,0,0,0,425.6,94.48,672.0
0,0,1651,19232,0,664.0,0.0,624.0,1800,0,0,0,0,460.8,111.47,672.0
0,0,1656,19283,0,648.0,0.0,588.0,1800,0,0,0,0,489.6,129.58,640.0
0,0,1661,19333,0,648.0,0.0,576.0,1800,0,0,0,0,499.2,148.25,384.0
0,0,1666,19383,0,640.0,0.0,552.0,1800,0,0,0,0,518.4,167.5,288.0
0,0,1671,19434,0,640.0,0.0,544.0,1800,0,0,0,0,524.8,187.5,261.8
0,0,1676,19484,0,628.0,0.0,540.0,1800,0,0,0,0,528.0,207.3,101.81
0,0,1681,19534,0,628.0,0.0,544.0,1751,0,0,0,0,524.8,227.0,0.0
0,0,1686,19584,0,628.0,0.0,560.0,1598,0,0,0,0,512.0,246.4,-160.0
0,0,1691,19634,0,628.0,0.0,580.0,1473,0,0,0,0,496.0,265.0,-288.0
0,0,1696,19684,0,616.0,0.0,632.0,1161,0,0,0,0,454.4,282.9,-576.0
0,0,1701,19734,1,616.0,0.0,680.0,1000,0,0,0,0,416.0,3.12,-800.0
0,0,1706,19785,0,608.0,0.0,684.0,1015,0,0,0,0,412.8,18.95,-416.0
0,0,1711,19835,0,616.0,0.0,724.0,1062,0,0,0,0,380.8,33.47,-352.0
0,0,1716,19885,0,616.0,0.0,728.0,1073,0,0,0,0,377.6,47.64,-352.0
0,0,1721,19936,0,740.0,0.0,740.0,1293,0,0,0,0,368.0,61.86,-136.72
0,0,1726,19986,0,740.0,0.0,712.0,1585,0,0,0,0,390.4,76.12,119.27
0,0,1731,20036,0,816.0,0.0,676.0,1800,0,0,0,0,419.2,91.28,512.0
0,0,1736,20086,0,816.0,0.0,628.0,1800,0,0,0,0,457.6,107.75,672.0
0,0,1741,20136,1,828.0,0.0,580.0,1800,0,0,0,0,496.0,3.72,768.0
0,0,1746,20186,1,828.0,0.0,512.0,1800,0,0,0,0,550.4,4.128,928.0
0,0,1751,20236,1,836.0,0.0,448.0,1800,0,0,0,0,601.6,4.512,1056.0
0,0,1756,20287,1,836.0,0.0,388.0,1800,0,0,0,0,649.6,4.872,983.2
0,0,1761,20337,1,828.0,0.0,312.0,1800,0,0,0,0,710.4,5.328,1079.2
0,0,1766,20387,1,828.0,0.0,264.0,1800,0,0,0,0,748.8,5.616,992.0
0,0,1771,20438,1,828.0,0.0,236.0,1800,0,0,0,0,771.2,6.362,596.3
0,0,1776,20488,1,828.0,0.0,184.0,1800,0,0,0,0,812.8,6.096,628.3
0,0,1781,20538,1,816.0,0.0,116.0,1800,0,0,0,0,867.2,6.504,960.0
0,0,1786,20588,1,816.0,0.0,48.0,1800,0,0,0,0,921.6,6.912,1088.0
0,0,1791,20638,1,816.0,0.0,32.0,1800,0,0,0,0,934.4,7.008,672.0
0,0,1796,20688,1,816.0,0.0,28.0,1800,0,0,0,0,937.6,7.032,160.0
0,0,1801,20738,1,816.0,0.0,28.0,1800,0,0,0,0,937.6,7.032,32.0
0,0,1806,20789,1,816.0,0.0,36.0,1800,0,0,0,0,931.2,6.983,-64.0
0,0,1811,20839,1,932.0,0.0,36.0,1800,0,0,0,0,931.2,6.983,-64.0
0,0,1816,20889,1,932.0,0.0,36.0,1800,0,0,0,0,931.2,6.983,0.0
0,0,1821,20939,1,1160.0,0.0,36.0,1800,0,0,0,0,931.2,6.983,0.0
0,0,1826,20990,1,1160.0,0.0,36.0,1800,0,0,0,0,931.2,6.983,0.0
0,0,1831,21040,1,1184.0,0.0,36.0,1800,0,0,0,0,931.2,6.983,0.0
0,0,1836,21090,1,1184.0,0.0,36.0,1800,0,0,0,0,931.2,6.983,0.0
0,0,1841,21140,1,1576.0,0.0,36.0,1800,0,0,0,0,931.2,6.983,0.0
0,0,1846,21190,1,1576.0,0.0,36.0,1800,0,0,0,0,931.2,6.983,0.0
0,0,1851,21240,1,1588.0,0.0,36.0,1800,0,0,0,0,931.2,6.983,0.0
0,0,1856,21291,1,1588.0,0.0,36.0,1800,0,0,0,0,931.2,7.682,0.0
0,0,1861,21341,1,1588.0,0.0,36.0,1800,0,0,0,0,931.2,6.983,0.0
0,0,1866,21391,1,1588.0,0.0,36.0,1800,0,0,0,0,931.2,6.983,0.0
0,0,1871,21441,1,1576.0,0.0,36.0,1800,0,0,0,0,931.2,6.983,0.0
0,0,1876,21492,1,1576.0,0.0,36.0,1800,0,0,0,0,931.2,6.983,0.0
0,0,1881,21542,1,836.0,0.0,36.0,1800,0,0,0,0,931.2,6.983,0.0
0,0,1886,21592,1,836.0,0.0,36.0,1800,0,0,0,0,931.2,6.983,0.0
0,0,1891,21642,1,836.0,0.0,36.0,1800,0,0,0,0,931.2,6.983,0.0
0,0,1896,21692,1,836.0,0.0,36.0,1800,0,0,0,0,931.2,6.983,0.0
0,0,1901,21742,1,836.0,0.0,36.0,1800,0,0,0,0,931.2,6.983,0.0
0,0,1906,21792,1,836.0,0.0,36.0,1800,0,0,0,0,931.2,6.983,0.0
0,0,1911,21843,1,856.0,0.0,36.0,1800,0,0,0,0,931.2,6.983,0.0
0,0,1916,21893,1,856.0,0.0,36.0,1800,0,0,0,0,931.2,6.983,0.0
0,0,1921,21943,1,1524.0,0.0,36.0,1800,0,0,0,0,931.2,6.983,0.0
0,0,1926,21994,1,1524.0,0.0,36.0,1800,0,0,0,0,931.2,6.983,0.0
0,0,1931,22044,1,1524.0,0.0,36.0,1800,0,0,0,0,931.2,6.983,0.0
0,0,1936,22094,1,1524.0,0.0,36.0,1800,0,0,0,0,931.2,6.983,0.0
0,0,1941,22144,1,1524.0,0.0,36.0,1800,0,0,0,0,931.2,6.983,0.0
0,0,1946,22194,1,448.0,0.0,36.0,1800,0,0,0,0,931.2,6.983,0.0
0,0,1951,22244,1,448.0,0.0,36.0,1800,0,0,0,0,931.2,6.983,0.0
0,0,1956,22294,1,444.0,0.0,36.0,1800,0,0,0,0,931.2,6.983,0.0
0,0,1961,22345,1,444.0,0.0,36.0,1800,0,0,0,0,931.2,6.983,0.0
0,0,1966,22395,1,444.0,0.0,36.0,1800,0,0,0,0,931.2,6.983,0.0
0,0,1971,22445,1,444.0,0.0,36.0,1800,0,0,0,0,931.2,6.983,0.0
0,0,1976,22496,1,444.0,0.0,36.0,1800,0,0,0,0,931.2,6.983,0.0
0,0,1981,22546,1,444.0,0.0,36.0,1800,0,0,0,0,931.2,6.983,0.0
0,0,1986,22596,1,444.0,0.0,36.0,1800,0,0,0,0,931.2,6.983,0.0
0,0,1991,22646,1,444.0,0.0,36.0,1800,0,0,0,0,931.2,6.983,0.0
0,0,1996,22696,1,444.0,0.0,36.0,1800,0,0,0,0,931.2,6.983,0.0
0,0,2001,22746,1,444.0,0.0,36.0,1800,0,0,0,0,931.2,6.983,0.0
0,0,2006,22796,1,444.0,0.0,36.0,1800,0,0,0,0,931.2,6.983,0.0
0,0,2011,22847,1,444.0,0.0,36.0,1800,0,0,0,0,931.2,6.983,0.0
0,0,2016,22897,1,444.0,0.0,36.0,1800,0,0,0,0,931.2,6.983,0.0
0,0,2021,22947,1,444.0,0.0,36.0,1800,0,0,0,0,931.2,6.983,0.0
0,0,2026,22998,1,444.0,0.0,36.0,1800,0,0,0,0,931.2,7.682,0.0
0,0,2031,23048,1,444.0,0.0,36.0,1800,0,0,0,0,931.2,6.983,0.0
0,0,2036,23098,1,444.0,0.0,36.0,1800,0,0,0,0,931.2,6.983,0.0
0,0,2041,23148,1,444.0,0.0,36.0,1800,0,0,0,0,931.2,6.983,0.0
0,0,2046,23198,1,444.0,0.0,36.0,1800,0,0,0,0,931.2,6.983,0.0
0,0,2051,23248,1,444.0,0.0,36.0,1800,0,0,0,0,931.2,6.983,0.0
0,0,2056,23298,1,444.0,0.0,36.0,1800,0,0,0,0,931.2,6.983,0.0
0,0,2061,23349,1,444.0,0.0,36.0,1800,0,0,0,0,931.2,6.983,0.0
0,0,2066,23399,1,444.0,0.0,36.0,1800,0,0,0,0,931.2,6.983,0.0
0,0,2071,23449,1,444.0,0.0,36.0,1800,0,0,0,0,931.2,6.983,0.0
0,0,2076,23499,1,444.0,0.0,36.0,1800,0,0,0,0,931.2,6.983,0.0
0,0,2081,23550,1,444.0,0.0,36.0,1800,0,0,0,0,931.2,6.983,0.0
0,0,2086,23600,1,448.0,0.0,36.0,1800,0,0,0,0,931.2,6.983,0.0
0,0,2091,23650,1,448.0,0.0,36.0,1800,0,0,0,0,931.2,6.983,0.0
0,0,2096,23700,1,444.0,0.0,36.0,1800,0,0,0,0,931.2,6.983,0.0
0,0,2101,23750,1,444.0,0.0,36.0,1800,0,0,0,0,931.2,6.983,0.0
0,0,2106,23800,1,444.0,0.0,36.0,1800,0,0,0,0,931.2,6.983,0.0
0,0,2111,23851,1,444.0,0.0,36.0,1800,0,0,0,0,931.2,7.682,0.0
0,0,2116,23901,1,444.0,0.0,36.0,1800,0,0,0,0,931.2,6.983,0.0
0,0,2121,23951,1,444.0,0.0,36.0,1800,0,0,0,0,931.2,6.983,0.0
0,0,2126,24001,1,444.0,0.0,36.0,1800,0,0,0,0,931.2,6.983,0.0
0,0,2131,24052,1,444.0,0.0,36.0,1800,0,0,0,0,931.2,6.983,0.0
0,0,2136,24102,1,444.0,0.0,36.0,1800,0,0,0,0,931.2,6.983,0.0
0,0,2141,24152,1,444.0,0.0,36.0,1800,0,0,0,0,931.2,6.983,0.0
0,0,2146,24202,1,444.0,0.0,36.0,1800,0,0,0,0,931.2,6.983,0.0
0,0,2151,24252,1,444.0,0.0,36.0,1800,0,0,0,0,931.2,6.983,0.0
0,0,2156,24302,1,444.0,0.0,36.0,1800,0,0,0,0,931.2,6.983,0.0
0,0,2161,24352,1,444.0,0.0,36.0,1800,0,0,0,0,931.2,6.983,0.0
0,0,2166,24403,1,444.0,0.0,36.0,1800,0,0,0,0,931.2,6.983,0.0
0,0,2171,24453,1,444.0,0.0,36.0,1800,0,0,0,0,931.2,6.983,0.0
0,0,2176,24503,1,444.0,0.0,36.0,1800,0,0,0,0,931.2,6.983,0.0
0,0,2181,24554,1,444.0,0.0,36.0,1800,0,0,0,0,931.2,6.983,0.0
0,0,2186,24604,1,444.0,0.0,36.0,1800,0,0,0,0,931.2,6.983,0.0
0,0,2191,24654,1,444.0,0.0,36.0,1800,0,0,0,0,931.2,6.983,0.0
0,0,2196,24704,1,444.0,0.0,36.0,1800,0,0,0,0,931.2,6.983,0.0
0,0,2201,24754,1,444.0,0.0,36.0,1800,0,0,0,0,931.2,6.983,0.0
0,0,2206,24804,1,444.0,0.0,36.0,1800,0,0,0,0,931.2,6.983,0.0
0,0,2211,24854,1,444.0,0.0,36.0,1800,0,0,0,0,931.2,6.983,0.0
0,0,2216,24905,1,444.0,0.0,36.0,1800,0,0,0,0,931.2,6.983,0.0
0,0,2221,24955,1,444.0,0.0,36.0,1800,0,0,0,0,931.2,6.983,0.0
0,0,2226,25005,1,444.0,0.0,36.0,1800,0,0,0,0,931.2,6.983,0.0
0,0,2231,25056,0,444.0,0.0,36.0,1800,0,0,0,0,931.2,14.666,0.0
0,0,2236,25106,1,444.0,0.0,36.0,1800,0,0,0,0,931.2,6.983,0.0
0,0,2241,25156,1,444.0,0.0,36.0,1800,0,0,0,0,931.2,6.983,0.0
0,0,2246,25206,1,444.0,0.0,36.0,1800,0,0,0,0,931.2,6.983,0.0
0,0,2251,25256,1,444.0,0.0,36.0,1800,0,0,0,0,931.2,6.983,0.0
0,0,2256,25306,1,444.0,0.0,36.0,1800,0,0,0,0,931.2,6.983,0.0
0,0,2261,25356,1,444.0,0.0,36.0,1800,0,0,0,0,931.2,6.983,0.0
0,0,2266,25407,1,444.0,0.0,36.0,1800,0,0,0,0,931.2,6.983,0.0
0,0,2271,25457,1,444.0,0.0,36.0,1800,0,0,0,0,931.2,6.983,0.0
0,0,2276,25507,1,444.0,0.0,36.0,1800,0,0,0,0,931.2,6.983,0.0
0,0,2281,25558,1,444.0,0.0,36.0,1800,0,0,0,0,931.2,7.682,0.0
0,0,2286,25608,1,444.0,0.0,36.0,1800,0,0,0,0,931.2,6.983,0.0
0,0,2291,25658,1,444.0,0.0,36.0,1800,0,0,0,0,931.2,6.983,0.0
0,0,2296,25708,1,444.0,0.0,36.0,1800,0,0,0,0,931.2,6.983,0.0
0,0,2301,25758,1,444.0,0.0,36.0,1800,0,0,0,0,931.2,6.983,0.0
0,0,2306,25808,1,444.0,0.0,36.0,1800,0,0,0,0,931.2,6.983,0.0
0,0,2311,25858,1,444.0,0.0,36.0,1800,0,0,0,0,931.2,6.983,0.0
0,0,2316,25909,1,444.0,0.0,36.0,1800,0,0,0,0,931.2,6.983,0.0
0,0,2321,25959,1,444.0,0.0,36.0,1800,0,0,0,0,931.2,6.983,0.0
0,0,2326,26009,1,444.0,0.0,36.0,1800,0,0,0,0,931.2,6.983,0.0
0,0,2331,26059,1,444.0,0.0,36.0,1800,0,0,0,0,931.2,6.983,0.0
0,0,2336,26110,1,444.0,0.0,36.0,1800,0,0,0,0,931.2,6.983,0.0
0,0,2341,26160,1,444.0,0.0,36.0,1800,0,0,0,0,931.2,6.983,0.0
0,0,2346,26210,1,444.0,0.0,36.0,1800,0,0,0,0,931.2,6.983,0.0
0,0,2351,26260,1,444.0,0.0,36.0,1800,0,0,0,0,931.2,6.983,0.0
0,0,2356,26310,1,448.0,0.0,36.0,1800,0,0,0,0,931.2,6.983,0.0
0,0,2361,26360,1,448.0,0.0,36.0,1800,0,0,0,0,931.2,6.983,0.0
0,0,2366,26411,1,448.0,0.0,36.0,1800,0,0,0,0,931.2,7.682,0.0
0,0,2371,26461,1,448.0,0.0,36.0,1800,0,0,0,0,931.2,6.983,0.0
0,0,2376,26511,1,448.0,0.0,36.0,1800,0,0,0,0,931.2,6.983,0.0
0,0,2381,26561,1,448.0,0.0,36.0,1800,0,0,0,0,931.2,6.983,0.0
0,0,2386,26612,1,448.0,0.0,36.0,1800,0,0,0,0,931.2,6.983,0.0
0,0,2391,26662,1,448.0,0.0,36.0,1800,0,0,0,0,931.2,6.983,0.0
0,0,2396,26712,1,448.0,0.0,36.0,1800,0,0,0,0,931.2,6.983,0.0
0,0,2401,26762,1,448.0,0.0,36.0,1800,0,0,0,0,931.2,6.983,0.0
0,0,2406,26812,1,444.0,0.0,36.0,1800,0,0,0,0,931.2,6.983,0.0
0,0,2411,26862,1,444.0,0.0,36.0,1800,0,0,0,0,931.2,6.983,0.0
0,0,2416,26912,1,444.0,0.0,36.0,1800,0,0,0,0,931.2,6.983,0.0
0,0,2421,26963,1,444.0,0.0,36.0,1800,0,0,0,0,931.2,6.983,0.0
0,0,2426,27013,1,444.0,0.0,36.0,1800,0,0,0,0,931.2,6.983,0.0
0,0,2431,27063,1,444.0,0.0,36.0,1800,0,0,0,0,931.2,6.983,0.0
0,0,2436,27114,1,444.0,0.0,36.0,1800,0,0,0,0,931.2,6.983,0.0
0,0,2441,27164,1,444.0,0.0,36.0,1800,0,0,0,0,931.2,6.983,0.0
0,0,2446,27214,1,444.0,0.0,36.0,1800,0,0,0,0,931.2,6.983,0.0
0,0,2451,27264,1,444.0,0.0,36.0,1800,0,0,0,0,931.2,6.983,0.0
0,0,2456,27314,1,444.0,0.0,36.0,1800,0,0,0,0,931.2,6.983,0.0
0,0,2461,27364,1,444.0,0.0,36.0,1800,0,0,0,0,931.2,6.983,0.0
0,0,2466,27414,1,444.0,0.0,36.0,1800,0,0,0,0,931.2,6.983,0.0
0,0,2471,27465,1,444.0,0.0,36.0,1800,0,0,0,0,931.2,6.983,0.0
0,0,2476,27515,1,444.0,0.0,36.0,1800,0,0,0,0,931.2,6.983,0.0
0,0,2481,27565,1,444.0,0.0,36.0,1800,0,0,0,0,931.2,6.983,0.0
0,0,2486,27616,1,444.0,0.0,36.0,1800,0,0,0,0,931.2,6.983,0.0
0,0,2491,27666,1,444.0,0.0,36.0,1800,0,0,0,0,931.2,6.983,0.0
0,0,2496,27716,1,444.0,0.0,36.0,1800,0,0,0,0,931.2,6.983,0.0
0,0,2501,27766,1,444.0,0.0,36.0,1800,0,0,0,0,931.2,6.983,0.0
0,0,2506,27816,1,444.0,0.0,36.0,1800,0,0,0,0,931.2,6.983,0.0
0,0,2511,27866,1,444.0,0.0,36.0,1800,0,0,0,0,931.2,6.983,0.0
0,0,2516,27916,1,444.0,0.0,36.0,1800,0,0,0,0,931.2,6.983,0.0
0,0,2521,27967,1,444.0,0.0,36.0,1800,0,0,0,0,931.2,6.983,0.0
0,0,2526,28017,1,444.0,0.0,36.0,1800,0,0,0,0,931.2,6.983,0.0
0,0,2531,28067,1,444.0,0.0,36.0,1800,0,0,0,0,931.2,6.983,0.0
0,0,2536,28118,1,444.0,0.0,36.0,1800,0,0,0,0,931.2,7.682,0.0
0,0,2541,28168,1,444.0,0.0,36.0,1800,0,0,0,0,931.2,6.983,0.0
0,0,2546,28218,1,444.0,0.0,36.0,1800,0,0,0,0,931.2,6.983,0.0
0,0,2551,28268,1,444.0,0.0,36.0,1800,0,0,0,0,931.2,6.983,0.0
0,0,2556,28318,1,444.0,0.0,36.0,1800,0,0,0,0,931.2,6.983,0.0
0,0,2561,28368,1,444.0,0.0,36.0,1800,0,0,0,0,931.2,6.983,0.0
0,0,2566,28418,1,444.0,0.0,36.0,1800,0,0,0,0,931.2,6.983,0.0
0,0,2571,28469,1,444.0,0.0,36.0,1800,0,0,0,0,931.2,6.983,0.0
0,0,2576,28519,1,444.0,0.0,36.0,1800,0,0,0,0,931.2,6.983,0.0
0,0,2581,28569,1,444.0,0.0,36.0,1800,0,0,0,0,931.2,6.983,0.0
0,0,2586,28619,1,444.0,0.0,36.0,1800,0,0,0,0,931.2,6.983,0.0
0,0,2591,28670,1,444.0,0.0,36.0,1800,0,0,0,0,931.2,6.983,0.0
0,0,2596,28720,1,444.0,0.0,36.0,1800,0,0,0,0,931.2,6.983,0.0
0,0,2601,28770,1,444.0,0.0,36.0,1800,0,0,0,0,931.2,6.983,0.0
0,0,2606,28820,1,444.0,0.0,36.0,1800,0,0,0,0,931.2,6.983,0.0
0,0,2611,28870,1,444.0,0.0,36.0,1800,0,0,0,0,931.2,6.983,0.0
0,0,2616,28920,1,444.0,0.0,36.0,1800,0,0,0,0,931.2,6.983,0.0
0,0,2621,28971,1,444.0,0.0,36.0,1800,0,0,0,0,931.2,7.682,0.0
0,0,2626,29021,1,444.0,0.0,36.0,1800,0,0,0,0,931.2,6.983,0.0
0,0,2631,29071,1,444.0,0.0,36.0,1800,0,0,0,0,931.2,6.983,0.0
0,0,2636,29121,1,444.0,0.0,36.0,1800,0,0,0,0,931.2,6.983,0.0
0,0,2641,29172,1,448.0,0.0,36.0,1800,0,0,0,0,931.2,6.983,0.0
0,0,2646,29222,1,448.0,0.0,36.0,1800,0,0,0,0,931.2,6.983,0.0
0,0,2651,29272,1,448.0,0.0,36.0,1800,0,0,0,0,931.2,6.983,0.0
0,0,2656,29322,1,448.0,0.0,36.0,1800,0,0,0,0,931.2,6.983,0.0
0,0,2661,29372,1,448.0,0.0,36.0,1800,0,0,0,0,931.2,6.983,0.0
0,0,2666,29422,1,448.0,0.0,36.0,1800,0,0,0,0,931.2,6.983,0.0
0,0,2671,29472,1,444.0,0.0,36.0,1800,0,0,0,0,931.2,6.983,0.0
0,0,2676,29523,1,444.0,0.0,36.0,1800,0,0,0,0,931.2,6.983,0.0
0,0,2681,29573,1,444.0,0.0,36.0,1800,0,0,0,0,931.2,6.983,0.0
0,0,2686,29623,1,444.0,0.0,36.0,1800,0,0,0,0,931.2,6.983,0.0
0,0,2691,29674,1,444.0,0.0,36.0,1800,0,0,0,0,931.2,6.983,0.0
0,0,2696,29724,1,444.0,0.0,36.0,1800,0,0,0,0,931.2,6.983,0.0
0,0,2701,29774,0,444.0,0.0,36.0,1800,0,0,0,0,931.2,20.95,0.0
0,0,2706,29824,1,444.0,0.0,36.0,1800,0,0,0,0,931.2,6.983,0.0
0,0,2711,29874,1,444.0,0.0,36.0,1800,0,0,0,0,931.2,6.983,0.0
0,0,2716,29924,1,444.0,0.0,36.0,1800,0,0,0,0,931.2,6.983,0.0
0,0,2721,29974,1,444.0,0.0,36.0,1800,0,0,0,0,931.2,6.983,0.0
0,0,2726,30025,1,444.0,0.0,36.0,1800,0,0,0,0,931.2,6.983,0.0
0,0,2731,30075,1,444.0,0.0,36.0,1800,0,0,0,0,931.2,6.983,0.0
0,0,2736,30125,1,444.0,0.0,36.0,1800,0,0,0,0,931.2,6.983,0.0
0,0,2741,30176,1,444.0,0.0,36.0,1800,0,0,0,0,931.2,6.983,0.0
0,0,2746,30226,1,444.0,0.0,36.0,1800,0,0,0,0,931.2,6.983,0.0
0,0,2751,30276,1,444.0,0.0,36.0,1800,0,0,0,0,931.2,6.983,0.0
0,0,2756,30326,1,444.0,0.0,36.0,1800,0,0,0,0,931.2,6.983,0.0
0,0,2761,30376,1,444.0,0.0,36.0,1800,0,0,0,0,931.2,6.983,0.0
0,0,2766,30426,1,444.0,0.0,36.0,1800,0,0,0,0,931.2,6.983,0.0
0,0,2771,30476,1,444.0,0.0,36.0,1800,0,0,0,0,931.2,6.983,0.0
0,0,2776,30527,1,444.0,0.0,36.0,1800,0,0,0,0,931.2,6.983,0.0
0,0,2781,30577,1,444.0,0.0,36.0,1800,0,0,0,0,931.2,6.983,0.0
0,0,2786,30627,1,444.0,0.0,36.0,1800,0,0,0,0,931.2,6.983,0.0
0,0,2791,30678,1,444.0,0.0,36.0,1800,0,0,0,0,931.2,7.682,0.0
0,0,2796,30728,1,444.0,0.0,36.0,1800,0,0,0,0,931.2,6.983,0.0
0,0,2801,30778,1,444.0,0.0,36.0,1800,0,0,0,0,931.2,6.983,0.0
0,0,2806,30828,1,444.0,0.0,36.0,1800,0,0,0,0,931.2,6.983,0.0
0,0,2811,30878,1,444.0,0.0,36.0,1800,0,0,0,0,931.2,6.983,0.0
0,0,2816,30928,1,444.0,0.0,36.0,1800,0,0,0,0,931.2,6.983,0.0
0,0,2821,30978,1,444.0,0.0,36.0,1800,0,0,0,0,931.2,6.983,0.0
0,0,2826,31029,1,444.0,0.0,36.0,1800,0,0,0,0,931.2,6.983,0.0
0,0,2831,31079,1,444.0,0.0,36.0,1800,0,0,0,0,931.2,6.983,0.0
0,0,2836,31129,1,444.0,0.0,36.0,1800,0,0,0,0,931.2,6.983,0.0
0,0,2841,31179,1,444.0,0.0,36.0,1800,0,0,0,0,931.2,6.983,0.0
0,0,2846,31230,1,444.0,0.0,36.0,1800,0,0,0,0,931.2,6.983,0.0
0,0,2851,31280,1,444.0,0.0,36.0,1800,0,0,0,0,931.2,6.983,0.0
0,0,2856,31330,1,444.0,0.0,36.0,1800,0,0,0,0,931.2,6.983,0.0
0,0,2861,31380,1,444.0,0.0,36.0,1800,0,0,0,0,931.2,6.983,0.0
0,0,2866,31430,1,444.0,0.0,36.0,1800,0,0,0,0,931.2,6.983,0.0
0,0,2871,31480,1,444.0,0.0,36.0,1800,0,0,0,0,931.2,6.983,0.0
0,0,2876,31531,1,444.0,0.0,36.0,1800,0,0,0,0,931.2,7.682,0.0
0,0,2881,31581,1,444.0,0.0,36.0,1800,0,0,0,0,931.2,6.983,0.0
0,0,2886,31631,1,444.0,0.0,36.0,1800,0,0,0,0,931.2,6.983,0.0
0,0,2891,31681,1,444.0,0.0,36.0,1800,0,0,0,0,931.2,6.983,0.0
0,0,2896,31732,1,444.0,0.0,36.0,1800,0,0,0,0,931.2,6.983,0.0
0,0,2901,31782,1,444.0,0.0,36.0,1800,0,0,0,0,931.2,6.983,0.0
0,0,2906,31832,1,444.0,0.0,36.0,1800,0,0,0,0,931.2,6.983,0.0
0,0,2911,31882,1,444.0,0.0,36.0,1800,0,0,0,0,931.2,6.983,0.0
0,0,2916,31932,1,448.0,0.0,36.0,1800,0,0,0,0,931.2,6.983,0.0
0,0,2921,31982,1,448.0,0.0,36.0,1800,0,0,0,0,931.2,6.983,0.0
0,0,2926,32032,1,448.0,0.0,36.0,1800,0,0,0,0,931.2,6.983,0.0
0,0,2931,32083,1,448.0,0.0,36.0,1800,0,0,0,0,931.2,6.983,0.0
0,0,2936,32133,1,448.0,0.0,36.0,1800,0,0,0,0,931.2,6.983,0.0
0,0,2941,32183,1,448.0,0.0,36.0,1800,0,0,0,0,931.2,6.983,0.0
0,0,2946,32234,1,448.0,0.0,36.0,1800,0,0,0,0,931.2,6.983,0.0
0,0,2951,32284,1,448.0,0.0,36.0,1800,0,0,0,0,931.2,6.983,0.0
0,0,2956,32334,1,448.0,0.0,36.0,1800,0,0,0,0,931.2,6.983,0.0
0,0,2961,32384,1,448.0,0.0,36.0,1800,0,0,0,0,931.2,6.983,0.0
0,0,2966,32434,1,444.0,0.0,36.0,1800,0,0,0,0,931.2,6.983,0.0
0,0,2971,32484,1,444.0,0.0,36.0,1800,0,0,0,0,931.2,6.983,0.0
0,0,2976,32534,1,444.0,0.0,36.0,1800,0,0,0,0,931.2,6.983,0.0
0,0,2981,32585,1,444.0,0.0,36.0,1800,0,0,0,0,931.2,6.983,0.0
0,0,2986,32635,1,444.0,0.0,36.0,1800,0,0,0,0,931.2,6.983,0.0
0,0,2991,32685,1,444.0,0.0,36.0,1800,0,0,0,0,931.2,6.983,0.0
0,0,2996,32736,1,444.0,0.0,36.0,1800,0,0,0,0,931.2,6.983,0.0
0,0,3001,32786,1,444.0,0.0,36.0,1800,0,0,0,0,931.2,6.983,0.0
0,0,3006,32836,1,444.0,0.0,36.0,1800,0,0,0,0,931.2,6.983,0.0
0,0,3011,32886,1,444.0,0.0,36.0,1800,0,0,0,0,931.2,6.983,0.0
0,0,3016,32936,1,444.0,0.0,36.0,1800,0,0,0,0,931.2,6.983,0.0
0,0,3021,32986,1,444.0,0.0,36.0,1800,0,0,0,0,931.2,6.983,0.0
0,0,3026,33036,1,444.0,0.0,36.0,1800,0,0,0,0,931.2,6.983,0.0
0,0,3031,33087,1,444.0,0.0,36.0,1800,0,0,0,0,931.2,6.983,0.0
0,0,3036,33137,1,444.0,0.0,36.0,1800,0,0,0,0,931.2,6.983,0.0
0,0,3041,33187,1,444.0,0.0,36.0,1800,0,0,0,0,931.2,6.983,0.0
0,0,3046,33238,1,444.0,0.0,36.0,1800,0,0,0,0,931.2,7.682,0.0
0,0,3051,33288,1,444.0,0.0,36.0,1800,0,0,0,0,931.2,6.983,0.0
0,0,3056,33338,1,444.0,0.0,36.0,1800,0,0,0,0,931.2,6.983,0.0
0,0,3061,33388,1,448.0,0.0,36.0,1800,0,0,0,0,931.2,6.983,0.0
0,0,3066,33438,1,448.0,0.0,36.0,1800,0,0,0,0,931.2,6.983,0.0
0,0,3071,33488,1,444.0,0.0,36.0,1800,0,0,0,0,931.2,6.983,0.0
0,0,3076,33538,1,444.0,0.0,36.0,1800,0,0,0,0,931.2,6.983,0.0
0,0,3081,33589,1,444.0,0.0,36.0,1800,0,0,0,0,931.2,6.983,0.0
0,0,3086,33639,1,444.0,0.0,36.0,1800,0,0,0,0,931.2,6.983,0.0
0,0,3091,33689,1,440.0,0.0,36.0,1800,0,0,0,0,931.2,6.983,0.0
0,0,3096,33739,1,440.0,0.0,36.0,1800,0,0,0,0,931.2,6.983,0.0
0,0,3101,33790,1,440.0,0.0,36.0,1800,0,0,0,0,931.2,6.983,0.0
0,0,3106,33840,1,440.0,0.0,36.0,1800,0,0,0,0,931.2,6.983,0.0
0,0,3111,33890,1,440.0,0.0,36.0,1800,0,0,0,0,931.2,6.983,0.0
0,0,3116,33940,1,440.0,0.0,36.0,1800,0,0,0,0,931.2,6.983,0.0
0,0,3121,33990,1,440.0,0.0,36.0,1800,0,0,0,0,931.2,6.983,0.0
0,0,3126,34040,1,440.0,0.0,36.0,1800,0,0,0,0,931.2,6.983,0.0
0,0,3131,34091,1,440.0,0.0,36.0,1800,0,0,0,0,931.2,7.682,0.0
0,0,3136,34141,1,440.0,0.0,36.0,1800,0,0,0,0,931.2,6.983,0.0
0,0,3141,34191,1,440.0,0.0,36.0,1800,0,0,0,0,931.2,6.983,0.0
0,0,3146,34241,1,440.0,0.0,36.0,1800,0,0,0,0,931.2,6.983,0.0
0,0,3151,34292,1,436.0,0.0,36.0,1800,0,0,0,0,931.2,6.983,0.0
0,0,3156,34342,1,436.0,0.0,36.0,1800,0,0,0,0,931.2,6.983,0.0
0,0,3161,34392,1,436.0,0.0,36.0,1800,0,0,0,0,931.2,6.983,0.0
0,0,3166,34442,1,436.0,0.0,36.0,1800,0,0,0,0,931.2,6.983,0.0
0,0,3171,34492,1,436.0,0.0,36.0,1800,0,0,0,0,931.2,6.983,0.0
0,0,3176,34542,1,436.0,0.0,36.0,1800,0,0,0,0,931.2,6.983,0.0
0,0,3181,34592,1,436.0,0.0,36.0,1800,0,0,0,0,931.2,6.983,0.0
0,0,3186,34643,1,436.0,0.0,36.0,1800,0,0,0,0,931.2,6.983,0.0
0,0,3191,34693,1,440.0,0.0,36.0,1800,0,0,0,0,931.2,6.983,0.0
0,0,3196,34743,1,440.0,0.0,36.0,1800,0,0,0,0,931.2,6.983,0.0
0,0,3201,34794,1,440.0,0.0,36.0,1800,0,0,0,0,931.2,6.983,0.0
0,0,3206,34844,1,444.0,0.0,36.0,1800,0,0,0,0,931.2,6.983,0.0
0,0,3211,34894,1,444.0,0.0,36.0,1800,0,0,0,0,931.2,6.983,0.0
0,0,3216,34944,1,444.0,0.0,36.0,1800,0,0,0,0,931.2,6.983,0.0
0,0,3221,34994,1,444.0,0.0,36.0,1800,0,0,0,0,931.2,6.983,0.0
0,0,3226,35044,1,444.0,0.0,36.0,1800,0,0,0,0,931.2,6.983,0.0
0,0,3231,35094,1,444.0,0.0,36.0,1800,0,0,0,0,931.2,6.983,0.0
0,0,3236,35145,1,444.0,0.0,36.0,1800,0,0,0,0,931.2,6.983,0.0
0,0,3241,35195,1,444.0,0.0,36.0,1800,0,0,0,0,931.2,6.983,0.0
0,0,3246,35245,1,444.0,0.0,36.0,1800,0,0,0,0,931.2,6.983,0.0
0,0,3251,35296,1,444.0,0.0,36.0,1800,0,0,0,0,931.2,6.983,0.0
0,0,3256,35346,1,444.0,0.0,36.0,1800,0,0,0,0,931.2,6.983,0.0
0,0,3261,35396,1,444.0,0.0,36.0,1800,0,0,0,0,931.2,6.983,0.0
0,0,3266,35446,1,444.0,0.0,36.0,1800,0,0,0,0,931.2,6.983,0.0
0,0,3271,35496,1,444.0,0.0,36.0,1800,0,0,0,0,931.2,6.983,0.0
0,0,3276,35546,1,444.0,0.0,36.0,1800,0,0,0,0,931.2,6.983,0.0
0,0,3281,35596,1,444.0,0.0,36.0,1800,0,0,0,0,931.2,6.983,0.0
0,0,3286,35647,1,444.0,0.0,36.0,1800,0,0,0,0,931.2,6.983,0.0
0,0,3291,35697,1,444.0,0.0,36.0,1800,0,0,0,0,931.2,6.983,0.0
0,0,3296,35747,1,444.0,0.0,36.0,1800,0,0,0,0,931.2,6.983,0.0
0,0,3301,35798,1,444.0,0.0,36.0,1800,0,0,0,0,931.2,7.682,0.0
0,0,3306,35848,1,444.0,0.0,36.0,1800,0,0,0,0,931.2,6.983,0.0
0,0,3311,35898,1,444.0,0.0,36.0,1800,0,0,0,0,931.2,6.983,0.0
0,0,3316,35948,1,444.0,0.0,36.0,1800,0,0,0,0,931.2,6.983,0.0
0,0,3321,35998,1,444.0,0.0,36.0,1800,0,0,0,0,931.2,6.983,0.0
0,0,3326,36048,1,444.0,0.0,36.0,1800,0,0,0,0,931.2,6.983,0.0
0,0,3331,36098,1,444.0,0.0,36.0,1800,0,0,0,0,931.2,6.983,0.0
0,0,3336,36149,1,444.0,0.0,36.0,1800,0,0,0,0,931.2,6.983,0.0
0,0,3341,36199,1,444.0,0.0,36.0,1800,0,0,0,0,931.2,6.983,0.0
0,0,3346,36249,1,444.0,0.0,36.0,1800,0,0,0,0,931.2,6.983,0.0
0,0,3351,36299,1,444.0,0.0,36.0,1800,0,0,0,0,931.2,6.983,0.0
0,0,3356,36350,1,444.0,0.0,36.0,1800,0,0,0,0,931.2,6.983,0.0
0,0,3361,36400,1,444.0,0.0,36.0,1800,0,0,0,0,931.2,6.983,0.0
0,0,3366,36450,1,444.0,0.0,36.0,1800,0,0,0,0,931.2,6.983,0.0
0,0,3371,36500,1,444.0,0.0,36.0,1800,0,0,0,0,931.2,6.983,0.0
0,0,3376,36550,1,444.0,0.0,36.0,1800,0,0,0,0,931.2,6.983,0.0
0,0,3381,36600,1,444.0,0.0,36.0,1800,0,0,0,0,931.2,6.983,0.0
0,0,3386,36651,1,444.0,0.0,36.0,1800,0,0,0,0,931.2,7.682,0.0
0,0,3391,36701,1,444.0,0.0,36.0,1800,0,0,0,0,931.2,6.983,0.0
0,0,3396,36751,1,444.0,0.0,36.0,1800,0,0,0,0,931.2,6.983,0.0
0,0,3401,36801,1,444.0,0.0,36.0,1800,0,0,0,0,931.2,6.983,0.0
0,0,3406,36852,1,444.0,0.0,36.0,1800,0,0,0,0,931.2,6.983,0.0
0,0,3411,36902,1,440.0,0.0,36.0,1800,0,0,0,0,931.2,6.983,0.0
0,0,3416,36952,1,440.0,0.0,36.0,1800,0,0,0,0,931.2,6.983,0.0
0,0,3421,37002,1,440.0,0.0,36.0,1800,0,0,0,0,931.2,6.983,0.0
0,0,3426,37052,1,440.0,0.0,36.0,1800,0,0,0,0,931.2,6.983,0.0
0,0,3431,37102,1,432.0,0.0,36.0,1800,0,0,0,0,931.2,6.983,0.0
0,0,3436,37152,1,432.0,0.0,36.0,1800,0,0,0,0,931.2,6.983,0.0
0,0,3441,37203,1,432.0,0.0,36.0,1800,0,0,0,0,931.2,6.983,0.0
0,0,3446,37253,1,432.0,0.0,36.0,1800,0,0,0,0,931.2,6.983,0.0
0,0,3451,37303,1,432.0,0.0,36.0,1800,0,0,0,0,931.2,6.983,0.0
0,0,3456,37354,1,432.0,0.0,36.0,1800,0,0,0,0,931.2,6.983,0.0
0,0,3461,37404,1,432.0,0.0,36.0,1800,0,0,0,0,931.2,6.983,0.0
0,0,3466,37454,1,432.0,0.0,36.0,1800,0,0,0,0,931.2,6.983,0.0
0,0,3471,37504,1,428.0,0.0,36.0,1800,0,0,0,0,931.2,6.983,0.0
0,0,3476,37554,1,428.0,0.0,36.0,1800,0,0,0,0,931.2,6.983,0.0
0,0,3481,37604,1,424.0,0.0,36.0,1800,0,0,0,0,931.2,6.983,0.0
0,0,3486,37654,1,424.0,0.0,36.0,1800,0,0,0,0,931.2,6.983,0.0
0,0,3491,37705,1,424.0,0.0,36.0,1800,0,0,0,0,931.2,6.983,0.0
0,0,3496,37755,1,424.0,0.0,36.0,1800,0,0,0,0,931.2,6.983,0.0
0,0,3501,37805,1,424.0,0.0,36.0,1800,0,0,0,0,931.2,6.983,0.0
0,0,3506,37856,1,424.0,0.0,36.0,1800,0,0,0,0,931.2,6.983,0.0
0,0,3511,37906,1,440.0,0.0,36.0,1800,0,0,0,0,931.2,6.983,0.0
0,0,3516,37956,1,440.0,0.0,36.0,1800,0,0,0,0,931.2,6.983,0.0
0,0,3521,38006,1,440.0,0.0,36.0,1800,0,0,0,0,931.2,6.983,0.0
0,0,3526,38056,1,440.0,0.0,36.0,1800,0,0,0,0,931.2,6.983,0.0
0,0,3531,38106,1,440.0,0.0,36.0,1800,0,0,0,0,931.2,6.983,0.0
0,0,3536,38156,1,440.0,0.0,36.0,1800,0,0,0,0,931.2,6.983,0.0
0,0,3541,38207,1,440.0,0.0,36.0,1800,0,0,0,0,931.2,6.983,0.0
0,0,3546,38257,1,440.0,0.0,36.0,1800,0,0,0,0,931.2,6.983,0.0
0,0,3551,38307,1,440.0,0.0,36.0,1800,0,0,0,0,931.2,6.983,0.0
0,0,3556,38358,1,440.0,0.0,36.0,1800,0,0,0,0,931.2,7.682,0.0
0,0,3561,38408,1,440.0,0.0,36.0,1800,0,0,0,0,931.2,6.983,0.0
0,0,3566,38458,1,440.0,0.0,36.0,1800,0,0,0,0,931.2,6.983,0.0
0,0,3571,38508,1,440.0,0.0,36.0,1800,0,0,0,0,931.2,6.983,0.0
0,0,3576,38558,1,440.0,0.0,36.0,1800,0,0,0,0,931.2,6.983,0.0
0,0,3581,38608,1,440.0,0.0,36.0,1800,0,0,0,0,931.2,6.983,0.0
0,0,3586,38658,1,440.0,0.0,36.0,1800,0,0,0,0,931.2,6.983,0.0
0,0,3591,38709,1,440.0,0.0,36.0,1800,0,0,0,0,931.2,6.983,0.0
0,0,3596,38759,1,440.0,0.0,36.0,1800,0,0,0,0,931.2,6.983,0.0
0,0,3601,38809,1,440.0,0.0,36.0,1800,0,0,0,0,931.2,6.983,0.0
0,0,3606,38859,1,440.0,0.0,36.0,1800,0,0,0,0,931.2,6.983,0.0
0,0,3611,38910,1,436.0,0.0,36.0,1800,0,0,0,0,931.2,6.983,0.0
0,0,3616,38960,1,436.0,0.0,36.0,1800,0,0,0,0,931.2,6.983,0.0
0,0,3621,39010,1,436.0,0.0,28.0,1800,0,0,0,0,937.6,7.032,64.0
0,0,3626,39060,1,436.0,0.0,28.0,1800,0,0,0,0,937.6,7.032,64.0
0,0,3631,39110,1,436.0,0.0,28.0,1800,0,0,0,0,937.6,7.032,0.0
0,0,3636,39160,1,408.0,0.0,36.0,1800,0,0,0,0,931.2,6.983,-64.0
0,0,3641,39211,1,408.0,0.0,40.0,1800,0,0,0,0,928.0,7.656,-96.0
0,0,3646,39261,1,400.0,0.0,64.0,1691,0,0,0,0,908.8,6.816,-224.0
0,0,3651,39311,1,400.0,0.0,144.0,1019,0,0,0,0,844.8,6.336,-832.0
0,0,3656,39361,1,392.0,0.0,212.0,1000,0,0,0,0,790.4,5.928,-1184.0
0,0,3661,39412,1,392.0,0.0,252.0,1000,0,0,0,0,758.4,5.687,-858.1
0,0,3666,39462,1,372.0,0.0,256.0,1414,0,0,0,0,755.2,5.664,-346.1
0,0,3671,39512,1,372.0,0.0,276.0,1552,0,0,0,0,739.2,5.544,-192.0
0,0,3676,39562,1,360.0,0.0,256.0,1760,0,0,0,0,755.2,5.664,0.0
0,0,3681,39612,1,360.0,0.0,344.0,1145,0,0,0,0,684.8,5.135,-544.0
0,0,3686,39662,1,344.0,0.0,368.0,1000,0,0,0,0,665.6,4.992,-896.0
0,0,3691,39712,1,344.0,0.0,296.0,1800,0,0,0,0,723.2,5.424,384.0
0,0,3696,39763,1,300.0,0.0,260.0,1800,0,0,0,0,752.0,5.64,861.0
0,0,3701,39813,1,300.0,0.0,252.0,1800,0,0,0,0,758.4,5.687,349.0
0,0,3706,39863,1,300.0,0.0,260.0,1757,0,0,0,0,752.0,5.64,0.0
0,0,3711,39914,1,300.0,0.0,256.0,1728,0,0,0,0,755.2,5.664,-32.0
0,0,3716,39964,1,300.0,0.0,236.0,1800,0,0,0,0,771.2,5.784,192.0
0,0,3721,40014,1,300.0,0.0,208.0,1800,0,0,0,0,793.6,5.952,384.0
0,0,3726,40064,1,300.0,0.0,212.0,1800,0,0,0,0,790.4,5.928,192.0
0,0,3731,40114,1,300.0,0.0,184.0,1800,0,0,0,0,812.8,6.096,192.0
0,0,3736,40164,1,300.0,0.0,156.0,1800,0,0,0,0,835.2,6.264,448.0
0,0,3741,40214,1,300.0,0.0,132.0,1800,0,0,0,0,854.4,6.408,416.0
0,0,3746,40265,1,304.0,0.0,112.0,1800,0,0,0,0,870.4,6.528,354.9
0,0,3751,40315,1,304.0,0.0,112.0,1800,0,0,0,0,870.4,6.528,162.9
0,0,3756,40365,1,376.0,0.0,92.0,1800,0,0,0,0,886.4,6.648,160.0
0,0,3761,40416,1,376.0,0.0,92.0,1800,0,0,0,0,886.4,6.648,157.09
0,0,3766,40466,1,376.0,0.0,140.0,1467,0,0,0,0,848.0,6.36,-386.9
0,0,3771,40516,1,376.0,0.0,164.0,1259,0,0,0,0,828.8,6.216,-576.0
0,0,3776,40566,1,400.0,0.0,204.0,1290,0,0,0,0,796.8,5.976,-512.0
0,0,3781,40616,1,400.0,0.0,132.0,1800,0,0,0,0,854.4,6.408,256.0
0,0,3786,40666,1,492.0,0.0,200.0,1800,0,0,0,0,800.0,6.0,32.0
0,0,3791,40716,1,492.0,0.0,212.0,1156,0,0,0,0,790.4,5.928,-640.0
0,0,3796,40767,1,512.0,0.0,188.0,1800,0,0,0,0,809.6,6.072,96.0
0,0,3801,40817,1,512.0,0.0,160.0,1800,0,0,0,0,832.0,6.24,416.0
0,0,3806,40867,1,1280.0,0.0,164.0,1800,0,0,0,0,828.8,6.216,192.0
0,0,3811,40918,1,1280.0,0.0,144.0,1800,0,0,0,0,844.8,6.969,125.09
0,0,3816,40968,1,1280.0,0.0,160.0,1800,0,0,0,0,832.0,6.24,29.09
0,0,3821,41018,1,1280.0,0.0,152.0,1780,0,0,0,0,838.4,6.288,-64.0
0,0,3826,41068,1,1280.0,0.0,136.0,1800,0,0,0,0,851.2,6.384,192.0
0,0,3831,41118,1,1280.0,0.0,132.0,1800,0,0,0,0,854.4,6.408,160.0
0,0,3836,41168,1,480.0,0.0,124.0,1800,0,0,0,0,860.8,6.456,96.0
0,0,3841,41218,1,480.0,0.0,144.0,1755,0,0,0,0,844.8,6.336,-96.0
0,0,3846,41269,1,480.0,0.0,128.0,1800,0,0,0,0,857.6,6.431,-32.0
0,0,3851,41319,1,476.0,0.0,104.0,1800,0,0,0,0,876.8,6.576,320.0
0,0,3856,41369,1,476.0,0.0,128.0,1800,0,0,0,0,857.6,6.431,0.0
0,0,3861,41419,1,480.0,0.0,112.0,1800,0,0,0,0,870.4,6.528,-64.0
0,0,3866,41470,1,480.0,0.0,88.0,1800,0,0,0,0,889.6,6.672,317.0
0,0,3871,41520,1,500.0,0.0,96.0,1800,0,0,0,0,883.2,6.624,125.09
0,0,3876,41570,1,500.0,0.0,84.0,1800,0,0,0,0,892.8,6.696,32.0
0,0,3881,41620,1,500.0,0.0,84.0,1800,0,0,0,0,892.8,6.696,96.0
0,0,3886,41670,1,500.0,0.0,92.0,1800,0,0,0,0,886.4,6.648,-64.0
0,0,3891,41720,1,488.0,0.0,112.0,1652,0,0,0,0,870.4,6.528,-224.0
0,0,3896,41771,1,488.0,0.0,88.0,1800,0,0,0,0,889.6,7.339,29.09
0,0,3901,41821,1,500.0,0.0,120.0,1800,0,0,0,0,864.0,6.48,-66.9
0,0,3906,41871,1,500.0,0.0,80.0,1800,0,0,0,0,896.0,6.72,64.0
0,0,3911,41921,1,500.0,0.0,52.0,1800,0,0,0,0,918.4,6.888,544.0
0,0,3916,41972,1,500.0,0.0,60.0,1800,0,0,0,0,912.0,6.84,160.0
0,0,3921,42022,1,900.0,0.0,56.0,1800,0,0,0,0,915.2,6.864,-32.0
0,0,3926,42072,1,900.0,0.0,44.0,1800,0,0,0,0,924.8,6.936,128.0
0,0,3931,42122,1,900.0,0.0,28.0,1800,0,0,0,0,937.6,7.032,224.0
0,0,3936,42172,1,900.0,0.0,28.0,1800,0,0,0,0,937.6,7.032,128.0
0,0,3941,42222,1,900.0,0.0,28.0,1800,0,0,0,0,937.6,7.032,0.0
0,0,3946,42272,1,900.0,0.0,28.0,1800,0,0,0,0,937.6,7.032,0.0
0,0,3951,42323,1,868.0,0.0,28.0,1800,0,0,0,0,937.6,7.032,0.0
0,0,3956,42373,1,868.0,0.0,28.0,1800,0,0,0,0,937.6,7.032,0.0
0,0,3961,42423,1,868.0,0.0,28.0,1800,0,0,0,0,937.6,7.032,0.0
0,0,3966,42474,1,868.0,0.0,28.0,1800,0,0,0,0,937.6,7.032,0.0
0,0,3971,42524,1,868.0,0.0,28.0,1800,0,0,0,0,937.6,7.032,0.0
0,0,3976,42574,1,868.0,0.0,28.0,1800,0,0,0,0,937.6,7.032,0.0
0,0,3981,42624,1,1036.0,0.0,28.0,1800,0,0,0,0,937.6,7.032,0.0
0,0,3986,42674,1,1036.0,0.0,28.0,1800,0,0,0,0,937.6,7.032,0.0
0,0,3991,42724,1,1440.0,0.0,28.0,1800,0,0,0,0,937.6,7.032,0.0
0,0,3996,42774,1,1440.0,0.0,28.0,1800,0,0,0,0,937.6,7.032,0.0
0,0,4001,42825,1,1544.0,0.0,28.0,1800,0,0,0,0,937.6,7.032,0.0
0,0,4006,42875,1,1544.0,0.0,28.0,1800,0,0,0,0,937.6,7.032,0.0
0,0,4011,42925,1,1544.0,0.0,28.0,1800,0,0,0,0,937.6,7.032,0.0
0,0,4016,42976,1,1544.0,0.0,28.0,1800,0,0,0,0,937.6,7.032,0.0
0,0,4021,43026,1,1648.0,0.0,28.0,1800,0,0,0,0,937.6,7.032,0.0
0,0,4026,43076,1,1648.0,0.0,28.0,1800,0,0,0,0,937.6,7.032,0.0
0,0,4031,43126,1,1648.0,0.0,28.0,1800,0,0,0,0,937.6,7.032,0.0
0,0,4036,43176,1,1648.0,0.0,28.0,1800,0,0,0,0,937.6,7.032,0.0
0,0,4041,43226,1,1648.0,0.0,28.0,1800,0,0,0,0,937.6,7.032,0.0
0,0,4046,43276,1,1648.0,0.0,28.0,1800,0,0,0,0,937.6,7.032,0.0
0,0,4051,43327,1,1636.0,0.0,28.0,1800,0,0,0,0,937.6,7.032,0.0
0,0,4056,43377,1,1636.0,0.0,28.0,1800,0,0,0,0,937.6,7.032,0.0
0,0,4061,43427,1,1636.0,0.0,28.0,1800,0,0,0,0,937.6,7.032,0.0
0,0,4066,43478,1,1636.0,0.0,28.0,1800,0,0,0,0,937.6,7.735,0.0
0,0,4071,43528,0,1636.0,0.0,28.0,1800,0,0,0,0,937.6,14.064,0.0
0,0,4076,43578,1,1548.0,0.0,28.0,1800,0,0,0,0,937.6,7.032,0.0
0,0,4081,43628,1,1548.0,0.0,28.0,1800,0,0,0,0,937.6,7.032,0.0
0,0,4086,43678,1,1524.0,0.0,28.0,1800,0,0,0,0,937.6,7.032,0.0
0,0,4091,43728,1,1524.0,0.0,28.0,1800,0,0,0,0,937.6,7.032,0.0
0,0,0,43778,1,1524.0,0.0,28.0,1800,0,0,0,0,937.6,7.032,0.0
0,0,5,43829,0,1524.0,0.0,28.0,1800,0,0,0,0,937.6,14.767,0.0
0,0,10,43879,1,1520.0,0.0,28.0,1800,0,0,0,0,937.6,7.032,0.0
0,0,15,43929,1,1520.0,0.0,28.0,1800,0,0,0,0,937.6,7.032,0.0
0,0,20,43979,1,1520.0,0.0,28.0,1800,0,0,0,0,937.6,7.032,0.0
0,0,25,44030,1,1520.0,0.0,28.0,1800,0,0,0,0,937.6,7.032,0.0
0,0,30,44080,1,1376.0,0.0,28.0,1800,0,0,0,0,937.6,7.032,0.0
0,0,35,44130,1,1376.0,0.0,28.0,1800,0,0,0,0,937.6,7.032,0.0
0,0,40,44180,1,1336.0,0.0,28.0,1800,0,0,0,0,937.6,7.032,0.0
0,0,45,44230,1,1336.0,0.0,28.0,1800,0,0,0,0,937.6,7.032,0.0
0,0,50,44280,1,1296.0,0.0,28.0,1800,0,0,0,0,937.6,7.032,0.0
0,0,55,44331,1,1296.0,0.0,28.0,1800,0,0,0,0,937.6,7.735,0.0
0,0,60,44381,1,1212.0,0.0,28.0,1800,0,0,0,0,937.6,7.032,0.0
0,0,65,44431,1,1212.0,0.0,28.0,1800,0,0,0,0,937.6,7.032,0.0
0,0,70,44481,1,1120.0,0.0,28.0,1800,0,0,0,0,937.6,7.032,0.0
0,0,75,44532,1,1120.0,0.0,28.0,1800,0,0,0,0,937.6,7.032,0.0
0,0,80,44582,1,876.0,0.0,28.0,1800,0,0,0,0,937.6,7.032,0.0
0,0,85,44632,1,876.0,0.0,28.0,1800,0,0,0,0,937.6,7.032,0.0
0,0,90,44682,1,876.0,0.0,28.0,1800,0,0,0,0,937.6,7.032,0.0
0,0,95,44732,1,876.0,0.0,28.0,1800,0,0,0,0,937.6,7.032,0.0
0,0,100,44782,1,904.0,0.0,28.0,1800,0,0,0,0,937.6,7.032,0.0
0,0,105,44832,1,904.0,0.0,28.0,1800,0,0,0,0,937.6,7.032,0.0
0,0,110,44883,1,904.0,0.0,28.0,1800,0,0,0,0,937.6,7.032,0.0
0,0,115,44933,1,904.0,0.0,28.0,1800,0,0,0,0,937.6,7.032,0.0
0,0,120,44983,1,904.0,0.0,28.0,1800,0,0,0,0,937.6,7.032,0.0
0,0,125,45034,1,904.0,0.0,28.0,1800,0,0,0,0,937.6,7.032,0.0
0,0,130,45084,1,904.0,0.0,28.0,1800,0,0,0,0,937.6,7.032,0.0
0,0,135,45134,1,904.0,0.0,28.0,1800,0,0,0,0,937.6,7.032,0.0
0,0,140,45184,1,884.0,0.0,28.0,1800,0,0,0,0,937.6,7.032,0.0
0,0,145,45234,1,884.0,0.0,28.0,1800,0,0,0,0,937.6,7.032,0.0
0,0,150,45284,1,872.0,0.0,28.0,1800,0,0,0,0,937.6,7.032,0.0
0,0,155,45334,1,872.0,0.0,28.0,1800,0,0,0,0,937.6,7.032,0.0
0,0,160,45385,1,872.0,0.0,28.0,1800,0,0,0,0,937.6,7.032,0.0
0,0,165,45435,1,872.0,0.0,28.0,1800,0,0,0,0,937.6,7.032,0.0
0,0,170,45485,1,872.0,0.0,28.0,1800,0,0,0,0,937.6,7.032,0.0
0,0,175,45536,1,872.0,0.0,28.0,1800,0,0,0,0,937.6,7.032,0.0
0,0,180,45586,1,872.0,0.0,28.0,1800,0,0,0,0,937.6,7.032,0.0
0,0,185,45636,1,872.0,0.0,28.0,1800,0,0,0,0,937.6,7.032,0.0
0,0,190,45686,1,872.0,0.0,28.0,1800,0,0,0,0,937.6,7.032,0.0
0,0,195,45736,1,872.0,0.0,28.0,1800,0,0,0,0,937.6,7.032,0.0
0,0,200,45786,1,872.0,0.0,28.0,1800,0,0,0,0,937.6,7.032,0.0
0,0,205,45836,1,768.0,0.0,28.0,1800,0,0,0,0,937.6,7.032,0.0
0,0,210,45887,1,768.0,0.0,28.0,1800,0,0,0,0,937.6,7.032,0.0
0,0,215,45937,1,768.0,0.0,28.0,1800,0,0,0,0,937.6,7.032,0.0
0,0,220,45987,1,768.0,0.0,28.0,1800,0,0,0,0,937.6,7.032,0.0
0,0,225,46038,1,768.0,0.0,28.0,1800,0,0,0,0,937.6,7.735,0.0
0,0,230,46088,1,768.0,0.0,28.0,1800,0,0,0,0,937.6,7.032,0.0
0,0,235,46138,1,1328.0,0.0,28.0,1800,0,0,0,0,937.6,7.032,0.0
0,0,240,46188,1,1328.0,0.0,28.0,1800,0,0,0,0,937.6,7.032,0.0
0,0,245,46238,1,1336.0,0.0,28.0,1800,0,0,0,0,937.6,7.032,0.0
0,0,250,46288,1,1336.0,0.0,28.0,1800,0,0,0,0,937.6,7.032,0.0
0,0,255,46338,1,1340.0,0.0,28.0,1800,0,0,0,0,937.6,7.032,0.0
0,0,260,46389,1,1340.0,0.0,28.0,1800,0,0,0,0,937.6,7.032,0.0
0,0,265,46439,1,1340.0,0.0,28.0,1800,0,0,0,0,937.6,7.032,0.0
0,0,270,46489,1,1340.0,0.0,28.0,1800,0,0,0,0,937.6,7.032,0.0
0,0,275,46539,1,1340.0,0.0,28.0,1800,0,0,0,0,937.6,7.032,0.0
0,0,280,46590,1,1340.0,0.0,28.0,1800,0,0,0,0,937.6,7.032,0.0
0,0,285,46640,1,1356.0,0.0,28.0,1800,0,0,0,0,937.6,7.032,0.0
0,0,290,46690,1,1356.0,0.0,28.0,1800,0,0,0,0,937.6,7.032,0.0
0,0,295,46740,1,1356.0,0.0,28.0,1800,0,0,0,0,937.6,7.032,0.0
0,0,300,46790,1,1356.0,0.0,28.0,1800,0,0,0,0,937.6,7.032,0.0
0,0,305,46840,1,1356.0,0.0,28.0,1800,0,0,0,0,937.6,7.032,0.0
0,0,310,46891,1,1356.0,0.0,28.0,1800,0,0,0,0,937.6,7.735,0.0
0,0,315,46941,1,1348.0,0.0,28.0,1800,0,0,0,0,937.6,7.032,0.0
0,0,320,46991,1,1348.0,0.0,28.0,1800,0,0,0,0,937.6,7.032,0.0
0,0,325,47041,1,1344.0,0.0,28.0,1800,0,0,0,0,937.6,7.032,0.0
0,0,330,47092,1,1344.0,0.0,28.0,1800,0,0,0,0,937.6,7.032,0.0
0,0,335,47142,1,1308.0,0.0,28.0,1800,0,0,0,0,937.6,7.032,0.0
0,0,340,47192,1,1308.0,0.0,28.0,1800,0,0,0,0,937.6,7.032,0.0
0,0,345,47242,1,1284.0,0.0,28.0,1800,0,0,0,0,937.6,7.032,0.0
0,0,350,47292,1,1284.0,0.0,28.0,1800,0,0,0,0,937.6,7.032,0.0
0,0,355,47342,1,1232.0,0.0,28.0,1800,0,0,0,0,937.6,7.032,0.0
0,0,360,47392,1,1232.0,0.0,28.0,1800,0,0,0,0,937.6,7.032,0.0
0,0,365,47443,1,1232.0,0.0,28.0,1800,0,0,0,0,937.6,7.032,0.0
0,0,370,47493,1,1232.0,0.0,28.0,1800,0,0,0,0,937.6,7.032,0.0
0,0,375,47543,1,1228.0,0.0,28.0,1800,0,0,0,0,937.6,7.032,0.0
0,0,380,47594,1,1124.0,0.0,28.0,1800,0,0,0,0,937.6,7.032,0.0
0,0,385,47644,1,1124.0,0.0,28.0,1800,0,0,0,0,937.6,7.032,0.0
0,0,390,47694,1,1068.0,0.0,28.0,1800,0,0,0,0,937.6,7.032,0.0
0,0,395,47744,1,1068.0,0.0,28.0,1800,0,0,0,0,937.6,7.032,0.0
0,0,400,47794,1,1016.0,0.0,28.0,1800,0,0,0,0,937.6,7.032,0.0
0,0,405,47844,1,1016.0,0.0,28.0,1800,0,0,0,0,937.6,7.032,0.0
0,0,410,47894,1,1016.0,0.0,28.0,1800,0,0,0,0,937.6,7.032,0.0
0,0,415,47945,1,1016.0,0.0,28.0,1800,0,0,0,0,937.6,7.032,0.0
0,0,420,47995,1,1004.0,0.0,28.0,1800,0,0,0,0,937.6,7.032,0.0
0,0,425,48045,1,1004.0,0.0,28.0,1800,0,0,0,0,937.6,7.032,0.0
0,0,430,48096,1,988.0,0.0,28.0,1800,0,0,0,0,937.6,7.032,0.0
0,0,435,48146,1,988.0,0.0,28.0,1800,0,0,0,0,937.6,7.032,0.0
0,0,440,48196,1,844.0,0.0,28.0,1800,0,0,0,0,937.6,7.032,0.0
0,0,445,48246,1,844.0,0.0,28.0,1800,0,0,0,0,937.6,7.032,0.0
0,0,450,48296,1,812.0,0.0,28.0,1800,0,0,0,0,937.6,7.032,0.0
0,0,455,48346,1,812.0,0.0,28.0,1800,0,0,0,0,937.6,7.032,0.0
0,0,460,48396,1,724.0,0.0,28.0,1800,0,0,0,0,937.6,7.032,0.0
0,0,465,48447,1,724.0,0.0,28.0,1800,0,0,0,0,937.6,7.032,0.0
0,0,470,48497,1,696.0,0.0,28.0,1800,0,0,0,0,937.6,7.032,0.0
0,0,475,48547,1,696.0,0.0,28.0,1800,0,0,0,0,937.6,7.032,0.0
0,0,480,48598,1,664.0,0.0,28.0,1800,0,0,0,0,937.6,7.735,0.0
0,0,485,48648,1,664.0,0.0,28.0,1800,0,0,0,0,937.6,7.032,0.0
0,0,490,48698,1,656.0,0.0,28.0,1800,0,0,0,0,937.6,7.032,0.0
0,0,495,48748,1,656.0,0.0,28.0,1800,0,0,0,0,937.6,7.032,0.0
0,0,500,48798,1,644.0,0.0,28.0,1800,0,0,0,0,937.6,7.032,0.0
0,0,505,48848,1,644.0,0.0,28.0,1800,0,0,0,0,937.6,7.032,0.0
0,0,510,48898,1,620.0,0.0,28.0,1800,0,0,0,0,937.6,7.032,0.0
0,0,515,48949,1,620.0,0.0,28.0,1800,0,0,0,0,937.6,7.032,0.0
0,0,520,48999,1,580.0,0.0,28.0,1800,0,0,0,0,937.6,7.032,0.0
0,0,525,49049,1,580.0,0.0,28.0,1800,0,0,0,0,937.6,7.032,0.0
0,0,530,49099,1,552.0,0.0,28.0,1800,0,0,0,0,937.6,7.032,0.0
0,0,535,49150,1,552.0,0.0,28.0,1800,0,0,0,0,937.6,7.032,0.0
0,0,540,49200,1,524.0,0.0,28.0,1800,0,0,0,0,937.6,7.032,0.0
0,0,545,49250,1,524.0,0.0,28.0,1800,0,0,0,0,937.6,7.032,0.0
0,0,550,49300,1,468.0,0.0,28.0,1800,0,0,0,0,937.6,7.032,0.0
0,0,555,49350,1,468.0,0.0,28.0,1800,0,0,0,0,937.6,7.032,0.0
0,0,560,49400,1,456.0,0.0,28.0,1800,0,0,0,0,937.6,7.032,0.0
0,0,565,49451,1,456.0,0.0,28.0,1800,0,0,0,0,937.6,7.735,0.0
0,0,570,49501,1,448.0,0.0,28.0,1800,0,0,0,0,937.6,7.032,0.0
0,0,575,49551,1,448.0,0.0,28.0,1800,0,0,0,0,937.6,7.032,0.0
0,0,580,49601,1,444.0,0.0,28.0,1800,0,0,0,0,937.6,7.032,0.0
0,0,585,49652,1,444.0,0.0,28.0,1800,0,0,0,0,937.6,7.032,0.0
0,0,590,49702,1,444.0,0.0,28.0,1800,0,0,0,0,937.6,7.032,0.0
0,0,595,49752,1,444.0,0.0,28.0,1800,0,0,0,0,937.6,7.032,0.0
0,0,600,49802,1,444.0,0.0,28.0,1800,0,0,0,0,937.6,7.032,0.0
0,0,605,49852,1,444.0,0.0,28.0,1800,0,0,0,0,937.6,7.032,0.0
0,0,610,49902,1,444.0,0.0,28.0,1800,0,0,0,0,937.6,7.032,0.0
0,0,615,49952,1,444.0,0.0,28.0,1800,0,0,0,0,937.6,7.032,0.0
0,0,620,50003,1,444.0,0.0,28.0,1800,0,0,0,0,937.6,7.032,0.0
0,0,625,50053,1,420.0,0.0,28.0,1800,0,0,0,0,937.6,7.032,0.0
0,0,630,50103,1,420.0,0.0,28.0,1800,0,0,0,0,937.6,7.032,0.0
0,0,635,50154,1,420.0,0.0,28.0,1800,0,0,0,0,937.6,7.032,0.0
0,0,640,50204,1,420.0,0.0,28.0,1800,0,0,0,0,937.6,7.032,0.0
0,0,645,50254,1,404.0,0.0,28.0,1800,0,0,0,0,937.6,7.032,0.0
0,0,650,50304,1,404.0,0.0,28.0,1800,0,0,0,0,937.6,7.032,0.0
0,0,655,50354,1,404.0,0.0,28.0,1800,0,0,0,0,937.6,7.032,0.0
0,0,660,50404,1,404.0,0.0,28.0,1800,0,0,0,0,937.6,7.032,0.0
0,0,665,50454,1,404.0,0.0,28.0,1800,0,0,0,0,937.6,7.032,0.0
0,0,670,50505,1,404.0,0.0,28.0,1800,0,0,0,0,937.6,7.032,0.0
0,0,675,50555,1,404.0,0.0,28.0,1800,0,0,0,0,937.6,7.032,0.0
0,0,680,50605,1,404.0,0.0,28.0,1800,0,0,0,0,937.6,7.032,0.0
0,0,685,50656,1,404.0,0.0,28.0,1800,0,0,0,0,937.6,7.032,0.0
0,0,690,50706,1,404.0,0.0,28.0,1800,0,0,0,0,937.6,7.032,0.0
0,0,695,50756,1,408.0,0.0,28.0,1800,0,0,0,0,937.6,7.032,0.0
0,0,700,50806,1,408.0,0.0,28.0,1800,0,0,0,0,937.6,7.032,0.0
0,0,705,50856,1,408.0,0.0,28.0,1800,0,0,0,0,937.6,7.032,0.0
0,0,710,50906,1,408.0,0.0,28.0,1800,0,0,0,0,937.6,7.032,0.0
0,0,715,50956,1,432.0,0.0,28.0,1800,0,0,0,0,937.6,7.032,0.0
0,0,720,51007,1,432.0,0.0,28.0,1800,0,0,0,0,937.6,7.032,0.0
0,0,725,51057,1,432.0,0.0,28.0,1800,0,0,0,0,937.6,7.032,0.0
0,0,730,51107,1,432.0,0.0,28.0,1800,0,0,0,0,937.6,7.032,0.0
0,0,735,51158,1,432.0,0.0,28.0,1800,0,0,0,0,937.6,7.735,0.0
