InitialVarHeader,InitialVars,logNo,timeStep,controlMode,forwardSensor1,forwardSensor2,AltitudeSensor,throttleControl,yawControl,rollControl,pitchControl,stablilityModeControl,errorP,errorI,errorD
ALTITUDE_KP,0.6,6,2719,0,-12872.0,0.0,292.0,1000,0,0,0,0,0.0,0.0,0.0
ALTITUDE_KI,0.4,11,2769,0,-12872.0,0.0,292.0,1000,0,0,0,0,0.0,0.0,0.0
ALTITUDE_KD,0.01,16,2819,0,1396.0,0.0,296.0,1800,0,0,0,0,542.4,18.09,10848.0
THROTTLE_LIMIT,1800.0,21,2869,0,1396.0,0.0,288.0,1679,0,0,0,0,547.2,36.3,96.0
ALTITUDE_PID_GAIN_RATIO,1.0,26,2919,0,1400.0,0.0,292.0,1551,0,0,0,0,544.8,54.48,-48.0
ALTITUDE_HOVER_HEIGHT,1200.0,31,2969,0,1404.0,0.0,304.0,1466,0,0,0,0,537.6,72.59,-144.0
0,0,36,3019,0,1404.0,0.0,304.0,1628,0,0,0,0,537.6,90.51,0.0
0,0,41,3070,0,1480.0,0.0,300.0,1696,0,0,0,0,540.0,108.79,48.0
0,0,46,3120,0,1480.0,0.0,300.0,1666,0,0,0,0,540.0,126.79,0.0
0,0,51,3170,0,1480.0,0.0,296.0,1735,0,0,0,0,542.4,144.91,48.0
0,0,56,3220,0,1480.0,0.0,296.0,1705,0,0,0,0,542.4,162.96,0.0
0,0,61,3270,0,1480.0,0.0,296.0,1723,0,0,0,0,542.4,181.0,0.0
0,0,66,3320,0,1480.0,0.0,304.0,1640,0,0,0,0,537.6,198.9,-96.0
0,0,71,3371,0,1480.0,0.0,292.0,1800,0,0,0,0,544.8,217.3,139.63
0,0,76,3421,0,1480.0,0.0,296.0,1729,0,0,0,0,542.4,235.5,-48.0
0,0,81,3471,0,1480.0,0.0,300.0,1745,0,0,0,0,540.0,253.5,-48.0
0,0,86,3521,0,1480.0,0.0,292.0,1800,0,0,0,0,544.8,271.5,96.0
0,0,91,3572,0,1480.0,0.0,292.0,1800,0,0,0,0,544.8,290.1,0.0
0,0,96,3622,0,1480.0,0.0,296.0,1800,0,0,0,0,542.4,308.2,-48.0
0,0,101,3672,0,1480.0,0.0,296.0,1800,0,0,0,0,542.4,326.3,0.0
0,0,106,3722,0,1480.0,0.0,296.0,1800,0,0,0,0,542.4,344.4,0.0
0,0,111,3772,0,1480.0,0.0,292.0,1800,0,0,0,0,544.8,362.5,48.0
0,0,116,3822,0,1480.0,0.0,292.0,1800,0,0,0,0,544.8,380.6,0.0
0,0,121,3872,0,1480.0,0.0,296.0,1800,0,0,0,0,542.4,398.7,-48.0
0,0,126,3923,0,1480.0,0.0,288.0,1800,0,0,0,0,547.2,417.2,100.36
0,0,131,3973,0,1480.0,0.0,300.0,1800,0,0,0,0,540.0,435.3,-144.0
0,0,136,4023,0,1480.0,0.0,288.0,1800,0,0,0,0,547.2,453.4,144.0
0,0,141,4074,0,1480.0,0.0,296.0,1800,0,0,0,0,542.4,471.9,-91.63
0,0,146,4124,0,1480.0,0.0,292.0,1800,0,0,0,0,544.8,490.0,48.0
0,0,151,4174,0,1480.0,0.0,300.0,1800,0,0,0,0,540.0,507.9,-96.0
0,0,156,4224,0,1480.0,0.0,308.0,1800,0,0,0,0,535.2,525.8,-96.0
0,0,161,4274,0,1484.0,0.0,296.0,1800,0,0,0,0,542.4,543.8,144.0
0,0,166,4324,0,1484.0,0.0,296.0,1800,0,0,0,0,542.4,562.0,0.0
0,0,171,4374,0,1464.0,0.0,300.0,1800,0,0,0,0,540.0,580.0,-48.0
0,0,176,4425,0,1464.0,0.0,300.0,1800,0,0,0,0,540.0,598.4,0.0
0,0,181,4475,0,1464.0,0.0,300.0,1800,0,0,0,0,540.0,616.4,0.0
0,0,186,4525,0,1464.0,0.0,308.0,1800,0,0,0,0,535.2,634.3,-96.0
0,0,191,4576,0,1480.0,0.0,304.0,1800,0,0,0,0,537.6,652.5,61.09
0,0,196,4626,0,1480.0,0.0,296.0,1800,0,0,0,0,542.4,670.5,96.0
0,0,201,4676,0,1480.0,0.0,296.0,1800,0,0,0,0,542.4,688.6,0.0
0,0,206,4726,0,1480.0,0.0,300.0,1800,0,0,0,0,540.0,706.7,-48.0
0,0,211,4776,0,1480.0,0.0,296.0,1800,0,0,0,0,542.4,724.7,48.0
0,0,216,4826,0,1480.0,0.0,292.0,1800,0,0,0,0,544.8,742.8,48.0
0,0,221,4876,0,1484.0,0.0,304.0,1800,0,0,0,0,537.6,760.8,-144.0
0,0,226,4927,1,1484.0,0.0,300.0,1595,0,0,0,0,540.0,3.6,52.36
0,0,231,4977,1,1484.0,0.0,296.0,1594,0,0,0,0,542.4,3.616,48.0
0,0,236,5027,1,1484.0,0.0,296.0,1546,0,0,0,0,542.4,3.616,0.0
0,0,241,5078,1,1484.0,0.0,296.0,1546,0,0,0,0,542.4,3.977,0.0
0,0,246,5128,1,1484.0,0.0,296.0,1546,0,0,0,0,542.4,3.616,0.0
0,0,251,5178,1,1484.0,0.0,292.0,1596,0,0,0,0,544.8,3.632,48.0
0,0,256,5228,0,1484.0,0.0,296.0,1501,0,0,0,0,542.4,7.247,-48.0
0,0,261,5278,1,1484.0,0.0,292.0,1596,0,0,0,0,544.8,3.632,48.0
0,0,266,5328,1,1484.0,0.0,312.0,1296,0,0,0,0,532.8,3.552,-240.0
0,0,271,5378,1,1484.0,0.0,296.0,1738,0,0,0,0,542.4,3.616,192.0
0,0,276,5429,1,1484.0,0.0,300.0,1495,0,0,0,0,540.0,3.6,-48.0
0,0,281,5479,1,1484.0,0.0,296.0,1594,0,0,0,0,542.4,3.616,48.0
0,0,286,5529,1,1376.0,0.0,300.0,1495,0,0,0,0,540.0,3.6,-48.0
0,0,291,5579,1,1376.0,0.0,304.0,1493,0,0,0,0,537.6,3.584,-48.0
0,0,296,5630,1,1300.0,0.0,292.0,1692,0,0,0,0,544.8,3.632,144.0
0,0,301,5680,1,1300.0,0.0,292.0,1548,0,0,0,0,544.8,3.632,0.0
0,0,306,5730,1,1300.0,0.0,308.0,1346,0,0,0,0,535.2,3.568,-192.0
0,0,311,5780,1,1300.0,0.0,304.0,1589,0,0,0,0,537.6,3.584,48.0
0,0,316,5830,1,1300.0,0.0,304.0,1541,0,0,0,0,537.6,3.584,0.0
0,0,321,5880,1,1300.0,0.0,292.0,1692,0,0,0,0,544.8,3.632,144.0
0,0,326,5931,1,1300.0,0.0,296.0,1498,0,0,0,0,542.4,3.977,-48.0
0,0,331,5981,1,1300.0,0.0,300.0,1495,0,0,0,0,540.0,3.6,-48.0
0,0,336,6031,1,1348.0,0.0,304.0,1493,0,0,0,0,537.6,3.584,-48.0
0,0,341,6081,1,1348.0,0.0,292.0,1692,0,0,0,0,544.8,3.632,144.0
0,0,346,6132,1,1396.0,0.0,296.0,1498,0,0,0,0,542.4,3.616,-48.0
0,0,351,6182,1,1396.0,0.0,300.0,1495,0,0,0,0,540.0,3.6,-48.0
0,0,356,6232,1,1480.0,0.0,292.0,1644,0,0,0,0,544.8,3.632,96.0
0,0,361,6282,1,1480.0,0.0,304.0,1397,0,0,0,0,537.6,3.584,-144.0
0,0,366,6332,1,1484.0,0.0,296.0,1642,0,0,0,0,542.4,3.616,96.0
0,0,371,6382,1,1484.0,0.0,300.0,1495,0,0,0,0,540.0,3.6,-48.0
0,0,376,6432,1,1484.0,0.0,296.0,1594,0,0,0,0,542.4,3.616,48.0
0,0,381,6483,1,1484.0,0.0,296.0,1546,0,0,0,0,542.4,3.616,0.0
0,0,386,6533,1,1480.0,0.0,296.0,1546,0,0,0,0,542.4,3.616,0.0
0,0,391,6583,1,1480.0,0.0,296.0,1546,0,0,0,0,542.4,3.616,0.0
0,0,396,6634,1,1480.0,0.0,304.0,1445,0,0,0,0,537.6,3.584,-96.0
0,0,401,6684,1,1480.0,0.0,288.0,1742,0,0,0,0,547.2,3.648,192.0
0,0,406,6734,1,1480.0,0.0,296.0,1450,0,0,0,0,542.4,3.616,-96.0
0,0,411,6784,1,1480.0,0.0,296.0,1546,0,0,0,0,542.4,3.616,0.0
0,0,416,6834,1,1480.0,0.0,308.0,1394,0,0,0,0,535.2,3.568,-144.0
0,0,421,6884,1,1480.0,0.0,296.0,1690,0,0,0,0,542.4,3.616,144.0
0,0,426,6934,1,1480.0,0.0,296.0,1546,0,0,0,0,542.4,3.616,0.0
0,0,431,6985,1,1480.0,0.0,296.0,1546,0,0,0,0,542.4,3.616,0.0
0,0,436,7035,1,1480.0,0.0,296.0,1546,0,0,0,0,542.4,3.616,0.0
0,0,441,7085,1,1480.0,0.0,296.0,1546,0,0,0,0,542.4,3.616,0.0
0,0,446,7136,1,1404.0,0.0,292.0,1596,0,0,0,0,544.8,3.632,48.0
0,0,451,7186,1,1404.0,0.0,296.0,1498,0,0,0,0,542.4,3.616,-48.0
0,0,456,7236,1,1404.0,0.0,296.0,1546,0,0,0,0,542.4,3.616,0.0
0,0,461,7286,1,1400.0,0.0,296.0,1546,0,0,0,0,542.4,3.616,0.0
0,0,466,7336,1,1400.0,0.0,296.0,1546,0,0,0,0,542.4,3.616,0.0
0,0,471,7386,1,1400.0,0.0,296.0,1546,0,0,0,0,542.4,3.616,0.0
0,0,476,7436,1,1400.0,0.0,300.0,1495,0,0,0,0,540.0,3.6,-48.0
0,0,481,7487,1,1404.0,0.0,288.0,1699,0,0,0,0,547.2,3.648,148.36
0,0,486,7537,1,1404.0,0.0,296.0,1450,0,0,0,0,542.4,3.616,-96.0
0,0,491,7587,1,1484.0,0.0,296.0,1546,0,0,0,0,542.4,3.616,0.0
0,0,496,7638,1,1484.0,0.0,300.0,1491,0,0,0,0,540.0,3.959,-52.36
0,0,501,7688,1,1484.0,0.0,288.0,1694,0,0,0,0,547.2,3.648,144.0
0,0,506,7738,1,1484.0,0.0,292.0,1500,0,0,0,0,544.8,3.632,-48.0
0,0,511,7788,1,1484.0,0.0,296.0,1498,0,0,0,0,542.4,3.616,-48.0
0,0,516,7838,1,1484.0,0.0,300.0,1495,0,0,0,0,540.0,3.6,-48.0
0,0,521,7888,1,1484.0,0.0,296.0,1594,0,0,0,0,542.4,3.616,48.0
0,0,526,7938,1,1484.0,0.0,296.0,1546,0,0,0,0,542.4,3.616,0.0
0,0,531,7989,1,1484.0,0.0,296.0,1546,0,0,0,0,542.4,3.616,0.0
0,0,536,8039,1,1484.0,0.0,300.0,1495,0,0,0,0,540.0,3.6,-48.0
0,0,541,8089,1,1428.0,0.0,296.0,1594,0,0,0,0,542.4,3.616,48.0
0,0,546,8139,1,1428.0,0.0,304.0,1445,0,0,0,0,537.6,3.584,-96.0
0,0,551,8190,1,1420.0,0.0,304.0,1541,0,0,0,0,537.6,3.584,0.0
0,0,556,8240,1,1420.0,0.0,304.0,1541,0,0,0,0,537.6,3.584,0.0
0,0,561,8290,1,1428.0,0.0,296.0,1642,0,0,0,0,542.4,3.616,96.0
0,0,566,8340,1,1428.0,0.0,296.0,1546,0,0,0,0,542.4,3.616,0.0
0,0,571,8390,1,1420.0,0.0,300.0,1495,0,0,0,0,540.0,3.6,-48.0
0,0,576,8440,1,1420.0,0.0,292.0,1644,0,0,0,0,544.8,3.632,96.0
0,0,581,8491,1,1416.0,0.0,296.0,1502,0,0,0,0,542.4,3.977,-43.63
0,0,586,8541,1,1416.0,0.0,300.0,1495,0,0,0,0,540.0,3.6,-48.0
0,0,591,8591,1,988.0,0.0,304.0,1493,0,0,0,0,537.6,3.584,-48.0
0,0,596,8641,1,988.0,0.0,300.0,1591,0,0,0,0,540.0,3.6,48.0
0,0,601,8692,1,980.0,0.0,308.0,1442,0,0,0,0,535.2,3.568,-96.0
0,0,606,8742,1,980.0,0.0,296.0,1690,0,0,0,0,542.4,3.616,144.0
0,0,611,8792,1,980.0,0.0,300.0,1495,0,0,0,0,540.0,3.6,-48.0
0,0,616,8842,1,980.0,0.0,308.0,1442,0,0,0,0,535.2,3.568,-96.0
0,0,621,8892,1,980.0,0.0,296.0,1690,0,0,0,0,542.4,3.616,144.0
0,0,626,8942,1,980.0,0.0,300.0,1495,0,0,0,0,540.0,3.6,-48.0
0,0,631,8992,1,908.0,0.0,296.0,1594,0,0,0,0,542.4,3.616,48.0
0,0,636,9043,1,908.0,0.0,292.0,1596,0,0,0,0,544.8,3.632,48.0
0,0,641,9093,1,904.0,0.0,296.0,1498,0,0,0,0,542.4,3.616,-48.0
0,0,646,9143,1,904.0,0.0,292.0,1596,0,0,0,0,544.8,3.632,48.0
0,0,651,9194,1,904.0,0.0,304.0,1405,0,0,0,0,537.6,3.584,-135.27
0,0,656,9244,1,904.0,0.0,296.0,1642,0,0,0,0,542.4,3.616,96.0
0,0,661,9294,1,900.0,0.0,292.0,1596,0,0,0,0,544.8,3.632,48.0
0,0,666,9344,1,900.0,0.0,300.0,1447,0,0,0,0,540.0,3.6,-96.0
0,0,671,9394,1,896.0,0.0,292.0,1644,0,0,0,0,544.8,3.632,96.0
0,0,676,9444,1,896.0,0.0,288.0,1598,0,0,0,0,547.2,3.648,48.0
0,0,681,9494,1,896.0,0.0,288.0,1550,0,0,0,0,547.2,3.648,0.0
0,0,686,9545,1,896.0,0.0,292.0,1500,0,0,0,0,544.8,3.632,-48.0
0,0,691,9595,1,896.0,0.0,300.0,1447,0,0,0,0,540.0,3.6,-96.0
0,0,696,9645,1,940.0,0.0,296.0,1594,0,0,0,0,542.4,3.616,48.0
0,0,701,9696,1,940.0,0.0,300.0,1495,0,0,0,0,540.0,3.6,-48.0
0,0,706,9746,1,956.0,0.0,304.0,1493,0,0,0,0,537.6,3.584,-48.0
0,0,711,9796,1,956.0,0.0,300.0,1591,0,0,0,0,540.0,3.6,48.0
0,0,716,9846,1,956.0,0.0,296.0,1594,0,0,0,0,542.4,3.616,48.0
0,0,721,9896,1,956.0,0.0,296.0,1546,0,0,0,0,542.4,3.616,0.0
0,0,726,9946,1,992.0,0.0,292.0,1596,0,0,0,0,544.8,3.632,48.0
0,0,731,9996,1,992.0,0.0,292.0,1548,0,0,0,0,544.8,3.632,0.0
0,0,736,10047,1,992.0,0.0,300.0,1443,0,0,0,0,540.0,3.6,-100.36
0,0,741,10097,1,992.0,0.0,288.0,1694,0,0,0,0,547.2,3.648,144.0
0,0,746,10147,1,1076.0,0.0,292.0,1500,0,0,0,0,544.8,3.632,-48.0
0,0,751,10198,1,1076.0,0.0,304.0,1397,0,0,0,0,537.6,3.942,-144.0
0,0,756,10248,1,1324.0,0.0,292.0,1692,0,0,0,0,544.8,3.632,144.0
0,0,761,10298,1,1324.0,0.0,296.0,1498,0,0,0,0,542.4,3.616,-48.0
0,0,766,10348,1,1344.0,0.0,296.0,1546,0,0,0,0,542.4,3.616,0.0
0,0,771,10398,1,1344.0,0.0,296.0,1546,0,0,0,0,542.4,3.616,0.0
0,0,776,10448,1,1328.0,0.0,300.0,1495,0,0,0,0,540.0,3.6,-48.0
0,0,781,10498,1,1328.0,0.0,296.0,1594,0,0,0,0,542.4,3.616,48.0
0,0,786,10549,1,1328.0,0.0,292.0,1600,0,0,0,0,544.8,3.632,52.36
0,0,791,10599,1,1328.0,0.0,296.0,1498,0,0,0,0,542.4,3.616,-48.0
0,0,796,10649,1,1324.0,0.0,296.0,1546,0,0,0,0,542.4,3.616,0.0
0,0,801,10699,1,1324.0,0.0,296.0,1546,0,0,0,0,542.4,3.616,0.0
0,0,806,10750,1,1304.0,0.0,304.0,1445,0,0,0,0,537.6,3.584,-96.0
0,0,811,10800,1,1304.0,0.0,296.0,1642,0,0,0,0,542.4,3.616,96.0
0,0,816,10850,1,1304.0,0.0,296.0,1546,0,0,0,0,542.4,3.616,0.0
0,0,821,10900,1,1304.0,0.0,288.0,1646,0,0,0,0,547.2,3.648,96.0
0,0,826,10950,1,1304.0,0.0,308.0,1298,0,0,0,0,535.2,3.568,-240.0
0,0,831,11000,1,1304.0,0.0,296.0,1690,0,0,0,0,542.4,3.616,144.0
0,0,836,11051,1,1348.0,0.0,304.0,1445,0,0,0,0,537.6,3.942,-96.0
0,0,841,11101,1,1348.0,0.0,288.0,1742,0,0,0,0,547.2,3.648,192.0
0,0,846,11151,0,1372.0,0.0,296.0,1453,0,0,0,0,542.4,7.232,-96.0
0,0,851,11201,1,1372.0,0.0,300.0,1495,0,0,0,0,540.0,3.6,-48.0
0,0,856,11252,1,1484.0,0.0,288.0,1694,0,0,0,0,547.2,3.648,144.0
0,0,861,11302,1,1484.0,0.0,296.0,1450,0,0,0,0,542.4,3.616,-96.0
0,0,866,11352,1,1484.0,0.0,296.0,1546,0,0,0,0,542.4,3.616,0.0
0,0,871,11402,1,1484.0,0.0,288.0,1646,0,0,0,0,547.2,3.648,96.0
0,0,876,11452,1,1484.0,0.0,296.0,1450,0,0,0,0,542.4,3.616,-96.0
0,0,881,11502,1,1484.0,0.0,296.0,1546,0,0,0,0,542.4,3.616,0.0
0,0,886,11552,1,1480.0,0.0,300.0,1495,0,0,0,0,540.0,3.6,-48.0
0,0,891,11603,1,1480.0,0.0,304.0,1493,0,0,0,0,537.6,3.584,-48.0
0,0,896,11653,1,1480.0,0.0,304.0,1541,0,0,0,0,537.6,3.584,0.0
0,0,901,11703,1,1480.0,0.0,296.0,1642,0,0,0,0,542.4,3.616,96.0
0,0,906,11754,1,1480.0,0.0,296.0,1546,0,0,0,0,542.4,3.616,0.0
0,0,911,11804,1,1480.0,0.0,300.0,1495,0,0,0,0,540.0,3.6,-48.0
0,0,916,11854,1,1480.0,0.0,304.0,1493,0,0,0,0,537.6,3.584,-48.0
0,0,921,11904,1,1416.0,0.0,304.0,1541,0,0,0,0,537.6,3.584,0.0
0,0,926,11954,1,1416.0,0.0,304.0,1541,0,0,0,0,537.6,3.584,0.0
0,0,931,12004,1,1416.0,0.0,292.0,1692,0,0,0,0,544.8,3.632,144.0
0,0,936,12054,1,1416.0,0.0,296.0,1498,0,0,0,0,542.4,3.616,-48.0
0,0,941,12105,1,1416.0,0.0,296.0,1546,0,0,0,0,542.4,3.616,0.0
0,0,946,12155,1,1416.0,0.0,292.0,1596,0,0,0,0,544.8,3.632,48.0
0,0,951,12205,1,1480.0,0.0,296.0,1498,0,0,0,0,542.4,3.616,-48.0
0,0,956,12256,1,1480.0,0.0,296.0,1546,0,0,0,0,542.4,3.616,0.0
0,0,961,12306,1,1480.0,0.0,296.0,1546,0,0,0,0,542.4,3.616,0.0
0,0,966,12356,1,1480.0,0.0,296.0,1546,0,0,0,0,542.4,3.616,0.0
0,0,971,12406,1,1480.0,0.0,300.0,1495,0,0,0,0,540.0,3.6,-48.0
0,0,976,12456,1,1480.0,0.0,304.0,1493,0,0,0,0,537.6,3.584,-48.0
0,0,981,12506,1,1480.0,0.0,308.0,1490,0,0,0,0,535.2,3.568,-48.0
0,0,986,12556,1,1480.0,0.0,296.0,1690,0,0,0,0,542.4,3.616,144.0
0,0,991,12607,1,1480.0,0.0,300.0,1495,0,0,0,0,540.0,3.6,-48.0
0,0,996,12657,1,1480.0,0.0,292.0,1644,0,0,0,0,544.8,3.632,96.0
0,0,1001,12707,1,1480.0,0.0,296.0,1498,0,0,0,0,542.4,3.616,-48.0
0,0,1006,12758,1,1480.0,0.0,304.0,1458,0,0,0,0,537.6,3.942,-82.9
0,0,1011,12808,1,1484.0,0.0,296.0,1642,0,0,0,0,542.4,3.616,96.0
0,0,1016,12858,1,1484.0,0.0,296.0,1546,0,0,0,0,542.4,3.616,0.0
0,0,1021,12908,1,1484.0,0.0,300.0,1495,0,0,0,0,540.0,3.6,-48.0
0,0,1026,12958,1,1484.0,0.0,296.0,1594,0,0,0,0,542.4,3.616,48.0
0,0,1031,13008,1,1484.0,0.0,300.0,1495,0,0,0,0,540.0,3.6,-48.0
0,0,1036,13058,1,1484.0,0.0,304.0,1493,0,0,0,0,537.6,3.584,-48.0
0,0,1041,13109,1,1484.0,0.0,304.0,1541,0,0,0,0,537.6,3.584,0.0
0,0,1046,13159,1,1484.0,0.0,292.0,1692,0,0,0,0,544.8,3.632,144.0
0,0,1051,13209,1,1480.0,0.0,292.0,1548,0,0,0,0,544.8,3.632,0.0
0,0,1056,13259,1,1480.0,0.0,288.0,1598,0,0,0,0,547.2,3.648,48.0
0,0,1061,13310,1,1480.0,0.0,292.0,1504,0,0,0,0,544.8,3.632,-43.63
0,0,1066,13360,1,1480.0,0.0,300.0,1447,0,0,0,0,540.0,3.6,-96.0
0,0,1071,13410,1,1484.0,0.0,296.0,1594,0,0,0,0,542.4,3.616,48.0
0,0,1076,13460,1,1484.0,0.0,296.0,1546,0,0,0,0,542.4,3.616,0.0
0,0,1081,13510,1,1480.0,0.0,288.0,1646,0,0,0,0,547.2,3.648,96.0
0,0,1086,13560,1,1480.0,0.0,296.0,1450,0,0,0,0,542.4,3.616,-96.0
0,0,1091,13611,1,1480.0,0.0,296.0,1546,0,0,0,0,542.4,3.977,0.0
0,0,1096,13661,1,1480.0,0.0,284.0,1697,0,0,0,0,549.6,3.664,144.0
0,0,1101,13711,1,1480.0,0.0,292.0,1452,0,0,0,0,544.8,3.632,-96.0
0,0,1106,13761,1,1480.0,0.0,284.0,1649,0,0,0,0,549.6,3.664,96.0
0,0,1111,13812,1,1480.0,0.0,296.0,1402,0,0,0,0,542.4,3.616,-144.0
0,0,1116,13862,1,1480.0,0.0,288.0,1646,0,0,0,0,547.2,3.648,96.0
0,0,1121,13912,1,1480.0,0.0,288.0,1550,0,0,0,0,547.2,3.648,0.0
0,0,1126,13962,1,1480.0,0.0,300.0,1399,0,0,0,0,540.0,3.6,-144.0
0,0,1131,14012,1,1480.0,0.0,292.0,1644,0,0,0,0,544.8,3.632,96.0
0,0,1136,14062,1,1480.0,0.0,296.0,1498,0,0,0,0,542.4,3.616,-48.0
0,0,1141,14112,1,1480.0,0.0,292.0,1596,0,0,0,0,544.8,3.632,48.0
0,0,1146,14163,1,1480.0,0.0,300.0,1451,0,0,0,0,540.0,3.6,-91.63
0,0,1151,14213,1,1480.0,0.0,300.0,1543,0,0,0,0,540.0,3.6,0.0
0,0,1156,14263,1,1480.0,0.0,296.0,1594,0,0,0,0,542.4,3.616,48.0
0,0,1161,14314,1,1480.0,0.0,300.0,1495,0,0,0,0,540.0,3.6,-48.0
0,0,1166,14364,1,1484.0,0.0,296.0,1594,0,0,0,0,542.4,3.616,48.0
0,0,1171,14414,1,1484.0,0.0,296.0,1546,0,0,0,0,542.4,3.616,0.0
0,0,1176,14464,1,1484.0,0.0,276.0,1798,0,0,0,0,554.4,3.695,240.0
0,0,1181,14514,1,1484.0,0.0,296.0,1306,0,0,0,0,542.4,3.616,-240.0
0,0,1186,14564,1,1484.0,0.0,296.0,1546,0,0,0,0,542.4,3.616,0.0
0,0,1191,14614,1,1484.0,0.0,300.0,1495,0,0,0,0,540.0,3.6,-48.0
0,0,1196,14665,1,1484.0,0.0,292.0,1644,0,0,0,0,544.8,3.632,96.0
0,0,1201,14715,1,1484.0,0.0,288.0,1598,0,0,0,0,547.2,3.648,48.0
0,0,1206,14765,1,1484.0,0.0,296.0,1450,0,0,0,0,542.4,3.616,-96.0
0,0,1211,14816,1,1484.0,0.0,296.0,1546,0,0,0,0,542.4,3.616,0.0
0,0,1216,14866,1,1484.0,0.0,296.0,1546,0,0,0,0,542.4,3.616,0.0
0,0,1221,14916,1,1484.0,0.0,288.0,1646,0,0,0,0,547.2,3.648,96.0
0,0,1226,14966,1,1484.0,0.0,296.0,1450,0,0,0,0,542.4,3.616,-96.0
0,0,1231,15016,1,1484.0,0.0,296.0,1546,0,0,0,0,542.4,3.616,0.0
0,0,1236,15066,1,1484.0,0.0,300.0,1495,0,0,0,0,540.0,3.6,-48.0
0,0,1241,15116,1,1484.0,0.0,296.0,1594,0,0,0,0,542.4,3.616,48.0
0,0,1246,15167,1,1484.0,0.0,300.0,1495,0,0,0,0,540.0,3.6,-48.0
0,0,1251,15217,1,1484.0,0.0,304.0,1493,0,0,0,0,537.6,3.584,-48.0
0,0,1256,15267,1,1484.0,0.0,292.0,1692,0,0,0,0,544.8,3.632,144.0
0,0,1261,15318,1,1484.0,0.0,296.0,1498,0,0,0,0,542.4,3.977,-48.0
0,0,1266,15368,1,1484.0,0.0,292.0,1596,0,0,0,0,544.8,3.632,48.0
0,0,1271,15418,1,1484.0,0.0,296.0,1498,0,0,0,0,542.4,3.616,-48.0
0,0,1276,15468,1,1484.0,0.0,304.0,1445,0,0,0,0,537.6,3.584,-96.0
0,0,1281,15518,1,1484.0,0.0,300.0,1591,0,0,0,0,540.0,3.6,48.0
0,0,1286,15568,1,1484.0,0.0,292.0,1644,0,0,0,0,544.8,3.632,96.0
0,0,1291,15618,1,1484.0,0.0,292.0,1548,0,0,0,0,544.8,3.632,0.0
0,0,1296,15669,1,1484.0,0.0,300.0,1438,0,0,0,0,540.0,3.6,-104.72
0,0,1301,15719,1,1484.0,0.0,304.0,1493,0,0,0,0,537.6,3.584,-48.0
0,0,1306,15769,1,1484.0,0.0,288.0,1742,0,0,0,0,547.2,3.648,192.0
0,0,1311,15819,1,1484.0,0.0,300.0,1399,0,0,0,0,540.0,3.6,-144.0
0,0,1316,15870,1,1484.0,0.0,300.0,1539,0,0,0,0,540.0,3.6,-4.363
0,0,1321,15920,1,1484.0,0.0,292.0,1644,0,0,0,0,544.8,3.632,96.0
0,0,1326,15970,1,1484.0,0.0,292.0,1548,0,0,0,0,544.8,3.632,0.0
0,0,1331,16020,1,1484.0,0.0,288.0,1598,0,0,0,0,547.2,3.648,48.0
0,0,1336,16070,1,1484.0,0.0,308.0,1298,0,0,0,0,535.2,3.568,-240.0
0,0,1341,16120,1,1488.0,0.0,300.0,1639,0,0,0,0,540.0,3.6,96.0
0,0,1346,16171,1,1488.0,0.0,288.0,1695,0,0,0,0,547.2,4.012,144.0
0,0,1351,16221,1,1484.0,0.0,284.0,1601,0,0,0,0,549.6,3.664,48.0
0,0,1356,16271,1,1484.0,0.0,304.0,1301,0,0,0,0,537.6,3.584,-240.0
0,0,1361,16321,1,1488.0,0.0,296.0,1642,0,0,0,0,542.4,3.616,96.0
0,0,1366,16372,1,1488.0,0.0,304.0,1440,0,0,0,0,537.6,3.584,-100.36
0,0,1371,16422,1,1488.0,0.0,304.0,1541,0,0,0,0,537.6,3.584,0.0
0,0,1376,16472,1,1488.0,0.0,300.0,1591,0,0,0,0,540.0,3.6,48.0
0,0,1381,16522,1,1484.0,0.0,292.0,1644,0,0,0,0,544.8,3.632,96.0
0,0,1386,16572,1,1484.0,0.0,296.0,1498,0,0,0,0,542.4,3.616,-48.0
0,0,1391,16622,1,1484.0,0.0,304.0,1445,0,0,0,0,537.6,3.584,-96.0
0,0,1396,16672,1,1484.0,0.0,292.0,1692,0,0,0,0,544.8,3.632,144.0
0,0,1401,16723,1,1484.0,0.0,296.0,1498,0,0,0,0,542.4,3.616,-48.0
0,0,1406,16773,1,1484.0,0.0,296.0,1546,0,0,0,0,542.4,3.616,0.0
0,0,1411,16823,1,1484.0,0.0,304.0,1445,0,0,0,0,537.6,3.584,-96.0
0,0,1416,16874,1,1484.0,0.0,308.0,1490,0,0,0,0,535.2,3.568,-48.0
0,0,1421,16924,1,1464.0,0.0,296.0,1690,0,0,0,0,542.4,3.616,144.0
0,0,1426,16974,1,1464.0,0.0,296.0,1546,0,0,0,0,542.4,3.616,0.0
0,0,1431,17024,1,1416.0,0.0,300.0,1495,0,0,0,0,540.0,3.6,-48.0
0,0,1436,17074,1,1416.0,0.0,296.0,1594,0,0,0,0,542.4,3.616,48.0
0,0,1441,17124,1,1380.0,0.0,308.0,1394,0,0,0,0,535.2,3.568,-144.0
0,0,1446,17174,1,1380.0,0.0,308.0,1538,0,0,0,0,535.2,3.568,0.0
0,0,1451,17225,1,1352.0,0.0,292.0,1740,0,0,0,0,544.8,3.632,192.0
0,0,1456,17275,1,1352.0,0.0,304.0,1397,0,0,0,0,537.6,3.584,-144.0
0,0,1461,17325,1,1120.0,0.0,292.0,1692,0,0,0,0,544.8,3.632,144.0
0,0,1466,17376,1,1120.0,0.0,288.0,1581,0,0,0,0,547.2,3.648,30.54
0,0,1471,17426,1,1092.0,0.0,292.0,1500,0,0,0,0,544.8,3.632,-48.0
0,0,1476,17476,1,1092.0,0.0,292.0,1548,0,0,0,0,544.8,3.632,0.0
0,0,1481,17526,1,1092.0,0.0,300.0,1447,0,0,0,0,540.0,3.6,-96.0
0,0,1486,17576,1,1092.0,0.0,308.0,1442,0,0,0,0,535.2,3.568,-96.0
0,0,1491,17626,1,1088.0,0.0,304.0,1589,0,0,0,0,537.6,3.584,48.0
0,0,1496,17676,1,1088.0,0.0,308.0,1490,0,0,0,0,535.2,3.568,-48.0
0,0,1501,17727,1,1056.0,0.0,308.0,1538,0,0,0,0,535.2,3.568,0.0
0,0,1506,17777,1,1056.0,0.0,304.0,1589,0,0,0,0,537.6,3.584,48.0
0,0,1511,17827,1,1024.0,0.0,304.0,1541,0,0,0,0,537.6,3.584,0.0
0,0,1516,17878,1,968.0,0.0,320.0,1339,0,0,0,0,528.0,3.872,-192.0
0,0,1521,17928,1,968.0,0.0,316.0,1581,0,0,0,0,530.4,3.536,48.0
0,0,1526,17978,1,956.0,0.0,336.0,1281,0,0,0,0,518.4,3.455,-240.0
0,0,1531,18028,1,956.0,0.0,336.0,1521,0,0,0,0,518.4,3.455,0.0
0,0,1536,18078,1,860.0,0.0,356.0,1269,0,0,0,0,506.4,3.376,-240.0
0,0,1541,18128,1,860.0,0.0,364.0,1408,0,0,0,0,501.6,3.343,-96.0
0,0,1546,18178,1,848.0,0.0,392.0,1152,0,0,0,0,484.8,3.232,-336.0
0,0,1551,18229,1,848.0,0.0,404.0,1341,0,0,0,0,477.6,3.184,-139.63
0,0,1556,18279,1,836.0,0.0,432.0,1127,0,0,0,0,460.8,3.072,-336.0
0,0,1561,18329,1,836.0,0.0,468.0,1010,0,0,0,0,439.2,2.928,-432.0
0,0,1566,18379,1,804.0,0.0,508.0,1000,0,0,0,0,415.2,2.768,-480.0
0,0,1571,18430,1,804.0,0.0,524.0,1229,0,0,0,0,405.6,2.704,-178.9
0,0,1576,18480,1,800.0,0.0,560.0,1000,0,0,0,0,384.0,2.56,-432.0
0,0,1581,18530,1,800.0,0.0,576.0,1184,0,0,0,0,374.4,2.496,-192.0
0,0,1586,18580,1,792.0,0.0,592.0,1175,0,0,0,0,364.8,2.432,-192.0
0,0,1591,18630,1,792.0,0.0,576.0,1568,0,0,0,0,374.4,2.496,192.0
0,0,1596,18680,1,784.0,0.0,612.0,1000,0,0,0,0,352.8,2.352,-432.0
0,0,1601,18731,1,784.0,0.0,580.0,1745,0,0,0,0,372.0,2.728,370.9
0,0,1606,18781,1,784.0,0.0,600.0,1122,0,0,0,0,360.0,2.4,-240.0
0,0,1611,18831,1,784.0,0.0,584.0,1564,0,0,0,0,369.6,2.464,192.0
0,0,1616,18881,1,784.0,0.0,580.0,1422,0,0,0,0,372.0,2.48,48.0
0,0,1621,18932,1,784.0,0.0,560.0,1626,0,0,0,0,384.0,2.56,240.0
0,0,1626,18982,1,804.0,0.0,552.0,1487,0,0,0,0,388.8,2.592,96.0
0,0,1631,19032,1,804.0,0.0,536.0,1593,0,0,0,0,398.4,2.656,192.0
0,0,1636,19082,1,808.0,0.0,544.0,1300,0,0,0,0,393.6,2.624,-96.0
0,0,1641,19132,1,808.0,0.0,516.0,1749,0,0,0,0,410.4,2.735,336.0
0,0,1646,19182,1,888.0,0.0,512.0,1463,0,0,0,0,412.8,2.751,48.0
0,0,1651,19232,1,888.0,0.0,516.0,1365,0,0,0,0,410.4,2.735,-48.0
0,0,1656,19283,1,928.0,0.0,508.0,1518,0,0,0,0,415.2,2.768,100.36
0,0,1661,19333,1,928.0,0.0,496.0,1569,0,0,0,0,422.4,2.816,144.0
0,0,1666,19383,1,928.0,0.0,488.0,1526,0,0,0,0,427.2,2.848,96.0
0,0,1671,19434,1,928.0,0.0,476.0,1581,0,0,0,0,434.4,2.896,144.0
0,0,1676,19484,1,928.0,0.0,480.0,1386,0,0,0,0,432.0,2.879,-48.0
0,0,1681,19534,1,928.0,0.0,476.0,1485,0,0,0,0,434.4,2.896,48.0
0,0,1686,19584,1,920.0,0.0,464.0,1588,0,0,0,0,441.6,2.944,144.0
0,0,1691,19634,1,920.0,0.0,456.0,1545,0,0,0,0,446.4,2.976,96.0
0,0,1696,19684,1,868.0,0.0,456.0,1449,0,0,0,0,446.4,2.976,0.0
0,0,1701,19734,1,868.0,0.0,436.0,1701,0,0,0,0,458.4,3.056,240.0
0,0,1706,19785,1,848.0,0.0,428.0,1553,0,0,0,0,463.2,3.088,87.27
0,0,1711,19835,1,848.0,0.0,424.0,1516,0,0,0,0,465.6,3.103,48.0
0,0,1716,19885,1,832.0,0.0,380.0,1800,0,0,0,0,492.0,3.28,528.0
0,0,1721,19936,1,832.0,0.0,388.0,1394,0,0,0,0,487.2,3.248,-96.0
0,0,1726,19986,1,832.0,0.0,368.0,1742,0,0,0,0,499.2,3.327,240.0
0,0,1731,20036,1,832.0,0.0,348.0,1754,0,0,0,0,511.2,3.407,240.0
0,0,1736,20086,1,832.0,0.0,324.0,1800,0,0,0,0,525.6,3.504,288.0
0,0,1741,20136,1,836.0,0.0,304.0,1781,0,0,0,0,537.6,3.584,240.0
0,0,1746,20186,1,836.0,0.0,308.0,1490,0,0,0,0,535.2,3.568,-48.0
0,0,1751,20236,1,848.0,0.0,288.0,1790,0,0,0,0,547.2,3.648,240.0
0,0,1756,20287,1,848.0,0.0,256.0,1800,0,0,0,0,566.4,3.775,384.0
0,0,1761,20337,1,864.0,0.0,260.0,1519,0,0,0,0,564.0,3.76,-48.0
0,0,1766,20387,1,864.0,0.0,260.0,1567,0,0,0,0,564.0,3.76,0.0
0,0,1771,20438,1,864.0,0.0,268.0,1471,0,0,0,0,559.2,4.1,-91.63
0,0,1776,20488,1,864.0,0.0,260.0,1663,0,0,0,0,564.0,3.76,96.0
0,0,1781,20538,1,864.0,0.0,264.0,1517,0,0,0,0,561.6,3.744,-48.0
0,0,1786,20588,1,864.0,0.0,248.0,1767,0,0,0,0,571.2,3.807,192.0
0,0,1791,20638,1,864.0,0.0,252.0,1524,0,0,0,0,568.8,3.791,-48.0
0,0,1796,20688,1,864.0,0.0,256.0,1522,0,0,0,0,566.4,3.775,-48.0
0,0,1801,20738,1,864.0,0.0,244.0,1721,0,0,0,0,573.6,3.824,144.0
0,0,1806,20789,1,864.0,0.0,268.0,1296,0,0,0,0,559.2,3.728,-266.1
0,0,1811,20839,1,836.0,0.0,264.0,1613,0,0,0,0,561.6,3.744,48.0
0,0,1816,20889,1,836.0,0.0,264.0,1565,0,0,0,0,561.6,3.744,0.0
0,0,1821,20939,1,836.0,0.0,276.0,1414,0,0,0,0,554.4,3.695,-144.0
0,0,1826,20990,1,836.0,0.0,296.0,1306,0,0,0,0,542.4,3.616,-240.0
0,0,1831,21040,1,828.0,0.0,308.0,1394,0,0,0,0,535.2,3.568,-144.0
0,0,1836,21090,1,828.0,0.0,316.0,1437,0,0,0,0,530.4,3.536,-96.0
0,0,1841,21140,1,828.0,0.0,336.0,1281,0,0,0,0,518.4,3.455,-240.0
0,0,1846,21190,1,828.0,0.0,348.0,1370,0,0,0,0,511.2,3.407,-144.0
0,0,1851,21240,1,828.0,0.0,376.0,1161,0,0,0,0,494.4,3.296,-336.0
0,0,1856,21291,1,828.0,0.0,392.0,1296,0,0,0,0,484.8,3.555,-192.0
0,0,1861,21341,1,864.0,0.0,420.0,1135,0,0,0,0,468.0,3.12,-336.0
0,0,1866,21391,1,864.0,0.0,440.0,1219,0,0,0,0,456.0,3.04,-240.0
0,0,1871,21441,1,864.0,0.0,436.0,1509,0,0,0,0,458.4,3.056,48.0
0,0,1876,21492,1,864.0,0.0,460.0,1158,0,0,0,0,444.0,2.959,-288.0
0,0,1881,21542,1,864.0,0.0,464.0,1396,0,0,0,0,441.6,2.944,-48.0
0,0,1886,21592,1,864.0,0.0,476.0,1293,0,0,0,0,434.4,2.896,-144.0
0,0,1891,21642,1,864.0,0.0,484.0,1336,0,0,0,0,429.6,2.864,-96.0
0,0,1896,21692,1,864.0,0.0,480.0,1482,0,0,0,0,432.0,2.879,48.0
0,0,1901,21742,1,852.0,0.0,500.0,1182,0,0,0,0,420.0,2.8,-240.0
0,0,1906,21792,1,852.0,0.0,496.0,1473,0,0,0,0,422.4,2.816,48.0
0,0,1911,21843,1,844.0,0.0,504.0,1324,0,0,0,0,417.6,2.784,-96.0
0,0,1916,21893,1,844.0,0.0,496.0,1521,0,0,0,0,422.4,2.816,96.0
0,0,1921,21943,1,824.0,0.0,500.0,1374,0,0,0,0,420.0,2.8,-48.0
0,0,1926,21994,1,824.0,0.0,496.0,1473,0,0,0,0,422.4,2.816,48.0
0,0,1931,22044,1,820.0,0.0,492.0,1475,0,0,0,0,424.8,2.832,48.0
0,0,1936,22094,1,812.0,0.0,484.0,1528,0,0,0,0,429.6,2.864,96.0
0,0,1941,22144,1,812.0,0.0,492.0,1331,0,0,0,0,424.8,2.832,-96.0
0,0,1946,22194,1,776.0,0.0,484.0,1528,0,0,0,0,429.6,2.864,96.0
0,0,1951,22244,1,776.0,0.0,448.0,1800,0,0,0,0,451.2,3.008,432.0
0,0,1956,22294,1,760.0,0.0,448.0,1454,0,0,0,0,451.2,3.008,0.0
0,0,1961,22345,1,760.0,0.0,412.0,1800,0,0,0,0,472.8,3.152,418.9
0,0,1966,22395,1,760.0,0.0,384.0,1800,0,0,0,0,489.6,3.264,336.0
0,0,1971,22445,1,760.0,0.0,376.0,1593,0,0,0,0,494.4,3.296,96.0
0,0,1976,22496,1,760.0,0.0,348.0,1800,0,0,0,0,511.2,3.407,336.0
0,0,1981,22546,1,760.0,0.0,328.0,1766,0,0,0,0,523.2,3.488,240.0
0,0,1986,22596,1,768.0,0.0,324.0,1577,0,0,0,0,525.6,3.504,48.0
0,0,1991,22646,1,768.0,0.0,316.0,1629,0,0,0,0,530.4,3.536,96.0
0,0,1996,22696,1,768.0,0.0,292.0,1800,0,0,0,0,544.8,3.632,288.0
0,0,2001,22746,1,768.0,0.0,288.0,1598,0,0,0,0,547.2,3.648,48.0
0,0,2006,22796,1,776.0,0.0,276.0,1702,0,0,0,0,554.4,3.695,144.0
0,0,2011,22847,1,776.0,0.0,280.0,1503,0,0,0,0,552.0,3.68,-52.36
0,0,2016,22897,1,780.0,0.0,272.0,1656,0,0,0,0,556.8,3.712,96.0
0,0,2021,22947,1,780.0,0.0,264.0,1661,0,0,0,0,561.6,3.744,96.0
0,0,2026,22998,1,792.0,0.0,260.0,1616,0,0,0,0,564.0,4.136,48.0
0,0,2031,23048,1,792.0,0.0,260.0,1567,0,0,0,0,564.0,3.76,0.0
0,0,2036,23098,1,792.0,0.0,272.0,1416,0,0,0,0,556.8,3.712,-144.0
0,0,2041,23148,1,792.0,0.0,260.0,1711,0,0,0,0,564.0,3.76,144.0
0,0,2046,23198,1,800.0,0.0,260.0,1567,0,0,0,0,564.0,3.76,0.0
0,0,2051,23248,1,800.0,0.0,256.0,1618,0,0,0,0,566.4,3.775,48.0
0,0,2056,23298,1,800.0,0.0,260.0,1519,0,0,0,0,564.0,3.76,-48.0
0,0,2061,23349,1,800.0,0.0,264.0,1521,0,0,0,0,561.6,3.744,-43.63
0,0,2066,23399,1,792.0,0.0,276.0,1414,0,0,0,0,554.4,3.695,-144.0
0,0,2071,23449,1,792.0,0.0,264.0,1709,0,0,0,0,561.6,3.744,144.0
0,0,2076,23499,1,672.0,0.0,260.0,1615,0,0,0,0,564.0,3.76,48.0
0,0,2081,23550,1,672.0,0.0,272.0,1425,0,0,0,0,556.8,3.712,-135.27
0,0,2086,23600,1,672.0,0.0,284.0,1409,0,0,0,0,549.6,3.664,-144.0
0,0,2091,23650,1,672.0,0.0,256.0,1800,0,0,0,0,566.4,3.775,336.0
0,0,2096,23700,1,672.0,0.0,272.0,1368,0,0,0,0,556.8,3.712,-192.0
0,0,2101,23750,1,672.0,0.0,256.0,1762,0,0,0,0,566.4,3.775,192.0
0,0,2106,23800,1,692.0,0.0,296.0,1066,0,0,0,0,542.4,3.616,-480.0
0,0,2111,23851,1,692.0,0.0,276.0,1794,0,0,0,0,554.4,4.065,235.6
0,0,2116,23901,1,776.0,0.0,276.0,1558,0,0,0,0,554.4,3.695,0.0
0,0,2121,23951,1,776.0,0.0,284.0,1457,0,0,0,0,549.6,3.664,-96.0
0,0,2126,24001,1,776.0,0.0,288.0,1502,0,0,0,0,547.2,3.648,-48.0
0,0,2131,24052,0,776.0,0.0,296.0,1457,0,0,0,0,542.4,10.88,-96.0
0,0,2136,24102,0,768.0,0.0,308.0,1420,0,0,0,0,535.2,28.88,-144.0
0,0,2141,24152,0,768.0,0.0,316.0,1481,0,0,0,0,530.4,46.62,-96.0
0,0,2146,24202,0,768.0,0.0,312.0,1645,0,0,0,0,532.8,64.35,48.0
0,0,2151,24252,0,768.0,0.0,316.0,1564,0,0,0,0,530.4,82.09,-48.0
0,0,2156,24302,0,768.0,0.0,304.0,1781,0,0,0,0,537.6,99.87,144.0
0,0,2161,24352,0,760.0,0.0,288.0,1800,0,0,0,0,547.2,118.01,192.0
0,0,2166,24403,0,760.0,0.0,248.0,1800,0,0,0,0,571.2,137.0,475.6
0,0,2171,24453,0,760.0,0.0,240.0,1800,0,0,0,0,576.0,156.03,96.0
0,0,2176,24503,0,760.0,0.0,236.0,1800,0,0,0,0,578.4,175.2,48.0
0,0,2181,24554,0,752.0,0.0,212.0,1800,0,0,0,0,592.8,195.0,288.0
0,0,2186,24604,0,752.0,0.0,224.0,1656,0,0,0,0,585.6,214.6,-144.0
0,0,2191,24654,0,720.0,0.0,244.0,1567,0,0,0,0,573.6,234.0,-240.0
0,0,2196,24704,0,720.0,0.0,244.0,1800,0,0,0,0,573.6,253.1,0.0
0,0,2201,24754,0,656.0,0.0,280.0,1391,0,0,0,0,552.0,271.8,-432.0
0,0,2206,24804,0,656.0,0.0,328.0,1236,0,0,0,0,523.2,289.6,-576.0
0,0,2211,24854,0,648.0,0.0,360.0,1426,0,0,0,0,504.0,306.6,-384.0
0,0,2216,24905,0,648.0,0.0,384.0,1529,0,0,0,0,489.6,323.5,-283.6
0,0,2221,24955,0,632.0,0.0,404.0,1577,0,0,0,0,477.6,339.6,-240.0
0,0,2226,25005,0,632.0,0.0,404.0,1800,0,0,0,0,477.6,355.5,0.0
0,0,2231,25056,0,576.0,0.0,400.0,1800,0,0,0,0,480.0,371.8,48.0
0,0,2236,25106,0,576.0,0.0,384.0,1800,0,0,0,0,489.6,387.9,192.0
0,0,2241,25156,0,576.0,0.0,384.0,1800,0,0,0,0,489.6,404.2,0.0
0,0,2246,25206,0,576.0,0.0,396.0,1758,0,0,0,0,482.4,420.4,-144.0
0,0,2251,25256,0,576.0,0.0,396.0,1800,0,0,0,0,482.4,436.5,0.0
0,0,2256,25306,0,576.0,0.0,416.0,1682,0,0,0,0,470.4,452.3,-240.0
0,0,2261,25356,0,576.0,0.0,428.0,1787,0,0,0,0,463.2,467.9,-144.0
0,0,2266,25407,0,576.0,0.0,444.0,1753,0,0,0,0,453.6,483.4,-183.2
0,0,2271,25457,0,580.0,0.0,468.0,1649,0,0,0,0,439.2,498.3,-288.0
0,0,2276,25507,0,580.0,0.0,508.0,1447,0,0,0,0,415.2,512.3,-480.0
0,0,2281,25558,0,584.0,0.0,548.0,1445,0,0,0,0,391.2,526.0,-471.2
0,0,2286,25608,0,584.0,0.0,600.0,1274,0,0,0,0,360.0,538.4,-624.0
0,0,2291,25658,0,680.0,0.0,620.0,1658,0,0,0,0,348.0,550.2,-240.0
0,0,2296,25708,0,680.0,0.0,660.0,1405,0,0,0,0,324.0,561.3,-480.0
0,0,2301,25758,0,696.0,0.0,684.0,1593,0,0,0,0,309.6,571.7,-288.0
0,0,2306,25808,0,696.0,0.0,696.0,1740,0,0,0,0,302.4,581.9,-144.0
0,0,2311,25858,0,720.0,0.0,736.0,1389,0,0,0,0,278.4,591.5,-480.0
0,0,2316,25909,0,720.0,0.0,736.0,1800,0,0,0,0,278.4,600.9,0.0
0,0,2321,25959,0,744.0,0.0,744.0,1787,0,0,0,0,273.6,610.1,-96.0
0,0,2326,26009,0,744.0,0.0,744.0,1800,0,0,0,0,273.6,619.2,0.0
0,0,2331,26059,0,800.0,0.0,744.0,1800,0,0,0,0,273.6,628.4,0.0
0,0,2336,26110,0,800.0,0.0,752.0,1800,0,0,0,0,268.8,637.6,-96.0
0,0,2341,26160,0,816.0,0.0,764.0,1764,0,0,0,0,261.6,646.4,-144.0
0,0,2346,26210,0,816.0,0.0,788.0,1614,0,0,0,0,247.2,654.8,-288.0
0,0,2351,26260,0,820.0,0.0,796.0,1800,0,0,0,0,242.4,662.9,-96.0
0,0,2356,26310,0,820.0,0.0,844.0,1308,0,0,0,0,213.6,670.4,-576.0
0,0,2361,26360,0,844.0,0.0,864.0,1639,0,0,0,0,201.6,677.4,-240.0
0,0,2366,26411,0,888.0,0.0,936.0,1000,0,0,0,0,158.4,683.3,-846.5
0,0,2371,26461,0,888.0,0.0,948.0,1695,0,0,0,0,151.2,688.4,-144.0
0,0,2376,26511,0,904.0,0.0,996.0,1239,0,0,0,0,122.4,692.8,-576.0
0,0,2381,26561,0,904.0,0.0,1012.0,1617,0,0,0,0,112.8,696.7,-192.0
0,0,2386,26612,0,908.0,0.0,1044.0,1422,0,0,0,0,93.6,700.1,-370.9
0,0,2391,26662,0,908.0,0.0,1036.0,1800,0,0,0,0,98.4,703.3,96.0
0,0,2396,26712,0,916.0,0.0,1044.0,1704,0,0,0,0,93.6,706.5,-96.0
0,0,2401,26762,0,916.0,0.0,1040.0,1800,0,0,0,0,96.0,709.6,48.0
0,0,2406,26812,0,932.0,0.0,1044.0,1758,0,0,0,0,93.6,712.7,-48.0
0,0,2411,26862,0,932.0,0.0,1056.0,1658,0,0,0,0,86.4,715.7,-144.0
0,0,2416,26912,1,944.0,0.0,1060.0,1036,0,0,0,0,84.0,0.56,-48.0
0,0,2421,26963,1,944.0,0.0,1060.0,1084,0,0,0,0,84.0,0.56,0.0
0,0,2426,27013,1,944.0,0.0,1080.0,1000,0,0,0,0,72.0,0.48,-240.0
0,0,2431,27063,1,944.0,0.0,1084.0,1022,0,0,0,0,69.6,0.464,-48.0
0,0,2436,27114,1,944.0,0.0,1108.0,1000,0,0,0,0,55.2,0.368,-288.0
0,0,2441,27164,1,944.0,0.0,1108.0,1055,0,0,0,0,55.2,0.368,0.0
0,0,2446,27214,1,912.0,0.0,1128.0,1000,0,0,0,0,43.2,0.2879,-240.0
0,0,2451,27264,1,912.0,0.0,1144.0,1000,0,0,0,0,33.6,0.224,-192.0
0,0,2456,27314,1,912.0,0.0,1164.0,1000,0,0,0,0,21.6,0.14399,-240.0
0,0,2461,27364,1,912.0,0.0,1176.0,1000,0,0,0,0,14.4,0.096,-144.0
0,0,2466,27414,1,912.0,0.0,1208.0,1000,0,0,0,0,-4.8,-0.032,-384.0
0,0,2471,27465,1,912.0,0.0,1252.0,1000,0,0,0,0,-31.2,-0.208,-510.5
0,0,2476,27515,0,936.0,0.0,1272.0,1000,0,0,0,0,-43.2,-0.5759,-240.0
0,0,2481,27565,1,936.0,0.0,1260.0,1107,0,0,0,0,-36.0,-0.24,144.0
0,0,2486,27616,1,936.0,0.0,1252.0,1064,0,0,0,0,-31.2,-0.208,96.0
0,0,2491,27666,1,936.0,0.0,1232.0,1220,0,0,0,0,-19.2,-0.128,240.0
0,0,2496,27716,1,948.0,0.0,1208.0,1283,0,0,0,0,-4.8,-0.032,288.0
0,0,2501,27766,1,948.0,0.0,1184.0,1297,0,0,0,0,9.6,0.064,288.0
0,0,2506,27816,1,960.0,0.0,1180.0,1060,0,0,0,0,12.0,0.08,48.0
0,0,2511,27866,1,960.0,0.0,1168.0,1163,0,0,0,0,19.2,0.128,144.0
0,0,2516,27916,1,948.0,0.0,1144.0,1321,0,0,0,0,33.6,0.224,288.0
0,0,2521,27967,1,948.0,0.0,1132.0,1176,0,0,0,0,40.8,0.272,135.27
0,0,2526,28017,1,928.0,0.0,1116.0,1242,0,0,0,0,50.4,0.336,192.0
0,0,2531,28067,1,928.0,0.0,1104.0,1201,0,0,0,0,57.6,0.384,144.0
0,0,2536,28118,1,928.0,0.0,1096.0,1158,0,0,0,0,62.4,0.4576,96.0
0,0,2541,28168,1,928.0,0.0,1076.0,1314,0,0,0,0,74.4,0.496,240.0
0,0,2546,28218,1,920.0,0.0,1056.0,1326,0,0,0,0,86.4,0.5759,240.0
0,0,2551,28268,1,920.0,0.0,1008.0,1691,0,0,0,0,115.2,0.768,576.0
0,0,2556,28318,1,920.0,0.0,980.0,1468,0,0,0,0,132.0,0.88,336.0
0,0,2561,28368,1,920.0,0.0,908.0,1800,0,0,0,0,175.2,1.168,864.0
0,0,2566,28418,1,916.0,0.0,884.0,1478,0,0,0,0,189.6,1.2639,288.0
0,0,2571,28469,1,916.0,0.0,848.0,1631,0,0,0,0,211.2,1.408,418.9
0,0,2576,28519,1,916.0,0.0,800.0,1800,0,0,0,0,240.0,1.6,576.0
0,0,2581,28569,1,916.0,0.0,736.0,1800,0,0,0,0,278.4,1.856,768.0
0,0,2586,28619,1,916.0,0.0,696.0,1784,0,0,0,0,302.4,2.016,480.0
0,0,2591,28670,1,916.0,0.0,624.0,1800,0,0,0,0,345.6,2.304,846.5
0,0,2596,28720,1,916.0,0.0,572.0,1800,0,0,0,0,376.8,2.511,624.0
0,0,2601,28770,1,912.0,0.0,500.0,1800,0,0,0,0,420.0,2.8,864.0
0,0,2606,28820,1,912.0,0.0,452.0,1800,0,0,0,0,448.8,2.992,576.0
0,0,2611,28870,1,880.0,0.0,392.0,1800,0,0,0,0,484.8,3.232,720.0
0,0,2616,28920,1,880.0,0.0,328.0,1800,0,0,0,0,523.2,3.488,768.0
0,0,2621,28971,1,860.0,0.0,300.0,1800,0,0,0,0,540.0,3.959,322.9
0,0,2626,29021,1,860.0,0.0,236.0,1800,0,0,0,0,578.4,3.855,768.0
0,0,2631,29071,1,676.0,0.0,196.0,1800,0,0,0,0,602.4,4.016,480.0
0,0,2636,29121,1,676.0,0.0,168.0,1800,0,0,0,0,619.2,4.128,336.0
0,0,2641,29172,1,656.0,0.0,156.0,1765,0,0,0,0,626.4,4.176,135.27
0,0,2646,29222,1,656.0,0.0,80.0,1800,0,0,0,0,672.0,4.48,912.0
0,0,2651,29272,1,528.0,0.0,64.0,1800,0,0,0,0,681.6,4.544,192.0
0,0,2656,29322,1,528.0,0.0,40.0,1800,0,0,51946,0,2091688.0,5.86,183.0
0,0,2661,29372,1,512.0,0.0,32.0,1800,0,0,0,0,700.8,4.672,96.0
0,0,2666,29422,1,512.0,0.0,28.0,1755,0,0,0,0,703.2,4.687,48.0
0,0,2671,33568,0,0.00335,51200.0,-1.835,0,0,0,0,0,-8.74,0.0,0.0
0,0,2676,29523,1,508.0,0.0,28.0,1707,0,0,0,0,703.2,4.687,0.0
0,0,2681,29573,1,504.0,0.0,28.0,1707,0,0,0,0,703.2,4.687,0.0
0,0,2686,29623,1,504.0,0.0,28.0,1707,0,0,0,0,703.2,4.687,0.0
0,0,2691,29674,1,504.0,0.0,28.0,1707,0,0,0,0,703.2,4.687,0.0
0,0,2696,29724,1,504.0,0.0,28.0,1707,0,0,0,0,703.2,4.687,0.0
0,0,2701,29774,1,492.0,0.0,28.0,1707,0,0,0,0,703.2,4.687,0.0
0,0,2706,29824,1,492.0,0.0,28.0,1707,0,0,0,0,703.2,4.687,0.0
0,0,2711,29874,1,476.0,0.0,28.0,1707,0,0,0,0,703.2,4.687,0.0
0,0,2716,29924,1,476.0,0.0,28.0,1707,0,0,0,0,703.2,4.687,0.0
0,0,2721,29974,1,448.0,0.0,28.0,1707,0,0,0,0,703.2,4.687,0.0
0,0,2726,30025,1,448.0,0.0,28.0,1707,0,0,0,0,703.2,4.687,0.0
0,0,2731,30075,1,408.0,0.0,28.0,1707,0,0,0,0,703.2,4.687,0.0
0,0,2736,30125,1,408.0,0.0,28.0,1707,0,0,0,0,703.2,4.687,0.0
0,0,2741,30176,1,388.0,0.0,28.0,1707,0,0,0,0,703.2,4.687,0.0
0,0,2746,30226,1,388.0,0.0,28.0,1707,0,0,0,0,703.2,4.687,0.0
0,0,2751,30276,1,328.0,0.0,28.0,1707,0,0,0,0,703.2,4.687,0.0
0,0,2756,30326,1,328.0,0.0,28.0,1707,0,0,0,0,703.2,4.687,0.0
0,0,2761,30376,1,324.0,0.0,28.0,1707,0,0,0,0,703.2,4.687,0.0
0,0,2766,30426,1,324.0,0.0,28.0,1707,0,0,0,0,703.2,4.687,0.0
0,0,2771,30476,1,324.0,0.0,28.0,1707,0,0,0,0,703.2,4.687,0.0
0,0,2776,30527,1,324.0,0.0,28.0,1707,0,0,0,0,703.2,4.687,0.0
0,0,2781,30577,1,328.0,0.0,28.0,1707,0,0,0,0,703.2,4.687,0.0
0,0,2786,30627,1,328.0,0.0,28.0,1707,0,0,0,0,703.2,4.687,0.0
0,0,2791,30678,1,328.0,0.0,28.0,1708,0,0,0,0,703.2,5.156,0.0
0,0,2796,30728,1,328.0,0.0,28.0,1707,0,0,0,0,703.2,4.687,0.0
0,0,2801,30778,1,328.0,0.0,28.0,1707,0,0,0,0,703.2,4.687,0.0
0,0,2806,30828,1,328.0,0.0,28.0,1707,0,0,0,0,703.2,4.687,0.0
0,0,2811,30878,1,328.0,0.0,28.0,1707,0,0,0,0,703.2,4.687,0.0
0,0,2816,30928,1,328.0,0.0,28.0,1707,0,0,0,0,703.2,4.687,0.0
0,0,2821,30978,1,328.0,0.0,28.0,1707,0,0,0,0,703.2,4.687,0.0
0,0,2826,31029,1,328.0,0.0,28.0,1707,0,0,0,0,703.2,4.687,0.0
0,0,2831,31079,1,328.0,0.0,28.0,1707,0,0,0,0,703.2,4.687,0.0
0,0,2836,31129,1,324.0,0.0,28.0,1707,0,0,0,0,703.2,4.687,0.0
0,0,2841,31179,1,324.0,0.0,28.0,1707,0,0,0,0,703.2,4.687,0.0
0,0,2846,31230,1,324.0,0.0,28.0,1707,0,0,0,0,703.2,4.687,0.0
0,0,2851,31280,1,324.0,0.0,28.0,1707,0,0,0,0,703.2,4.687,0.0
0,0,2856,31330,1,324.0,0.0,28.0,1707,0,0,0,0,703.2,4.687,0.0
0,0,2861,31380,1,324.0,0.0,28.0,1707,0,0,0,0,703.2,4.687,0.0
0,0,2866,31430,1,324.0,0.0,28.0,1707,0,0,0,0,703.2,4.687,0.0
0,0,2871,31480,1,324.0,0.0,28.0,1707,0,0,0,0,703.2,4.687,0.0
0,0,2876,31531,1,324.0,0.0,28.0,1708,0,0,0,0,703.2,5.156,0.0
0,0,2881,31581,1,324.0,0.0,28.0,1707,0,0,0,0,703.2,4.687,0.0
0,0,2886,31631,1,324.0,0.0,28.0,1707,0,0,0,0,703.2,4.687,0.0
0,0,2891,31681,1,324.0,0.0,28.0,1707,0,0,0,0,703.2,4.687,0.0
0,0,2896,31732,1,328.0,0.0,28.0,1707,0,0,0,0,703.2,4.687,0.0
0,0,2901,31782,1,328.0,0.0,28.0,1707,0,0,0,0,703.2,4.687,0.0
0,0,2906,31832,1,328.0,0.0,28.0,1707,0,0,0,0,703.2,4.687,0.0
0,0,2911,31882,1,328.0,0.0,28.0,1707,0,0,0,0,703.2,4.687,0.0
0,0,2916,31932,1,328.0,0.0,28.0,1707,0,0,0,0,703.2,4.687,0.0
0,0,2921,31982,1,328.0,0.0,28.0,1707,0,0,0,0,703.2,4.687,0.0
0,0,2926,32032,1,376.0,0.0,28.0,1707,0,0,0,0,703.2,4.687,0.0
0,0,2931,32083,1,376.0,0.0,28.0,1707,0,0,0,0,703.2,4.687,0.0
0,0,2936,32133,1,448.0,0.0,28.0,1707,0,0,0,0,703.2,4.687,0.0
0,0,2941,32183,1,448.0,0.0,28.0,1707,0,0,0,0,703.2,4.687,0.0
0,0,2946,32234,1,448.0,0.0,28.0,1707,0,0,0,0,703.2,4.687,0.0
0,0,2951,32284,1,448.0,0.0,28.0,1707,0,0,0,0,703.2,4.687,0.0
0,0,2956,32334,1,448.0,0.0,28.0,1707,0,0,0,0,703.2,4.687,0.0
0,0,2961,32384,1,448.0,0.0,28.0,1707,0,0,0,0,703.2,4.687,0.0
0,0,2966,32434,1,448.0,0.0,28.0,1707,0,0,0,0,703.2,4.687,0.0
0,0,2971,32484,1,448.0,0.0,28.0,1707,0,0,0,0,703.2,4.687,0.0
0,0,2976,32534,1,448.0,0.0,28.0,1707,0,0,0,0,703.2,4.687,0.0
0,0,2981,32585,1,448.0,0.0,28.0,1707,0,0,0,0,703.2,4.687,0.0
0,0,2986,32635,1,448.0,0.0,28.0,1707,0,0,0,0,703.2,4.687,0.0
0,0,2991,32685,1,448.0,0.0,28.0,1707,0,0,0,0,703.2,4.687,0.0
0,0,2996,32736,1,448.0,0.0,28.0,1707,0,0,0,0,703.2,4.687,0.0
0,0,3001,32786,1,448.0,0.0,28.0,1707,0,0,0,0,703.2,4.687,0.0
0,0,3006,32836,1,448.0,0.0,28.0,1707,0,0,0,0,703.2,4.687,0.0
0,0,3011,32886,1,444.0,0.0,28.0,1707,0,0,0,0,703.2,4.687,0.0
0,0,3016,32936,1,444.0,0.0,28.0,1707,0,0,0,0,703.2,4.687,0.0
0,0,3021,32986,1,444.0,0.0,28.0,1707,0,0,0,0,703.2,4.687,0.0
0,0,3026,33036,1,444.0,0.0,28.0,1707,0,0,0,0,703.2,4.687,0.0
0,0,3031,33087,1,444.0,0.0,28.0,1707,0,0,0,0,703.2,4.687,0.0
0,0,3036,33137,1,444.0,0.0,28.0,1707,0,0,0,0,703.2,4.687,0.0
0,0,3041,33187,1,444.0,0.0,28.0,1707,0,0,0,0,703.2,4.687,0.0
0,0,3046,33238,1,444.0,0.0,28.0,1708,0,0,0,0,703.2,5.156,0.0
0,0,3051,33288,1,444.0,0.0,28.0,1707,0,0,0,0,703.2,4.687,0.0
0,0,3056,33338,1,444.0,0.0,28.0,1707,0,0,0,0,703.2,4.687,0.0
0,0,3061,33388,1,444.0,0.0,28.0,1707,0,0,0,0,703.2,4.687,0.0
0,0,3066,33438,1,444.0,0.0,28.0,1707,0,0,0,0,703.2,4.687,0.0
0,0,3071,33488,1,444.0,0.0,28.0,1707,0,0,0,0,703.2,4.687,0.0
0,0,3076,33538,1,444.0,0.0,28.0,1707,0,0,0,0,703.2,4.687,0.0
0,0,3081,33589,1,444.0,0.0,28.0,1707,0,0,0,0,703.2,4.687,0.0
0,0,3086,33639,1,444.0,0.0,28.0,1707,0,0,0,0,703.2,4.687,0.0
0,0,3091,33689,1,444.0,0.0,28.0,1707,0,0,0,0,703.2,4.687,0.0
0,0,3096,33739,1,444.0,0.0,28.0,1707,0,0,0,0,703.2,4.687,0.0
0,0,3101,33790,1,400.0,0.0,28.0,1707,0,0,0,0,703.2,4.687,0.0
0,0,3106,33840,1,400.0,0.0,28.0,1707,0,0,0,0,703.2,4.687,0.0
0,0,3111,33890,1,392.0,0.0,28.0,1707,0,0,0,0,703.2,4.687,0.0
0,0,3116,33940,1,392.0,0.0,28.0,1707,0,0,0,0,703.2,4.687,0.0
0,0,3121,33990,1,388.0,0.0,28.0,1707,0,0,0,0,703.2,4.687,0.0
0,0,3126,34040,1,388.0,0.0,28.0,1707,0,0,0,0,703.2,4.687,0.0
0,0,3131,34091,1,388.0,0.0,28.0,1708,0,0,0,0,703.2,5.156,0.0
0,0,3136,34141,1,388.0,0.0,28.0,1707,0,0,0,0,703.2,4.687,0.0
0,0,3141,34191,1,388.0,0.0,28.0,1707,0,0,0,0,703.2,4.687,0.0
0,0,3146,34241,1,388.0,0.0,28.0,1707,0,0,0,0,703.2,4.687,0.0
0,0,3151,34292,1,388.0,0.0,28.0,1707,0,0,0,0,703.2,4.687,0.0
0,0,3156,34342,1,388.0,0.0,28.0,1707,0,0,0,0,703.2,4.687,0.0
0,0,3161,34392,1,388.0,0.0,28.0,1707,0,0,0,0,703.2,4.687,0.0
0,0,3166,34442,1,388.0,0.0,28.0,1707,0,0,0,0,703.2,4.687,0.0
0,0,3171,34492,1,388.0,0.0,28.0,1707,0,0,0,0,703.2,4.687,0.0
0,0,3176,34542,1,388.0,0.0,28.0,1707,0,0,0,0,703.2,4.687,0.0
0,0,3181,34592,1,392.0,0.0,28.0,1707,0,0,0,0,703.2,4.687,0.0
0,0,3186,34643,1,392.0,0.0,28.0,1707,0,0,0,0,703.2,4.687,0.0
0,0,3191,34693,1,392.0,0.0,28.0,1707,0,0,0,0,703.2,4.687,0.0
0,0,3196,34743,1,392.0,0.0,28.0,1707,0,0,0,0,703.2,4.687,0.0
0,0,3201,34794,1,392.0,0.0,28.0,1707,0,0,0,0,703.2,4.687,0.0
0,0,3206,34844,1,392.0,0.0,28.0,1707,0,0,0,0,703.2,4.687,0.0
0,0,3211,34894,1,388.0,0.0,28.0,1707,0,0,0,0,703.2,4.687,0.0
0,0,3216,34944,1,388.0,0.0,28.0,1707,0,0,0,0,703.2,4.687,0.0
0,0,3221,34994,1,388.0,0.0,28.0,1707,0,0,0,0,703.2,4.687,0.0
0,0,3226,35044,1,388.0,0.0,28.0,1707,0,0,0,0,703.2,4.687,0.0
0,0,3231,35094,1,388.0,0.0,28.0,1707,0,0,0,0,703.2,4.687,0.0
0,0,3236,35145,0,388.0,0.0,28.0,1712,0,0,0,0,703.2,9.375,0.0
0,0,3241,35195,1,388.0,0.0,28.0,1707,0,0,0,0,703.2,4.687,0.0
0,0,3246,35245,1,388.0,0.0,28.0,1707,0,0,0,0,703.2,4.687,0.0
0,0,3251,35296,1,388.0,0.0,28.0,1707,0,0,0,0,703.2,4.687,0.0
0,0,3256,35346,1,388.0,0.0,28.0,1707,0,0,0,0,703.2,4.687,0.0
0,0,3261,35396,1,388.0,0.0,28.0,1707,0,0,0,0,703.2,4.687,0.0
0,0,3266,35446,1,384.0,0.0,28.0,1707,0,0,0,0,703.2,4.687,0.0
0,0,3271,35496,1,384.0,0.0,28.0,1707,0,0,0,0,703.2,4.687,0.0
0,0,3276,35546,1,384.0,0.0,28.0,1707,0,0,0,0,703.2,4.687,0.0
0,0,3281,35596,1,384.0,0.0,28.0,1707,0,0,0,0,703.2,4.687,0.0
0,0,3286,35647,1,384.0,0.0,28.0,1707,0,0,0,0,703.2,4.687,0.0
0,0,3291,35697,1,384.0,0.0,28.0,1707,0,0,0,0,703.2,4.687,0.0
0,0,3296,35747,1,384.0,0.0,28.0,1707,0,0,0,0,703.2,4.687,0.0
0,0,3301,35798,1,384.0,0.0,28.0,1708,0,0,0,0,703.2,5.156,0.0
0,0,3306,35848,1,384.0,0.0,28.0,1707,0,0,0,0,703.2,4.687,0.0
0,0,3311,35898,1,384.0,0.0,28.0,1707,0,0,0,0,703.2,4.687,0.0
0,0,3316,35948,1,388.0,0.0,28.0,1707,0,0,0,0,703.2,4.687,0.0
0,0,3321,35998,1,388.0,0.0,28.0,1707,0,0,0,0,703.2,4.687,0.0
0,0,3326,36048,1,388.0,0.0,28.0,1707,0,0,0,0,703.2,4.687,0.0
0,0,3331,36098,1,388.0,0.0,28.0,1707,0,0,0,0,703.2,4.687,0.0
0,0,3336,36149,1,388.0,0.0,28.0,1707,0,0,0,0,703.2,4.687,0.0
0,0,3341,36199,1,388.0,0.0,28.0,1707,0,0,0,0,703.2,4.687,0.0
0,0,3346,36249,1,384.0,0.0,28.0,1707,0,0,0,0,703.2,4.687,0.0
0,0,3351,36299,1,384.0,0.0,28.0,1707,0,0,0,0,703.2,4.687,0.0
0,0,3356,36350,1,384.0,0.0,28.0,1707,0,0,0,0,703.2,4.687,0.0
0,0,3361,36400,1,384.0,0.0,28.0,1707,0,0,0,0,703.2,4.687,0.0
0,0,3366,36450,1,384.0,0.0,28.0,1707,0,0,0,0,703.2,4.687,0.0
0,0,3371,36500,1,384.0,0.0,28.0,1707,0,0,0,0,703.2,4.687,0.0
0,0,3376,36550,1,384.0,0.0,28.0,1707,0,0,0,0,703.2,4.687,0.0
0,0,3381,36600,1,384.0,0.0,28.0,1707,0,0,0,0,703.2,4.687,0.0
0,0,3386,36651,1,384.0,0.0,28.0,1708,0,0,0,0,703.2,5.156,0.0
0,0,3391,36701,1,384.0,0.0,28.0,1707,0,0,0,0,703.2,4.687,0.0
0,0,3396,36751,1,384.0,0.0,28.0,1707,0,0,0,0,703.2,4.687,0.0
0,0,3401,36801,1,384.0,0.0,28.0,1707,0,0,0,0,703.2,4.687,0.0
0,0,3406,36852,1,380.0,0.0,28.0,1707,0,0,0,0,703.2,4.687,0.0
0,0,3411,36902,1,380.0,0.0,28.0,1707,0,0,0,0,703.2,4.687,0.0
0,0,3416,36952,1,380.0,0.0,28.0,1707,0,0,0,0,703.2,4.687,0.0
0,0,3421,37002,1,380.0,0.0,28.0,1707,0,0,0,0,703.2,4.687,0.0
0,0,3426,37052,1,380.0,0.0,28.0,1707,0,0,0,0,703.2,4.687,0.0
0,0,3431,37102,1,380.0,0.0,28.0,1707,0,0,0,0,703.2,4.687,0.0
0,0,3436,37152,1,380.0,0.0,28.0,1707,0,0,0,0,703.2,4.687,0.0
0,0,3441,37203,1,380.0,0.0,28.0,1707,0,0,0,0,703.2,4.687,0.0
0,0,3446,37253,1,380.0,0.0,28.0,1707,0,0,0,0,703.2,4.687,0.0
0,0,3451,37303,1,380.0,0.0,28.0,1707,0,0,0,0,703.2,4.687,0.0
0,0,3456,37354,1,380.0,0.0,28.0,1707,0,0,0,0,703.2,4.687,0.0
0,0,3461,37404,1,380.0,0.0,28.0,1707,0,0,0,0,703.2,4.687,0.0
0,0,3466,37454,1,380.0,0.0,28.0,1707,0,0,0,0,703.2,4.687,0.0
0,0,3471,37504,1,388.0,0.0,28.0,1707,0,0,0,0,703.2,4.687,0.0
0,0,3476,37554,1,388.0,0.0,28.0,1707,0,0,0,0,703.2,4.687,0.0
0,0,3481,37604,1,388.0,0.0,28.0,1707,0,0,0,0,703.2,4.687,0.0
0,0,3486,37654,1,388.0,0.0,28.0,1707,0,0,0,0,703.2,4.687,0.0
0,0,3491,37705,1,388.0,0.0,28.0,1707,0,0,0,0,703.2,4.687,0.0
0,0,3496,37755,1,388.0,0.0,28.0,1707,0,0,0,0,703.2,4.687,0.0
0,0,3501,37805,1,388.0,0.0,28.0,1707,0,0,0,0,703.2,4.687,0.0
0,0,3506,37856,1,388.0,0.0,28.0,1707,0,0,0,0,703.2,4.687,0.0
0,0,3511,37906,1,388.0,0.0,28.0,1707,0,0,0,0,703.2,4.687,0.0
0,0,3516,37956,1,388.0,0.0,28.0,1707,0,0,0,0,703.2,4.687,0.0
0,0,3521,38006,1,388.0,0.0,28.0,1707,0,0,0,0,703.2,4.687,0.0
0,0,3526,38056,1,388.0,0.0,28.0,1707,0,0,0,0,703.2,4.687,0.0
0,0,3531,38106,1,392.0,0.0,28.0,1707,0,0,0,0,703.2,4.687,0.0
0,0,3536,38156,1,392.0,0.0,28.0,1707,0,0,0,0,703.2,4.687,0.0
0,0,3541,38207,1,392.0,0.0,28.0,1707,0,0,0,0,703.2,4.687,0.0
0,0,3546,38257,1,392.0,0.0,28.0,1707,0,0,0,0,703.2,4.687,0.0
0,0,3551,38307,1,392.0,0.0,28.0,1707,0,0,0,0,703.2,4.687,0.0
0,0,3556,38358,1,392.0,0.0,28.0,1708,0,0,0,0,703.2,5.156,0.0
0,0,3561,38408,1,388.0,0.0,28.0,1707,0,0,0,0,703.2,4.687,0.0
0,0,3566,38458,1,388.0,0.0,28.0,1707,0,0,0,0,703.2,4.687,0.0
0,0,3571,38508,1,388.0,0.0,28.0,1707,0,0,0,0,703.2,4.687,0.0
0,0,3576,38558,1,388.0,0.0,28.0,1707,0,0,0,0,703.2,4.687,0.0
0,0,3581,38608,1,388.0,0.0,28.0,1707,0,0,0,0,703.2,4.687,0.0
0,0,3586,38658,1,388.0,0.0,28.0,1707,0,0,0,0,703.2,4.687,0.0
0,0,3591,38709,1,388.0,0.0,28.0,1707,0,0,0,0,703.2,4.687,0.0
0,0,3596,38759,1,388.0,0.0,28.0,1707,0,0,0,0,703.2,4.687,0.0
0,0,3601,38809,1,388.0,0.0,28.0,1707,0,0,0,0,703.2,4.687,0.0
0,0,3606,38859,1,388.0,0.0,28.0,1707,0,0,0,0,703.2,4.687,0.0
0,0,3611,38910,1,388.0,0.0,28.0,1707,0,0,0,0,703.2,4.687,0.0
0,0,3616,38960,1,388.0,0.0,28.0,1707,0,0,0,0,703.2,4.687,0.0
0,0,3621,39010,1,388.0,0.0,28.0,1707,0,0,0,0,703.2,4.687,0.0
0,0,3626,39060,1,388.0,0.0,28.0,1707,0,0,0,0,703.2,4.687,0.0
0,0,3631,39110,1,388.0,0.0,28.0,1707,0,0,0,0,703.2,4.687,0.0
0,0,3636,39160,1,388.0,0.0,28.0,1707,0,0,0,0,703.2,4.687,0.0
0,0,3641,39211,1,388.0,0.0,28.0,1708,0,0,0,0,703.2,5.156,0.0
0,0,3646,39261,1,388.0,0.0,28.0,1707,0,0,0,0,703.2,4.687,0.0
0,0,3651,39311,1,388.0,0.0,28.0,1707,0,0,0,0,703.2,4.687,0.0
0,0,3656,39361,1,388.0,0.0,28.0,1707,0,0,0,0,703.2,4.687,0.0
0,0,3661,39412,1,388.0,0.0,28.0,1707,0,0,0,0,703.2,4.687,0.0
0,0,3666,39462,1,388.0,0.0,28.0,1707,0,0,0,0,703.2,4.687,0.0
0,0,3671,39512,1,388.0,0.0,28.0,1707,0,0,0,0,703.2,4.687,0.0
0,0,3676,39562,1,388.0,0.0,28.0,1707,0,0,0,0,703.2,4.687,0.0
0,0,3681,39612,1,388.0,0.0,28.0,1707,0,0,0,0,703.2,4.687,0.0
0,0,3686,39662,1,388.0,0.0,28.0,1707,0,0,0,0,703.2,4.687,0.0
0,0,3691,39712,1,388.0,0.0,28.0,1707,0,0,0,0,703.2,4.687,0.0
0,0,3696,39763,1,388.0,0.0,28.0,1707,0,0,0,0,703.2,4.687,0.0
0,0,3701,39813,1,388.0,0.0,28.0,1707,0,0,0,0,703.2,4.687,0.0
0,0,3706,39863,1,388.0,0.0,28.0,1707,0,0,0,0,703.2,4.687,0.0
0,0,3711,39914,1,388.0,0.0,28.0,1707,0,0,0,0,703.2,4.687,0.0
0,0,3716,39964,1,388.0,0.0,28.0,1707,0,0,0,0,703.2,4.687,0.0
0,0,3721,40014,1,388.0,0.0,28.0,1707,0,0,0,0,703.2,4.687,0.0
0,0,3726,40064,1,388.0,0.0,28.0,1707,0,0,0,0,703.2,4.687,0.0
0,0,3731,40114,1,388.0,0.0,28.0,1707,0,0,0,0,703.2,4.687,0.0
0,0,3736,40164,1,388.0,0.0,28.0,1707,0,0,0,0,703.2,4.687,0.0
0,0,3741,40214,1,388.0,0.0,28.0,1707,0,0,0,0,703.2,4.687,0.0
0,0,3746,40265,1,388.0,0.0,28.0,1707,0,0,0,0,703.2,4.687,0.0
0,0,3751,40315,1,388.0,0.0,28.0,1707,0,0,0,0,703.2,4.687,0.0
0,0,3756,40365,1,388.0,0.0,28.0,1707,0,0,0,0,703.2,4.687,0.0
0,0,3761,40416,1,388.0,0.0,28.0,1707,0,0,0,0,703.2,4.687,0.0
0,0,3766,40466,1,388.0,0.0,28.0,1707,0,0,0,0,703.2,4.687,0.0
0,0,3771,40516,1,388.0,0.0,28.0,1707,0,0,0,0,703.2,4.687,0.0
0,0,3776,40566,1,388.0,0.0,28.0,1707,0,0,0,0,703.2,4.687,0.0
0,0,3781,40616,1,388.0,0.0,28.0,1707,0,0,0,0,703.2,4.687,0.0
0,0,3786,40666,1,388.0,0.0,28.0,1707,0,0,0,0,703.2,4.687,0.0
0,0,3791,40716,1,388.0,0.0,28.0,1707,0,0,0,0,703.2,4.687,0.0
0,0,3796,40767,1,388.0,0.0,28.0,1707,0,0,0,0,703.2,4.687,0.0
0,0,3801,40817,1,388.0,0.0,28.0,1707,0,0,0,0,703.2,4.687,0.0
0,0,3806,40867,1,388.0,0.0,28.0,1707,0,0,0,0,703.2,4.687,0.0
0,0,3811,40918,1,388.0,0.0,28.0,1708,0,0,0,0,703.2,5.156,0.0
0,0,3816,40968,1,388.0,0.0,28.0,1707,0,0,0,0,703.2,4.687,0.0
0,0,3821,41018,1,388.0,0.0,28.0,1707,0,0,0,0,703.2,4.687,0.0
0,0,3826,41068,1,376.0,0.0,28.0,1707,0,0,0,0,703.2,4.687,0.0
0,0,3831,41118,1,376.0,0.0,28.0,1707,0,0,0,0,703.2,4.687,0.0
0,0,3836,41168,1,372.0,0.0,28.0,1707,0,0,0,0,703.2,4.687,0.0
0,0,3841,41218,1,372.0,0.0,28.0,1707,0,0,0,0,703.2,4.687,0.0
0,0,3846,41269,1,372.0,0.0,28.0,1707,0,0,0,0,703.2,4.687,0.0
0,0,3851,41319,1,360.0,0.0,28.0,1707,0,0,0,0,703.2,4.687,0.0
0,0,3856,41369,1,360.0,0.0,28.0,1707,0,0,0,0,703.2,4.687,0.0
0,0,3861,41419,1,352.0,0.0,28.0,1707,0,0,0,0,703.2,4.687,0.0
0,0,3866,41470,1,352.0,0.0,28.0,1707,0,0,0,0,703.2,4.687,0.0
0,0,3871,41520,1,352.0,0.0,28.0,1707,0,0,0,0,703.2,4.687,0.0
0,0,3876,41570,1,352.0,0.0,28.0,1707,0,0,0,0,703.2,4.687,0.0
0,0,3881,41620,1,352.0,0.0,28.0,1707,0,0,0,0,703.2,4.687,0.0
0,0,3886,41670,1,352.0,0.0,28.0,1707,0,0,0,0,703.2,4.687,0.0
0,0,3891,41720,1,384.0,0.0,28.0,1707,0,0,0,0,703.2,4.687,0.0
0,0,3896,41771,1,384.0,0.0,28.0,1708,0,0,0,0,703.2,5.156,0.0
0,0,3901,41821,1,512.0,0.0,28.0,1707,0,0,0,0,703.2,4.687,0.0
0,0,3906,41871,1,512.0,0.0,28.0,1707,0,0,0,0,703.2,4.687,0.0
0,0,3911,41921,1,512.0,0.0,28.0,1707,0,0,0,0,703.2,4.687,0.0
0,0,3916,41972,1,512.0,0.0,28.0,1707,0,0,0,0,703.2,4.687,0.0
0,0,3921,42022,1,516.0,0.0,28.0,1707,0,0,0,0,703.2,4.687,0.0
0,0,3926,42072,1,516.0,0.0,28.0,1707,0,0,0,0,703.2,4.687,0.0
0,0,3931,42122,1,1064.0,0.0,28.0,1707,0,0,0,0,703.2,4.687,0.0
0,0,3936,42172,1,1064.0,0.0,28.0,1707,0,0,0,0,703.2,4.687,0.0
0,0,3941,42222,1,1064.0,0.0,28.0,1707,0,0,0,0,703.2,4.687,0.0
0,0,3946,42272,1,1064.0,0.0,28.0,1707,0,0,0,0,703.2,4.687,0.0
0,0,3951,42323,1,1064.0,0.0,28.0,1707,0,0,0,0,703.2,4.687,0.0
0,0,3956,42373,1,1064.0,0.0,28.0,1707,0,0,0,0,703.2,4.687,0.0
0,0,3961,42423,1,984.0,0.0,28.0,1707,0,0,0,0,703.2,4.687,0.0
0,0,3966,42474,1,984.0,0.0,28.0,1707,0,0,0,0,703.2,4.687,0.0
0,0,3971,42524,1,968.0,0.0,28.0,1707,0,0,0,0,703.2,4.687,0.0
0,0,3976,42574,1,968.0,0.0,28.0,1707,0,0,0,0,703.2,4.687,0.0
0,0,3981,42624,1,968.0,0.0,28.0,1707,0,0,0,0,703.2,4.687,0.0
0,0,3986,42674,1,968.0,0.0,28.0,1707,0,0,0,0,703.2,4.687,0.0
0,0,3991,42724,1,888.0,0.0,28.0,1707,0,0,0,0,703.2,4.687,0.0
0,0,3996,42774,1,888.0,0.0,28.0,1707,0,0,0,0,703.2,4.687,0.0
0,0,4001,42825,1,872.0,0.0,28.0,1707,0,0,0,0,703.2,4.687,0.0
0,0,4006,42875,1,872.0,0.0,28.0,1707,0,0,0,0,703.2,4.687,0.0
0,0,4011,42925,1,868.0,0.0,28.0,1707,0,0,0,0,703.2,4.687,0.0
0,0,4016,42976,1,868.0,0.0,28.0,1707,0,0,0,0,703.2,4.687,0.0
0,0,4021,43026,1,868.0,0.0,28.0,1707,0,0,0,0,703.2,4.687,0.0
0,0,4026,43076,1,868.0,0.0,28.0,1707,0,0,0,0,703.2,4.687,0.0
0,0,4031,43126,1,864.0,0.0,28.0,1707,0,0,0,0,703.2,4.687,0.0
0,0,4036,43176,1,864.0,0.0,28.0,1707,0,0,0,0,703.2,4.687,0.0
0,0,4041,43226,1,864.0,0.0,28.0,1707,0,0,0,0,703.2,4.687,0.0
0,0,4046,43276,1,864.0,0.0,28.0,1707,0,0,0,0,703.2,4.687,0.0
0,0,4051,43327,1,864.0,0.0,28.0,1707,0,0,0,0,703.2,4.687,0.0
0,0,4056,43377,1,864.0,0.0,28.0,1707,0,0,0,0,703.2,4.687,0.0
0,0,4061,43427,1,884.0,0.0,28.0,1707,0,0,0,0,703.2,4.687,0.0
0,0,4066,43478,1,1376.0,0.0,28.0,1708,0,0,0,0,703.2,5.156,0.0
0,0,4071,43528,1,1376.0,0.0,28.0,1707,0,0,0,0,703.2,4.687,0.0
0,0,4076,43578,1,1388.0,0.0,28.0,1707,0,0,0,0,703.2,4.687,0.0
0,0,4081,43628,1,1388.0,0.0,28.0,1707,0,0,0,0,703.2,4.687,0.0
0,0,4086,43678,1,1376.0,0.0,28.0,1707,0,0,0,0,703.2,4.687,0.0
0,0,4091,43728,1,1376.0,0.0,28.0,1707,0,0,0,0,703.2,4.687,0.0
0,0,0,43778,1,1376.0,0.0,28.0,1707,0,0,0,0,703.2,4.687,0.0
0,0,5,43829,1,1376.0,0.0,28.0,1707,0,0,0,0,703.2,4.687,0.0
0,0,10,43879,1,1380.0,0.0,28.0,1707,0,0,0,0,703.2,4.687,0.0
0,0,15,43929,1,1380.0,0.0,28.0,1707,0,0,0,0,703.2,4.687,0.0
0,0,20,43979,1,1380.0,0.0,28.0,1707,0,0,0,0,703.2,4.687,0.0
0,0,25,44030,1,1380.0,0.0,28.0,1707,0,0,0,0,703.2,4.687,0.0
0,0,30,44080,1,1380.0,0.0,28.0,1707,0,0,0,0,703.2,4.687,0.0
0,0,35,44130,1,1380.0,0.0,28.0,1707,0,0,0,0,703.2,4.687,0.0
0,0,40,44180,1,1384.0,0.0,28.0,1707,0,0,0,0,703.2,4.687,0.0
0,0,45,44230,1,1384.0,0.0,28.0,1707,0,0,0,0,703.2,4.687,0.0
0,0,50,44280,1,1388.0,0.0,28.0,1707,0,0,0,0,703.2,4.687,0.0
0,0,55,44331,1,1388.0,0.0,28.0,1708,0,0,0,0,703.2,5.156,0.0
0,0,60,44381,1,1388.0,0.0,28.0,1707,0,0,0,0,703.2,4.687,0.0
0,0,65,44431,1,1388.0,0.0,28.0,1707,0,0,0,0,703.2,4.687,0.0
0,0,70,44481,1,1388.0,0.0,28.0,1707,0,0,0,0,703.2,4.687,0.0
0,0,75,44532,1,1388.0,0.0,28.0,1707,0,0,0,0,703.2,4.687,0.0
0,0,80,44582,1,1388.0,0.0,28.0,1707,0,0,0,0,703.2,4.687,0.0
0,0,85,44632,1,1388.0,0.0,28.0,1707,0,0,0,0,703.2,4.687,0.0
0,0,90,44682,1,1388.0,0.0,28.0,1707,0,0,0,0,703.2,4.687,0.0
0,0,95,44732,1,1388.0,0.0,28.0,1707,0,0,0,0,703.2,4.687,0.0
0,0,100,44782,1,1388.0,0.0,28.0,1707,0,0,0,0,703.2,4.687,0.0
0,0,105,44832,1,1388.0,0.0,28.0,1707,0,0,0,0,703.2,4.687,0.0
0,0,110,44883,1,1388.0,0.0,28.0,1707,0,0,0,0,703.2,4.687,0.0
0,0,115,44933,1,1388.0,0.0,28.0,1707,0,0,0,0,703.2,4.687,0.0
0,0,120,44983,1,1388.0,0.0,28.0,1707,0,0,0,0,703.2,4.687,0.0
0,0,125,45034,1,1388.0,0.0,28.0,1707,0,0,0,0,703.2,4.687,0.0
0,0,130,45084,1,1388.0,0.0,28.0,1707,0,0,0,0,703.2,4.687,0.0
0,0,135,45134,1,1388.0,0.0,28.0,1707,0,0,0,0,703.2,4.687,0.0
0,0,140,45184,1,1388.0,0.0,28.0,1707,0,0,0,0,703.2,4.687,0.0
0,0,145,45234,1,1388.0,0.0,28.0,1707,0,0,0,0,703.2,4.687,0.0
0,0,150,45284,1,1388.0,0.0,28.0,1707,0,0,0,0,703.2,4.687,0.0
0,0,155,45334,1,1388.0,0.0,28.0,1707,0,0,0,0,703.2,4.687,0.0
0,0,160,45385,1,1388.0,0.0,28.0,1707,0,0,0,0,703.2,4.687,0.0
0,0,165,45435,1,1388.0,0.0,28.0,1707,0,0,0,0,703.2,4.687,0.0
0,0,170,45485,1,1388.0,0.0,28.0,1707,0,0,0,0,703.2,4.687,0.0
0,0,175,45536,1,1388.0,0.0,28.0,1707,0,0,0,0,703.2,4.687,0.0
0,0,180,45586,1,1388.0,0.0,28.0,1707,0,0,0,0,703.2,4.687,0.0
0,0,185,45636,1,1388.0,0.0,28.0,1707,0,0,0,0,703.2,4.687,0.0
0,0,190,45686,1,1388.0,0.0,28.0,1707,0,0,0,0,703.2,4.687,0.0
0,0,195,45736,1,1388.0,0.0,28.0,1707,0,0,0,0,703.2,4.687,0.0
0,0,200,45786,1,1388.0,0.0,28.0,1707,0,0,0,0,703.2,4.687,0.0
0,0,205,45836,1,1388.0,0.0,28.0,1707,0,0,0,0,703.2,4.687,0.0
0,0,210,45887,1,1388.0,0.0,28.0,1707,0,0,0,0,703.2,4.687,0.0
0,0,215,45937,1,1388.0,0.0,28.0,1707,0,0,0,0,703.2,4.687,0.0
0,0,220,45987,1,1388.0,0.0,28.0,1707,0,0,0,0,703.2,4.687,0.0
0,0,225,46038,1,1384.0,0.0,28.0,1708,0,0,0,0,703.2,5.156,0.0
0,0,230,46088,1,1384.0,0.0,28.0,1707,0,0,0,0,703.2,4.687,0.0
0,0,235,46138,1,1384.0,0.0,28.0,1707,0,0,0,0,703.2,4.687,0.0
0,0,240,46188,1,1384.0,0.0,28.0,1707,0,0,0,0,703.2,4.687,0.0
0,0,245,46238,1,1388.0,0.0,28.0,1707,0,0,0,0,703.2,4.687,0.0
0,0,250,46288,1,1388.0,0.0,28.0,1707,0,0,0,0,703.2,4.687,0.0
0,0,255,46338,1,1388.0,0.0,28.0,1707,0,0,0,0,703.2,4.687,0.0
0,0,260,46389,1,1388.0,0.0,28.0,1707,0,0,0,0,703.2,4.687,0.0
0,0,265,46439,1,1384.0,0.0,28.0,1707,0,0,0,0,703.2,4.687,0.0
0,0,270,46489,0,1384.0,0.0,28.0,1717,0,0,0,0,703.2,14.063,0.0
0,0,275,46539,1,1384.0,0.0,28.0,1707,0,0,0,0,703.2,4.687,0.0
0,0,280,46590,1,1384.0,0.0,28.0,1707,0,0,0,0,703.2,4.687,0.0
0,0,285,46640,1,1388.0,0.0,28.0,1707,0,0,0,0,703.2,4.687,0.0
0,0,290,46690,1,1388.0,0.0,28.0,1707,0,0,0,0,703.2,4.687,0.0
0,0,295,46740,1,1388.0,0.0,28.0,1707,0,0,0,0,703.2,4.687,0.0
0,0,300,46790,1,1388.0,0.0,28.0,1707,0,0,0,0,703.2,4.687,0.0
0,0,305,46840,1,1384.0,0.0,28.0,1707,0,0,0,0,703.2,4.687,0.0
0,0,310,46891,1,1384.0,0.0,28.0,1708,0,0,0,0,703.2,5.156,0.0
0,0,315,46941,1,1384.0,0.0,28.0,1707,0,0,0,0,703.2,4.687,0.0
0,0,320,46991,1,1384.0,0.0,28.0,1707,0,0,0,0,703.2,4.687,0.0
0,0,325,47041,1,1388.0,0.0,28.0,1707,0,0,0,0,703.2,4.687,0.0
0,0,330,47092,1,1388.0,0.0,28.0,1707,0,0,0,0,703.2,4.687,0.0
