InitialVarHeader,InitialVars,logNo,timeStep,controlMode,forwardSensor1,forwardSensor2,AltitudeSensor,throttleControl,yawControl,rollControl,pitchControl,stablilityModeControl,errorP,errorI,errorD
ALTITUDE_KP,0.8,6,2719,0,-13368.0,0.0,328.0,1000,0,0,0,0,0.0,0.0,0.0
ALTITUDE_KI,0.4,11,2769,0,-13368.0,0.0,328.0,1000,0,0,0,0,0.0,0.0,0.0
ALTITUDE_KD,0.0,16,2819,0,384.0,0.0,324.0,1800,0,0,0,0,700.8,17.45,7008.0
THROTTLE_LIMIT,1800.0,21,2869,0,384.0,0.0,324.0,1800,0,0,0,0,700.8,34.96,7008.0
ALTITUDE_PID_GAIN_RATIO,1.0,26,2919,0,370.0,0.0,320.0,1788,0,0,0,0,704.0,52.51,32.0
ALTITUDE_HOVER_HEIGHT,1200.0,31,2969,0,370.0,0.0,320.0,1800,0,0,0,0,704.0,70.14,32.0
0,0,36,3019,0,384.0,0.0,320.0,1791,0,0,0,0,704.0,87.77,0.0
0,0,41,3070,0,384.0,0.0,328.0,1739,0,0,0,0,697.6,105.63,-64.0
0,0,46,3120,0,416.0,0.0,328.0,1756,0,0,0,0,697.6,123.05,-64.0
0,0,51,3170,0,416.0,0.0,316.0,1800,0,0,0,0,707.2,140.72,96.0
0,0,56,3220,0,1272.0,0.0,316.0,1800,0,0,0,0,707.2,158.39,96.0
0,0,61,3270,0,1272.0,0.0,320.0,1800,0,0,0,0,704.0,176.0,-32.0
0,0,66,3320,0,1280.0,0.0,324.0,1800,0,0,0,0,700.8,193.6,-64.0
0,0,71,3371,0,1280.0,0.0,324.0,1800,0,0,0,0,700.8,211.5,-32.0
0,0,76,3421,0,1292.0,0.0,328.0,1800,0,0,0,0,697.6,229.0,-32.0
0,0,81,3471,0,1292.0,0.0,328.0,1800,0,0,0,0,697.6,246.4,-32.0
0,0,86,3521,0,1292.0,0.0,316.0,1800,0,0,0,0,707.2,263.9,96.0
0,0,91,3572,0,1292.0,0.0,320.0,1800,0,0,0,0,704.0,281.9,64.0
0,0,96,3622,0,1292.0,0.0,324.0,1800,0,0,0,0,700.8,299.4,-64.0
0,0,101,3672,0,1292.0,0.0,320.0,1800,0,0,0,0,704.0,317.0,0.0
0,0,106,3722,0,1292.0,0.0,320.0,1800,0,0,0,0,704.0,334.6,32.0
0,0,111,3772,0,1240.0,0.0,320.0,1800,0,0,0,0,704.0,352.2,0.0
0,0,116,3822,0,1240.0,0.0,324.0,1800,0,0,0,0,700.8,369.8,-32.0
0,0,121,3872,0,1240.0,0.0,324.0,1800,0,0,0,0,700.8,387.3,-32.0
0,0,126,3923,0,1240.0,0.0,320.0,1800,0,0,0,0,704.0,405.1,37.81
0,0,131,3973,0,1236.0,0.0,332.0,1800,0,0,0,0,694.4,422.6,-58.18
0,0,136,4023,0,1236.0,0.0,328.0,1800,0,0,0,0,697.6,440.0,-64.0
0,0,141,4074,0,1236.0,0.0,316.0,1800,0,0,0,0,707.2,458.0,125.09
0,0,146,4124,0,1236.0,0.0,324.0,1800,0,0,0,0,700.8,475.5,29.09
0,0,151,4174,0,1224.0,0.0,316.0,1800,0,0,0,0,707.2,493.1,0.0
0,0,156,4224,0,1224.0,0.0,332.0,1800,0,0,0,0,694.4,510.4,-64.0
0,0,161,4274,0,1196.0,0.0,320.0,1800,0,0,0,0,704.0,528.0,-32.0
0,0,166,4324,0,1196.0,0.0,316.0,1800,0,0,0,0,707.2,545.6,128.0
0,0,171,4374,0,1116.0,0.0,316.0,1800,0,0,0,0,707.2,563.3,32.0
0,0,176,4425,0,1116.0,0.0,324.0,1800,0,0,0,0,700.8,581.3,-61.09
0,0,181,4475,0,1096.0,0.0,328.0,1800,0,0,0,0,697.6,598.7,-93.09
0,0,186,4525,0,1096.0,0.0,320.0,1800,0,0,0,0,704.0,616.3,32.0
0,0,191,4576,0,804.0,0.0,320.0,1800,0,0,0,0,704.0,634.2,64.0
0,0,196,4626,0,804.0,0.0,328.0,1800,0,0,0,0,697.6,651.7,-64.0
0,0,201,4676,0,592.0,0.0,328.0,1800,0,0,0,0,697.6,669.2,-64.0
0,0,206,4726,0,592.0,0.0,316.0,1800,0,0,0,0,707.2,686.9,96.0
0,0,211,4776,0,592.0,0.0,320.0,1800,0,0,0,0,704.0,704.4,64.0
0,0,216,4826,0,592.0,0.0,324.0,1800,0,0,0,0,700.8,722.0,-64.0
0,0,221,4876,1,592.0,0.0,324.0,1672,0,0,0,0,700.8,3.504,-32.0
0,0,226,4927,1,592.0,0.0,324.0,1704,0,0,0,0,700.8,3.504,0.0
0,0,231,4977,1,596.0,0.0,324.0,1704,0,0,0,0,700.8,3.504,0.0
0,0,236,5027,1,596.0,0.0,324.0,1704,0,0,0,0,700.8,3.504,0.0
0,0,241,5078,1,596.0,0.0,324.0,1704,0,0,0,0,700.8,3.854,0.0
0,0,246,5128,1,596.0,0.0,316.0,1774,0,0,0,0,707.2,3.536,64.0
0,0,251,5178,1,596.0,0.0,312.0,1800,0,0,0,0,710.4,3.552,96.0
0,0,256,5228,1,596.0,0.0,316.0,1710,0,0,0,0,707.2,3.536,0.0
0,0,261,5278,1,596.0,0.0,328.0,1573,0,0,0,0,697.6,3.488,-128.0
0,0,266,5328,1,596.0,0.0,324.0,1640,0,0,0,0,700.8,3.504,-64.0
0,0,271,5378,1,592.0,0.0,324.0,1736,0,0,0,0,700.8,3.504,32.0
0,0,276,5429,1,592.0,0.0,324.0,1704,0,0,0,0,700.8,3.504,0.0
0,0,281,5479,1,420.0,0.0,316.0,1774,0,0,0,0,707.2,3.536,64.0
0,0,286,5529,1,420.0,0.0,324.0,1704,0,0,0,0,700.8,3.504,0.0
0,0,291,5579,1,384.0,0.0,316.0,1710,0,0,0,0,707.2,3.536,0.0
0,0,296,5630,1,384.0,0.0,332.0,1633,0,0,0,0,694.4,3.472,-64.0
0,0,301,5680,1,380.0,0.0,332.0,1569,0,0,0,0,694.4,3.472,-128.0
0,0,306,5730,1,380.0,0.0,328.0,1733,0,0,0,0,697.6,3.488,32.0
0,0,311,5780,1,380.0,0.0,320.0,1800,0,0,0,0,704.0,3.52,96.0
0,0,316,5830,1,396.0,0.0,324.0,1736,0,0,0,0,700.8,3.504,32.0
0,0,321,5880,1,396.0,0.0,324.0,1672,0,0,0,0,700.8,3.504,-32.0
0,0,326,5931,1,396.0,0.0,316.0,1769,0,0,0,0,707.2,3.889,58.18
0,0,331,5981,1,396.0,0.0,324.0,1698,0,0,0,0,700.8,3.504,-5.818
0,0,336,6031,1,412.0,0.0,324.0,1640,0,0,0,0,700.8,3.504,-64.0
0,0,341,6081,1,412.0,0.0,328.0,1669,0,0,0,0,697.6,3.488,-32.0
0,0,346,6132,1,416.0,0.0,316.0,1774,0,0,0,0,707.2,3.536,64.0
0,0,351,6182,1,416.0,0.0,320.0,1771,0,0,0,0,704.0,3.52,64.0
0,0,356,6232,1,416.0,0.0,332.0,1569,0,0,0,0,694.4,3.472,-128.0
0,0,361,6282,1,416.0,0.0,324.0,1672,0,0,0,0,700.8,3.504,-32.0
0,0,366,6332,1,416.0,0.0,320.0,1800,0,0,0,0,704.0,3.52,96.0
0,0,371,6382,1,416.0,0.0,316.0,1774,0,0,0,0,707.2,3.536,64.0
0,0,376,6432,1,416.0,0.0,328.0,1637,0,0,0,0,697.6,3.488,-64.0
0,0,381,6483,1,416.0,0.0,320.0,1672,0,0,0,0,704.0,3.52,-34.9
0,0,386,6533,1,416.0,0.0,328.0,1698,0,0,0,0,697.6,3.488,-2.909
0,0,391,6583,1,416.0,0.0,320.0,1707,0,0,0,0,704.0,3.52,0.0
0,0,396,6634,1,416.0,0.0,324.0,1736,0,0,0,0,700.8,3.504,32.0
0,0,401,6684,1,416.0,0.0,324.0,1672,0,0,0,0,700.8,3.504,-32.0
0,0,406,6734,1,484.0,0.0,324.0,1704,0,0,0,0,700.8,3.504,0.0
0,0,411,6784,1,484.0,0.0,328.0,1669,0,0,0,0,697.6,3.488,-32.0
0,0,416,6834,1,484.0,0.0,332.0,1633,0,0,0,0,694.4,3.472,-64.0
0,0,421,6884,1,484.0,0.0,324.0,1736,0,0,0,0,700.8,3.504,32.0
0,0,426,6934,1,484.0,0.0,324.0,1768,0,0,0,0,700.8,3.504,64.0
0,0,431,6985,1,484.0,0.0,316.0,1774,0,0,0,0,707.2,3.536,64.0
0,0,436,7035,1,480.0,0.0,316.0,1774,0,0,0,0,707.2,3.536,64.0
0,0,441,7085,1,480.0,0.0,328.0,1605,0,0,0,0,697.6,3.488,-96.0
0,0,446,7136,1,476.0,0.0,316.0,1707,0,0,0,0,707.2,3.536,-2.909
0,0,451,7186,1,476.0,0.0,316.0,1800,0,0,0,0,707.2,3.536,93.09
0,0,456,7236,1,468.0,0.0,332.0,1569,0,0,0,0,694.4,3.472,-128.0
0,0,461,7286,1,468.0,0.0,312.0,1745,0,0,0,0,710.4,3.552,32.0
0,0,466,7336,1,468.0,0.0,328.0,1733,0,0,0,0,697.6,3.488,32.0
0,0,471,7386,1,468.0,0.0,328.0,1573,0,0,0,0,697.6,3.488,-128.0
0,0,476,7436,1,440.0,0.0,324.0,1736,0,0,0,0,700.8,3.504,32.0
0,0,481,7487,1,440.0,0.0,316.0,1800,0,0,0,0,707.2,3.536,93.09
0,0,486,7537,1,400.0,0.0,332.0,1630,0,0,0,0,694.4,3.472,-66.9
0,0,491,7587,1,400.0,0.0,312.0,1745,0,0,0,0,710.4,3.552,32.0
0,0,496,7638,1,392.0,0.0,328.0,1733,0,0,0,0,697.6,3.836,32.0
0,0,501,7688,1,392.0,0.0,324.0,1608,0,0,0,0,700.8,3.504,-96.0
0,0,506,7738,1,392.0,0.0,312.0,1800,0,0,0,0,710.4,3.552,128.0
0,0,511,7788,1,392.0,0.0,328.0,1669,0,0,0,0,697.6,3.488,-32.0
0,0,516,7838,1,392.0,0.0,332.0,1537,0,0,0,0,694.4,3.472,-160.0
0,0,521,7888,1,416.0,0.0,320.0,1771,0,0,0,0,704.0,3.52,64.0
0,0,526,7938,1,416.0,0.0,328.0,1733,0,0,0,0,697.6,3.488,32.0
0,0,531,7989,1,624.0,0.0,324.0,1672,0,0,0,0,700.8,3.504,-32.0
0,0,536,8039,1,624.0,0.0,324.0,1736,0,0,0,0,700.8,3.504,32.0
0,0,541,8089,1,688.0,0.0,328.0,1669,0,0,0,0,697.6,3.488,-32.0
0,0,546,8139,1,688.0,0.0,328.0,1669,0,0,0,0,697.6,3.488,-32.0
0,0,551,8190,1,688.0,0.0,316.0,1800,0,0,0,0,707.2,3.536,93.09
0,0,556,8240,1,688.0,0.0,324.0,1733,0,0,0,0,700.8,3.504,29.09
0,0,561,8290,1,688.0,0.0,320.0,1675,0,0,0,0,704.0,3.52,-32.0
0,0,566,8340,1,688.0,0.0,324.0,1704,0,0,0,0,700.8,3.504,0.0
0,0,571,8390,1,672.0,0.0,328.0,1637,0,0,0,0,697.6,3.488,-64.0
0,0,576,8440,1,672.0,0.0,324.0,1704,0,0,0,0,700.8,3.504,0.0
0,0,581,8491,1,672.0,0.0,324.0,1736,0,0,0,0,700.8,3.854,32.0
0,0,586,8541,1,672.0,0.0,328.0,1669,0,0,0,0,697.6,3.488,-32.0
0,0,591,8591,1,644.0,0.0,324.0,1704,0,0,0,0,700.8,3.504,0.0
0,0,596,8641,1,644.0,0.0,324.0,1736,0,0,0,0,700.8,3.504,32.0
0,0,601,8692,1,672.0,0.0,324.0,1710,0,0,0,0,700.8,3.504,5.818
0,0,606,8742,1,672.0,0.0,328.0,1674,0,0,0,0,697.6,3.488,-26.18
0,0,611,8792,1,708.0,0.0,316.0,1774,0,0,0,0,707.2,3.536,64.0
0,0,616,8842,1,708.0,0.0,320.0,1771,0,0,0,0,704.0,3.52,64.0
0,0,621,8892,1,812.0,0.0,324.0,1640,0,0,0,0,700.8,3.504,-64.0
0,0,626,8942,1,812.0,0.0,316.0,1742,0,0,0,0,707.2,3.536,32.0
0,0,631,8992,1,812.0,0.0,320.0,1739,0,0,0,0,704.0,3.52,32.0
0,0,636,9043,1,812.0,0.0,320.0,1672,0,0,0,0,704.0,3.52,-34.9
0,0,641,9093,1,812.0,0.0,328.0,1634,0,0,0,0,697.6,3.488,-66.9
0,0,646,9143,1,812.0,0.0,324.0,1672,0,0,0,0,700.8,3.504,-32.0
0,0,651,9194,1,812.0,0.0,320.0,1771,0,0,0,0,704.0,3.52,64.0
0,0,656,9244,1,812.0,0.0,332.0,1633,0,0,0,0,694.4,3.472,-64.0
0,0,661,9294,1,812.0,0.0,324.0,1672,0,0,0,0,700.8,3.504,-32.0
0,0,666,9344,1,812.0,0.0,336.0,1662,0,0,0,0,691.2,3.455,-32.0
0,0,671,9394,1,828.0,0.0,320.0,1739,0,0,0,0,704.0,3.52,32.0
0,0,676,9444,1,828.0,0.0,316.0,1800,0,0,0,0,707.2,3.536,160.0
0,0,681,9494,1,828.0,0.0,324.0,1672,0,0,0,0,700.8,3.504,-32.0
0,0,686,9545,1,828.0,0.0,324.0,1640,0,0,0,0,700.8,3.504,-64.0
0,0,691,9595,1,832.0,0.0,320.0,1739,0,0,0,0,704.0,3.52,32.0
0,0,696,9645,1,832.0,0.0,324.0,1704,0,0,0,0,700.8,3.504,0.0
0,0,701,9696,1,828.0,0.0,332.0,1601,0,0,0,0,694.4,3.472,-96.0
0,0,706,9746,1,828.0,0.0,316.0,1774,0,0,0,0,707.2,3.536,64.0
0,0,711,9796,1,832.0,0.0,320.0,1800,0,0,0,0,704.0,3.52,96.0
0,0,716,9846,1,832.0,0.0,324.0,1640,0,0,0,0,700.8,3.504,-64.0
0,0,721,9896,1,1428.0,0.0,316.0,1742,0,0,0,0,707.2,3.536,32.0
0,0,726,9946,1,1428.0,0.0,320.0,1739,0,0,0,0,704.0,3.52,32.0
0,0,731,9996,1,1436.0,0.0,324.0,1640,0,0,0,0,700.8,3.504,-64.0
0,0,736,10047,1,1428.0,0.0,324.0,1672,0,0,0,0,700.8,3.504,-32.0
0,0,741,10097,1,1428.0,0.0,324.0,1704,0,0,0,0,700.8,3.504,0.0
0,0,746,10147,1,1428.0,0.0,332.0,1633,0,0,0,0,694.4,3.472,-64.0
0,0,751,10198,1,1428.0,0.0,332.0,1634,0,0,0,0,694.4,3.819,-64.0
0,0,756,10248,1,1412.0,0.0,324.0,1768,0,0,0,0,700.8,3.504,64.0
0,0,761,10298,1,1412.0,0.0,328.0,1733,0,0,0,0,697.6,3.488,32.0
0,0,766,10348,1,1384.0,0.0,328.0,1669,0,0,0,0,697.6,3.488,-32.0
0,0,771,10398,1,1384.0,0.0,332.0,1665,0,0,0,0,694.4,3.472,-32.0
0,0,776,10448,1,1368.0,0.0,328.0,1701,0,0,0,0,697.6,3.488,0.0
0,0,781,10498,1,1368.0,0.0,328.0,1733,0,0,0,0,697.6,3.488,32.0
0,0,786,10549,1,876.0,0.0,324.0,1733,0,0,0,0,700.8,3.504,29.09
0,0,791,10599,1,876.0,0.0,324.0,1733,0,0,0,0,700.8,3.504,29.09
0,0,796,10649,1,876.0,0.0,324.0,1704,0,0,0,0,700.8,3.504,0.0
0,0,801,10699,1,876.0,0.0,324.0,1704,0,0,0,0,700.8,3.504,0.0
0,0,806,10750,0,872.0,0.0,328.0,1675,0,0,0,0,697.6,6.976,-29.09
0,0,811,10800,1,872.0,0.0,328.0,1671,0,0,0,0,697.6,3.488,-29.09
0,0,816,10850,1,876.0,0.0,324.0,1736,0,0,0,0,700.8,3.504,32.0
0,0,821,10900,1,876.0,0.0,324.0,1736,0,0,0,0,700.8,3.504,32.0
0,0,826,10950,1,876.0,0.0,324.0,1704,0,0,0,0,700.8,3.504,0.0
0,0,831,11000,1,876.0,0.0,328.0,1669,0,0,0,0,697.6,3.488,-32.0
0,0,836,11051,1,876.0,0.0,332.0,1634,0,0,0,0,694.4,3.819,-64.0
0,0,841,11101,1,876.0,0.0,320.0,1771,0,0,0,0,704.0,3.52,64.0
0,0,846,11151,1,876.0,0.0,328.0,1733,0,0,0,0,697.6,3.488,32.0
0,0,851,11201,1,876.0,0.0,316.0,1742,0,0,0,0,707.2,3.536,32.0
0,0,856,11252,1,876.0,0.0,320.0,1771,0,0,0,0,704.0,3.52,64.0
0,0,861,11302,1,876.0,0.0,324.0,1640,0,0,0,0,700.8,3.504,-64.0
0,0,866,11352,1,824.0,0.0,324.0,1672,0,0,0,0,700.8,3.504,-32.0
0,0,871,11402,1,824.0,0.0,332.0,1633,0,0,0,0,694.4,3.472,-64.0
0,0,876,11452,1,824.0,0.0,332.0,1633,0,0,0,0,694.4,3.472,-64.0
0,0,881,11502,1,824.0,0.0,320.0,1800,0,0,0,0,704.0,3.52,96.0
0,0,886,11552,1,820.0,0.0,328.0,1733,0,0,0,0,697.6,3.488,32.0
0,0,891,11603,1,820.0,0.0,328.0,1642,0,0,0,0,697.6,3.488,-58.18
0,0,896,11653,1,688.0,0.0,328.0,1706,0,0,0,0,697.6,3.488,5.818
0,0,901,11703,1,688.0,0.0,324.0,1736,0,0,0,0,700.8,3.504,32.0
0,0,906,11754,1,452.0,0.0,332.0,1668,0,0,0,0,694.4,3.472,-29.09
0,0,911,11804,1,452.0,0.0,320.0,1742,0,0,0,0,704.0,3.52,34.9
0,0,916,11854,1,452.0,0.0,332.0,1697,0,0,0,0,694.4,3.472,0.0
0,0,921,11904,1,452.0,0.0,320.0,1707,0,0,0,0,704.0,3.52,0.0
0,0,926,11954,1,428.0,0.0,320.0,1800,0,0,0,0,704.0,3.52,96.0
0,0,931,12004,1,428.0,0.0,320.0,1707,0,0,0,0,704.0,3.52,0.0
0,0,936,12054,1,328.0,0.0,328.0,1637,0,0,0,0,697.6,3.488,-64.0
0,0,941,12105,1,328.0,0.0,324.0,1666,0,0,0,0,700.8,3.504,-37.81
0,0,946,12155,1,328.0,0.0,316.0,1800,0,0,0,0,707.2,3.536,90.18
0,0,951,12205,1,328.0,0.0,324.0,1704,0,0,0,0,700.8,3.504,0.0
0,0,956,12256,1,328.0,0.0,320.0,1675,0,0,0,0,704.0,3.52,-32.0
0,0,961,12306,1,328.0,0.0,332.0,1633,0,0,0,0,694.4,3.472,-64.0
0,0,966,12356,1,328.0,0.0,324.0,1672,0,0,0,0,700.8,3.504,-32.0
0,0,971,12406,1,720.0,0.0,328.0,1733,0,0,0,0,697.6,3.488,32.0
0,0,976,12456,1,720.0,0.0,320.0,1739,0,0,0,0,704.0,3.52,32.0
0,0,981,12506,1,724.0,0.0,320.0,1771,0,0,0,0,704.0,3.52,64.0
0,0,986,12556,1,724.0,0.0,328.0,1637,0,0,0,0,697.6,3.488,-64.0
0,0,991,12607,1,724.0,0.0,324.0,1672,0,0,0,0,700.8,3.504,-32.0
0,0,996,12657,1,724.0,0.0,328.0,1701,0,0,0,0,697.6,3.488,0.0
0,0,1001,12707,1,1376.0,0.0,320.0,1739,0,0,0,0,704.0,3.52,32.0
0,0,1006,12758,1,1376.0,0.0,324.0,1736,0,0,0,0,700.8,3.854,32.0
0,0,1011,12808,1,1388.0,0.0,324.0,1672,0,0,0,0,700.8,3.504,-32.0
0,0,1016,12858,1,1388.0,0.0,320.0,1739,0,0,0,0,704.0,3.52,32.0
0,0,1021,12908,1,1420.0,0.0,324.0,1704,0,0,0,0,700.8,3.504,0.0
0,0,1026,12958,1,1420.0,0.0,320.0,1707,0,0,0,0,704.0,3.52,0.0
0,0,1031,13008,1,1428.0,0.0,328.0,1669,0,0,0,0,697.6,3.488,-32.0
0,0,1036,13058,1,1428.0,0.0,324.0,1672,0,0,0,0,700.8,3.504,-32.0
0,0,1041,13109,1,1420.0,0.0,316.0,1800,0,0,0,0,707.2,3.536,96.0
0,0,1046,13159,1,1420.0,0.0,332.0,1633,0,0,0,0,694.4,3.472,-64.0
0,0,1051,13209,1,1440.0,0.0,320.0,1675,0,0,0,0,704.0,3.52,-32.0
0,0,1056,13259,1,1440.0,0.0,324.0,1768,0,0,0,0,700.8,3.504,64.0
0,0,1061,13310,1,1440.0,0.0,320.0,1701,0,0,0,0,704.0,3.52,-5.818
0,0,1066,13360,1,1440.0,0.0,328.0,1663,0,0,0,0,697.6,3.488,-37.81
0,0,1071,13410,1,1440.0,0.0,336.0,1566,0,0,0,0,691.2,3.455,-128.0
0,0,1076,13460,1,1440.0,0.0,320.0,1771,0,0,0,0,704.0,3.52,64.0
0,0,1081,13510,1,1424.0,0.0,320.0,1800,0,0,0,0,704.0,3.52,128.0
0,0,1086,13560,1,1424.0,0.0,324.0,1672,0,0,0,0,700.8,3.504,-32.0
0,0,1091,13611,1,1424.0,0.0,328.0,1640,0,0,0,0,697.6,3.836,-61.09
0,0,1096,13661,1,1424.0,0.0,324.0,1707,0,0,0,0,700.8,3.504,2.909
0,0,1101,13711,1,1424.0,0.0,320.0,1771,0,0,0,0,704.0,3.52,64.0
0,0,1106,13761,1,1424.0,0.0,320.0,1739,0,0,0,0,704.0,3.52,32.0
0,0,1111,13812,1,1424.0,0.0,316.0,1745,0,0,0,0,707.2,3.536,34.9
0,0,1116,13862,1,1424.0,0.0,316.0,1745,0,0,0,0,707.2,3.536,34.9
0,0,1121,13912,1,1424.0,0.0,320.0,1675,0,0,0,0,704.0,3.52,-32.0
0,0,1126,13962,1,1424.0,0.0,316.0,1710,0,0,0,0,707.2,3.536,0.0
0,0,1131,14012,1,1420.0,0.0,316.0,1742,0,0,0,0,707.2,3.536,32.0
0,0,1136,14062,1,1420.0,0.0,324.0,1640,0,0,0,0,700.8,3.504,-64.0
0,0,1141,14112,1,1380.0,0.0,316.0,1710,0,0,0,0,707.2,3.536,0.0
0,0,1146,14163,1,1380.0,0.0,324.0,1704,0,0,0,0,700.8,3.504,0.0
0,0,1151,14213,1,1316.0,0.0,332.0,1569,0,0,0,0,694.4,3.472,-128.0
0,0,1156,14263,1,1316.0,0.0,324.0,1704,0,0,0,0,700.8,3.504,0.0
0,0,1161,14314,1,1316.0,0.0,324.0,1768,0,0,0,0,700.8,3.504,64.0
0,0,1166,14364,1,1308.0,0.0,328.0,1669,0,0,0,0,697.6,3.488,-32.0
0,0,1171,14414,1,1308.0,0.0,328.0,1669,0,0,0,0,697.6,3.488,-32.0
0,0,1176,14464,1,1256.0,0.0,320.0,1771,0,0,0,0,704.0,3.52,64.0
0,0,1181,14514,1,1256.0,0.0,324.0,1736,0,0,0,0,700.8,3.504,32.0
0,0,1186,14564,1,1248.0,0.0,316.0,1742,0,0,0,0,707.2,3.536,32.0
0,0,1191,14614,1,1248.0,0.0,316.0,1774,0,0,0,0,707.2,3.536,64.0
0,0,1196,14665,1,1088.0,0.0,316.0,1710,0,0,0,0,707.2,3.536,0.0
0,0,1201,14715,1,1088.0,0.0,328.0,1605,0,0,0,0,697.6,3.488,-96.0
0,0,1206,14765,1,1072.0,0.0,324.0,1640,0,0,0,0,700.8,3.504,-64.0
0,0,1211,14816,1,1072.0,0.0,328.0,1701,0,0,0,0,697.6,3.488,0.0
0,0,1216,14866,1,972.0,0.0,316.0,1774,0,0,0,0,707.2,3.536,64.0
0,0,1221,14916,1,972.0,0.0,328.0,1701,0,0,0,0,697.6,3.488,0.0
0,0,1226,14966,1,972.0,0.0,324.0,1640,0,0,0,0,700.8,3.504,-64.0
0,0,1231,15016,1,972.0,0.0,324.0,1736,0,0,0,0,700.8,3.504,32.0
0,0,1236,15066,1,920.0,0.0,320.0,1739,0,0,0,0,704.0,3.52,32.0
0,0,1241,15116,1,920.0,0.0,320.0,1739,0,0,0,0,704.0,3.52,32.0
0,0,1246,15167,1,900.0,0.0,336.0,1566,0,0,0,0,691.2,3.455,-128.0
0,0,1251,15217,1,900.0,0.0,320.0,1707,0,0,0,0,704.0,3.52,0.0
0,0,1256,15267,1,880.0,0.0,328.0,1765,0,0,0,0,697.6,3.488,64.0
0,0,1261,15318,1,880.0,0.0,316.0,1743,0,0,0,0,707.2,3.889,32.0
0,0,1266,15368,1,876.0,0.0,332.0,1665,0,0,0,0,694.4,3.472,-32.0
0,0,1271,15418,1,876.0,0.0,316.0,1710,0,0,0,0,707.2,3.536,0.0
0,0,1276,15468,1,876.0,0.0,332.0,1697,0,0,0,0,694.4,3.472,0.0
0,0,1281,15518,1,876.0,0.0,328.0,1605,0,0,0,0,697.6,3.488,-96.0
0,0,1286,15568,1,880.0,0.0,328.0,1733,0,0,0,0,697.6,3.488,32.0
0,0,1291,15618,1,880.0,0.0,316.0,1800,0,0,0,0,707.2,3.536,96.0
0,0,1296,15669,1,880.0,0.0,324.0,1736,0,0,0,0,700.8,3.504,32.0
0,0,1301,15719,1,880.0,0.0,324.0,1640,0,0,0,0,700.8,3.504,-64.0
0,0,1306,15769,1,880.0,0.0,316.0,1774,0,0,0,0,707.2,3.536,64.0
0,0,1311,15819,1,880.0,0.0,328.0,1669,0,0,0,0,697.6,3.488,-32.0
0,0,1316,15870,1,880.0,0.0,328.0,1602,0,0,0,0,697.6,3.488,-98.9
0,0,1321,15920,1,880.0,0.0,324.0,1733,0,0,0,0,700.8,3.504,29.09
0,0,1326,15970,1,864.0,0.0,324.0,1736,0,0,0,0,700.8,3.504,32.0
0,0,1331,16020,1,864.0,0.0,320.0,1739,0,0,0,0,704.0,3.52,32.0
0,0,1336,16070,1,860.0,0.0,324.0,1704,0,0,0,0,700.8,3.504,0.0
0,0,1341,16120,1,860.0,0.0,324.0,1672,0,0,0,0,700.8,3.504,-32.0
0,0,1346,16171,1,808.0,0.0,320.0,1739,0,0,0,0,704.0,3.872,32.0
0,0,1351,16221,1,808.0,0.0,336.0,1598,0,0,0,0,691.2,3.455,-96.0
0,0,1356,16271,1,764.0,0.0,320.0,1707,0,0,0,0,704.0,3.52,0.0
0,0,1361,16321,1,728.0,0.0,328.0,1765,0,0,0,0,697.6,3.488,64.0
0,0,1366,16372,1,728.0,0.0,316.0,1742,0,0,0,0,707.2,3.536,32.0
0,0,1371,16422,1,716.0,0.0,328.0,1701,0,0,0,0,697.6,3.488,0.0
0,0,1376,16472,1,716.0,0.0,328.0,1605,0,0,0,0,697.6,3.488,-96.0
0,0,1381,16522,1,696.0,0.0,340.0,1595,0,0,0,0,688.0,3.439,-96.0
0,0,1386,16572,1,696.0,0.0,320.0,1771,0,0,0,0,704.0,3.52,64.0
0,0,1391,16622,1,684.0,0.0,328.0,1797,0,0,0,0,697.6,3.488,96.0
0,0,1396,16672,1,684.0,0.0,332.0,1601,0,0,0,0,694.4,3.472,-96.0
0,0,1401,16723,1,664.0,0.0,324.0,1730,0,0,0,0,700.8,3.504,26.18
0,0,1406,16773,1,664.0,0.0,320.0,1797,0,0,0,0,704.0,3.52,90.18
0,0,1411,16823,1,604.0,0.0,328.0,1669,0,0,0,0,697.6,3.488,-32.0
0,0,1416,16874,1,604.0,0.0,328.0,1637,0,0,0,0,697.6,3.488,-64.0
0,0,1421,16924,1,580.0,0.0,320.0,1771,0,0,0,0,704.0,3.52,64.0
0,0,1426,16974,1,580.0,0.0,320.0,1771,0,0,0,0,704.0,3.52,64.0
0,0,1431,17024,1,580.0,0.0,320.0,1707,0,0,0,0,704.0,3.52,0.0
0,0,1436,17074,1,580.0,0.0,324.0,1672,0,0,0,0,700.8,3.504,-32.0
0,0,1441,17124,1,580.0,0.0,332.0,1601,0,0,0,0,694.4,3.472,-96.0
0,0,1446,17174,1,580.0,0.0,328.0,1669,0,0,0,0,697.6,3.488,-32.0
0,0,1451,17225,1,1424.0,0.0,324.0,1768,0,0,0,0,700.8,3.504,64.0
0,0,1456,17275,1,1424.0,0.0,328.0,1701,0,0,0,0,697.6,3.488,0.0
0,0,1461,17325,1,1436.0,0.0,324.0,1704,0,0,0,0,700.8,3.504,0.0
0,0,1466,17376,1,1436.0,0.0,328.0,1695,0,0,0,0,697.6,3.488,-5.818
0,0,1471,17426,1,1480.0,0.0,320.0,1733,0,0,0,0,704.0,3.52,26.18
0,0,1476,17476,1,1480.0,0.0,324.0,1736,0,0,0,0,700.8,3.504,32.0
0,0,1481,17526,1,1480.0,0.0,316.0,1742,0,0,0,0,707.2,3.536,32.0
0,0,1486,17576,1,1480.0,0.0,320.0,1739,0,0,0,0,704.0,3.52,32.0
0,0,1491,17626,1,1480.0,0.0,316.0,1710,0,0,0,0,707.2,3.536,0.0
0,0,1496,17676,1,1480.0,0.0,328.0,1637,0,0,0,0,697.6,3.488,-64.0
0,0,1501,17727,1,1484.0,0.0,328.0,1602,0,0,0,0,697.6,3.488,-98.9
0,0,1506,17777,1,1484.0,0.0,328.0,1698,0,0,0,0,697.6,3.488,-2.909
0,0,1511,17827,1,1484.0,0.0,324.0,1736,0,0,0,0,700.8,3.504,32.0
0,0,1516,17878,1,1484.0,0.0,324.0,1736,0,0,0,0,700.8,3.854,32.0
0,0,1521,17928,1,1484.0,0.0,328.0,1669,0,0,0,0,697.6,3.488,-32.0
0,0,1526,17978,1,1484.0,0.0,328.0,1669,0,0,0,0,697.6,3.488,-32.0
0,0,1531,18028,1,1484.0,0.0,316.0,1800,0,0,0,0,707.2,3.536,96.0
0,0,1536,18078,1,1484.0,0.0,324.0,1736,0,0,0,0,700.8,3.504,32.0
0,0,1541,18128,1,748.0,0.0,324.0,1640,0,0,0,0,700.8,3.504,-64.0
0,0,1546,18178,1,748.0,0.0,328.0,1669,0,0,0,0,697.6,3.488,-32.0
0,0,1551,18229,1,740.0,0.0,336.0,1587,0,0,0,0,691.2,3.455,-107.63
0,0,1556,18279,1,740.0,0.0,328.0,1689,0,0,0,0,697.6,3.488,-11.636
0,0,1561,18329,1,656.0,0.0,316.0,1800,0,0,0,0,707.2,3.536,160.0
0,0,1566,18379,1,656.0,0.0,316.0,1800,0,0,0,0,707.2,3.536,96.0
0,0,1571,18430,1,644.0,0.0,324.0,1640,0,0,0,0,700.8,3.504,-64.0
0,0,1576,18480,1,644.0,0.0,316.0,1710,0,0,0,0,707.2,3.536,0.0
0,0,1581,18530,1,644.0,0.0,328.0,1669,0,0,0,0,697.6,3.488,-32.0
0,0,1586,18580,1,616.0,0.0,320.0,1675,0,0,0,0,704.0,3.52,-32.0
0,0,1591,18630,1,616.0,0.0,328.0,1701,0,0,0,0,697.6,3.488,0.0
0,0,1596,18680,1,616.0,0.0,316.0,1742,0,0,0,0,707.2,3.536,32.0
0,0,1601,18731,1,616.0,0.0,320.0,1768,0,0,0,0,704.0,3.872,61.09
0,0,1606,18781,1,588.0,0.0,332.0,1566,0,0,0,0,694.4,3.472,-130.9
0,0,1611,18831,1,588.0,0.0,328.0,1637,0,0,0,0,697.6,3.488,-64.0
0,0,1616,18881,1,572.0,0.0,316.0,1800,0,0,0,0,707.2,3.536,128.0
0,0,1621,18932,1,572.0,0.0,324.0,1730,0,0,0,0,700.8,3.504,26.18
0,0,1626,18982,1,572.0,0.0,320.0,1669,0,0,0,0,704.0,3.52,-37.81
0,0,1631,19032,1,572.0,0.0,320.0,1739,0,0,0,0,704.0,3.52,32.0
0,0,1636,19082,1,616.0,0.0,316.0,1742,0,0,0,0,707.2,3.536,32.0
0,0,1641,19132,1,616.0,0.0,324.0,1672,0,0,0,0,700.8,3.504,-32.0
0,0,1646,19182,1,660.0,0.0,320.0,1675,0,0,0,0,704.0,3.52,-32.0
0,0,1651,19232,1,660.0,0.0,320.0,1739,0,0,0,0,704.0,3.52,32.0
0,0,1656,19283,1,704.0,0.0,316.0,1742,0,0,0,0,707.2,3.536,32.0
0,0,1661,19333,1,704.0,0.0,324.0,1672,0,0,0,0,700.8,3.504,-32.0
0,0,1666,19383,1,736.0,0.0,332.0,1569,0,0,0,0,694.4,3.472,-128.0
0,0,1671,19434,1,736.0,0.0,348.0,1498,0,0,0,0,681.6,3.407,-186.1
0,0,1676,19484,1,736.0,0.0,364.0,1421,0,0,0,0,668.8,3.343,-250.1
0,0,1681,19534,1,736.0,0.0,404.0,1191,0,0,0,0,636.8,3.184,-448.0
0,0,1686,19584,1,736.0,0.0,456.0,1000,0,0,0,0,595.2,2.976,-736.0
0,0,1691,19634,1,736.0,0.0,492.0,1000,0,0,0,0,566.4,2.832,-704.0
0,0,1696,19684,1,736.0,0.0,508.0,1140,0,0,0,0,553.6,2.768,-416.0
0,0,1701,19734,1,736.0,0.0,552.0,1040,0,0,0,0,518.4,2.592,-480.0
0,0,1706,19785,1,736.0,0.0,584.0,1000,0,0,0,0,492.8,2.464,-602.1
0,0,1711,19835,1,736.0,0.0,600.0,1104,0,0,0,0,480.0,2.4,-378.1
0,0,1716,19885,1,736.0,0.0,644.0,1000,0,0,0,0,444.8,2.224,-480.0
0,0,1721,19936,1,736.0,0.0,672.0,1000,0,0,0,0,422.4,2.112,-567.2
0,0,1726,19986,1,856.0,0.0,700.0,1000,0,0,0,0,400.0,2.0,-439.2
0,0,1731,20036,1,856.0,0.0,740.0,1000,0,0,0,0,368.0,1.84,-544.0
0,0,1736,20086,1,900.0,0.0,764.0,1000,0,0,0,0,348.8,1.744,-512.0
0,0,1741,20136,1,900.0,0.0,792.0,1000,0,0,0,0,326.4,1.632,-416.0
0,0,1746,20186,1,924.0,0.0,816.0,1000,0,0,0,0,307.2,1.536,-416.0
0,0,1751,20236,1,924.0,0.0,828.0,1011,0,0,0,0,297.6,1.488,-288.0
0,0,1756,20287,1,924.0,0.0,864.0,1000,0,0,0,0,268.8,1.344,-384.0
0,0,1761,20337,1,924.0,0.0,876.0,1000,0,0,0,0,259.2,1.296,-384.0
0,0,1766,20387,1,924.0,0.0,876.0,1164,0,0,0,0,259.2,1.296,-96.0
0,0,1771,20438,1,924.0,0.0,884.0,1190,0,0,0,0,252.8,1.3904,-64.0
0,0,1776,20488,1,884.0,0.0,904.0,1013,0,0,0,0,236.8,1.184,-224.0
0,0,1781,20538,1,840.0,0.0,896.0,1148,0,0,0,0,243.2,1.216,-96.0
0,0,1786,20588,1,840.0,0.0,896.0,1308,0,0,0,0,243.2,1.216,64.0
0,0,1791,20638,1,632.0,0.0,896.0,1244,0,0,0,0,243.2,1.216,0.0
0,0,1796,20688,1,632.0,0.0,896.0,1244,0,0,0,0,243.2,1.216,0.0
0,0,1801,20738,1,584.0,0.0,936.0,1000,0,0,0,0,211.2,1.056,-320.0
0,0,1806,20789,1,584.0,0.0,924.0,1000,0,0,0,0,220.8,1.104,-229.8
0,0,1811,20839,1,516.0,0.0,900.0,1523,0,0,0,0,240.0,1.2,282.1
0,0,1816,20889,1,516.0,0.0,912.0,1327,0,0,0,0,230.4,1.1519,96.0
0,0,1821,20939,1,516.0,0.0,904.0,1205,0,0,0,0,236.8,1.184,-32.0
0,0,1826,20990,1,516.0,0.0,896.0,1372,0,0,0,0,243.2,1.216,128.0
0,0,1831,21040,1,512.0,0.0,860.0,1625,0,0,0,0,272.0,1.36,352.0
0,0,1836,21090,1,512.0,0.0,856.0,1596,0,0,0,0,275.2,1.3759,320.0
0,0,1841,21140,1,516.0,0.0,828.0,1555,0,0,0,0,297.6,1.488,256.0
0,0,1846,21190,1,516.0,0.0,828.0,1523,0,0,0,0,297.6,1.488,224.0
0,0,1851,21240,1,540.0,0.0,796.0,1580,0,0,0,0,323.2,1.616,256.0
0,0,1856,21291,1,540.0,0.0,756.0,1800,0,0,0,0,355.2,1.953,570.1
0,0,1861,21341,1,540.0,0.0,732.0,1800,0,0,0,0,374.4,1.872,506.1
0,0,1866,21391,1,540.0,0.0,732.0,1568,0,0,0,0,374.4,1.872,192.0
0,0,1871,21441,1,536.0,0.0,704.0,1622,0,0,0,0,396.8,1.984,224.0
0,0,1876,21492,1,536.0,0.0,696.0,1693,0,0,0,0,403.2,2.016,288.0
0,0,1881,21542,1,540.0,0.0,668.0,1715,0,0,0,0,425.6,2.128,288.0
0,0,1886,21592,1,540.0,0.0,612.0,1800,0,0,0,0,470.4,2.352,672.0
0,0,1891,21642,1,540.0,0.0,576.0,1800,0,0,0,0,499.2,2.496,736.0
0,0,1896,21692,1,540.0,0.0,556.0,1800,0,0,0,0,515.2,2.576,448.0
0,0,1901,21742,1,772.0,0.0,508.0,1800,0,0,0,0,553.6,2.768,544.0
0,0,1906,21792,1,772.0,0.0,476.0,1800,0,0,0,0,579.2,2.896,640.0
0,0,1911,21843,1,772.0,0.0,428.0,1800,0,0,0,0,617.6,3.088,640.0
0,0,1916,21893,1,772.0,0.0,376.0,1800,0,0,0,0,659.2,3.296,800.0
0,0,1921,21943,1,776.0,0.0,316.0,1800,0,0,0,0,707.2,3.536,896.0
0,0,1926,21994,1,776.0,0.0,284.0,1800,0,0,0,0,732.8,3.664,733.0
0,0,1931,22044,1,780.0,0.0,272.0,1800,0,0,0,0,742.4,3.712,349.0
0,0,1936,22094,1,780.0,0.0,240.0,1800,0,0,0,0,768.0,3.84,352.0
0,0,1941,22144,1,784.0,0.0,228.0,1800,0,0,0,0,777.6,3.887,352.0
0,0,1946,22194,1,784.0,0.0,168.0,1800,0,0,0,0,825.6,4.128,576.0
0,0,1951,22244,1,820.0,0.0,128.0,1800,0,0,0,0,857.6,4.287,800.0
0,0,1956,22294,1,820.0,0.0,100.0,1800,0,0,0,0,880.0,4.4,544.0
0,0,1961,22345,1,820.0,0.0,80.0,1800,0,0,0,0,896.0,4.48,384.0
0,0,1966,22395,1,820.0,0.0,68.0,1800,0,0,0,0,905.6,4.528,256.0
0,0,1971,22445,1,820.0,0.0,64.0,1800,0,0,0,0,908.8,4.544,128.0
0,0,1976,22496,1,820.0,0.0,48.0,1800,0,0,0,0,921.6,4.608,151.27
0,0,1981,22546,1,816.0,0.0,60.0,1800,0,0,0,0,912.0,4.56,23.27
0,0,1986,22596,1,804.0,0.0,64.0,1785,0,0,0,0,908.8,4.544,-128.0
0,0,1991,22646,1,804.0,0.0,104.0,1529,0,0,0,0,876.8,4.384,-352.0
0,0,1996,22696,1,792.0,0.0,148.0,1173,0,0,0,0,841.6,4.207,-672.0
0,0,2001,22746,1,792.0,0.0,196.0,1071,0,0,0,0,803.2,4.016,-736.0
0,0,2006,22796,1,788.0,0.0,244.0,1000,0,0,0,0,764.8,3.824,-768.0
0,0,2011,22847,1,788.0,0.0,272.0,1143,0,0,0,0,742.4,3.712,-602.1
0,0,2016,22897,1,788.0,0.0,316.0,1140,0,0,0,0,707.2,3.536,-570.1
0,0,2021,22947,1,788.0,0.0,364.0,1000,0,0,0,0,668.8,3.343,-736.0
0,0,2026,22998,1,684.0,0.0,456.0,1000,0,0,0,0,595.2,3.273,-1120.0
0,0,2031,23048,1,684.0,0.0,540.0,1000,0,0,0,0,528.0,2.64,-1408.0
0,0,2036,23098,1,568.0,0.0,584.0,1000,0,0,0,0,492.8,2.464,-1024.0
0,0,2041,23148,1,568.0,0.0,652.0,1000,0,0,0,0,438.4,2.192,-896.0
0,0,2046,23198,1,556.0,0.0,688.0,1000,0,0,0,0,409.6,2.048,-832.0
0,0,2051,23248,1,556.0,0.0,784.0,1000,0,0,0,0,332.8,1.663,-1056.0
0,0,2056,23298,1,504.0,0.0,840.0,1000,0,0,0,0,288.0,1.4399,-1216.0
0,0,2061,23349,1,504.0,0.0,876.0,1000,0,0,0,0,259.2,1.296,-736.0
0,0,2066,23399,1,504.0,0.0,912.0,1000,0,0,0,0,230.4,1.1519,-576.0
0,0,2071,23449,1,504.0,0.0,996.0,1000,0,0,0,0,163.2,0.816,-960.0
0,0,2076,23499,1,492.0,0.0,1032.0,1000,0,0,0,0,134.4,0.672,-960.0
0,0,2081,23550,1,492.0,0.0,1092.0,1000,0,0,0,0,86.4,0.432,-759.2
0,0,2086,23600,1,492.0,0.0,1120.0,1000,0,0,0,0,64.0,0.32,-695.2
0,0,2091,23650,1,492.0,0.0,1156.0,1000,0,0,0,0,35.2,0.176,-512.0
0,0,2096,23700,1,492.0,0.0,1184.0,1000,0,0,0,0,12.8,0.064,-512.0
0,0,2101,23750,1,492.0,0.0,1236.0,1000,0,0,0,0,-28.8,-0.14399,-640.0
0,0,2106,23800,1,728.0,0.0,1260.0,1000,0,0,0,0,-48.0,-0.24,-608.0
0,0,2111,23851,1,728.0,0.0,1288.0,1000,0,0,0,0,-70.4,-0.3872,-416.0
0,0,2116,23901,1,868.0,0.0,1312.0,1000,0,0,0,0,-89.6,-0.448,-416.0
0,0,2121,23951,1,868.0,0.0,1300.0,1000,0,0,0,0,-80.0,-0.4,-96.0
0,0,2126,24001,1,868.0,0.0,1304.0,1000,0,0,0,0,-83.2,-0.416,64.0
0,0,2131,24052,1,868.0,0.0,1308.0,1000,0,0,0,0,-86.4,-0.432,-64.0
0,0,2136,24102,1,924.0,0.0,1316.0,1000,0,0,0,0,-92.8,-0.464,-96.0
0,0,2141,24152,1,924.0,0.0,1324.0,1000,0,0,0,0,-99.2,-0.496,-128.0
0,0,2146,24202,1,868.0,0.0,1328.0,1000,0,0,0,0,-102.4,-0.512,-96.0
0,0,2151,24252,1,868.0,0.0,1320.0,1000,0,0,0,0,-96.0,-0.48,32.0
0,0,2156,24302,1,868.0,0.0,1304.0,1108,0,0,0,0,-83.2,-0.416,192.0
0,0,2161,24352,1,868.0,0.0,1292.0,1150,0,0,0,0,-73.6,-0.368,224.0
0,0,2166,24403,1,832.0,0.0,1308.0,1000,0,0,0,0,-86.4,-0.432,-32.0
0,0,2171,24453,1,832.0,0.0,1304.0,1000,0,0,0,0,-83.2,-0.416,-96.0
0,0,2176,24503,1,832.0,0.0,1284.0,1124,0,0,0,0,-67.2,-0.336,192.0
0,0,2181,24554,1,832.0,0.0,1272.0,1195,0,0,0,0,-57.6,-0.2879,253.0
0,0,2186,24604,1,828.0,0.0,1260.0,1140,0,0,0,0,-48.0,-0.24,189.0
0,0,2191,24654,1,828.0,0.0,1228.0,1329,0,0,0,0,-22.4,-0.112,352.0
0,0,2196,24704,1,828.0,0.0,1216.0,1339,0,0,0,0,-12.8,-0.064,352.0
0,0,2201,24754,1,828.0,0.0,1212.0,1118,0,0,0,0,-9.6,-0.048,128.0
0,0,2206,24804,1,828.0,0.0,1204.0,1092,0,0,0,0,-3.2,-0.016,96.0
0,0,2211,24854,1,788.0,0.0,1216.0,1000,0,0,0,0,-12.8,-0.064,-32.0
0,0,2216,24905,1,788.0,0.0,1176.0,1231,0,0,0,0,19.2,0.096,212.3
0,0,2221,24955,1,784.0,0.0,1156.0,1503,0,0,0,0,35.2,0.176,468.3
0,0,2226,25005,1,784.0,0.0,1132.0,1406,0,0,0,0,54.4,0.272,352.0
0,0,2231,25056,1,780.0,0.0,1108.0,1443,0,0,0,0,73.6,0.368,369.4
0,0,2236,25106,1,780.0,0.0,1092.0,1392,0,0,0,0,86.4,0.432,305.4
0,0,2241,25156,1,696.0,0.0,1092.0,1214,0,0,0,0,86.4,0.432,128.0
0,0,2246,25206,1,696.0,0.0,1076.0,1227,0,0,0,0,99.2,0.496,128.0
0,0,2251,25256,1,668.0,0.0,1064.0,1333,0,0,0,0,108.8,0.544,224.0
0,0,2256,25306,1,668.0,0.0,1064.0,1205,0,0,0,0,108.8,0.544,96.0
0,0,2261,25356,1,668.0,0.0,1036.0,1355,0,0,0,0,131.2,0.656,224.0
0,0,2266,25407,1,668.0,0.0,1024.0,1461,0,0,0,0,140.8,0.704,320.0
0,0,2271,25457,1,668.0,0.0,980.0,1624,0,0,0,0,176.0,0.88,448.0
0,0,2276,25507,1,668.0,0.0,964.0,1669,0,0,0,0,188.8,0.9439,480.0
0,0,2281,25558,1,664.0,0.0,932.0,1599,0,0,0,0,214.4,1.1792,384.0
0,0,2286,25608,1,664.0,0.0,908.0,1682,0,0,0,0,233.6,1.168,448.0
0,0,2291,25658,1,664.0,0.0,888.0,1602,0,0,0,0,249.6,1.248,352.0
0,0,2296,25708,1,664.0,0.0,880.0,1481,0,0,0,0,256.0,1.28,224.0
0,0,2301,25758,1,672.0,0.0,876.0,1356,0,0,0,0,259.2,1.296,96.0
0,0,2306,25808,1,672.0,0.0,856.0,1468,0,0,0,0,275.2,1.3759,192.0
0,0,2311,25858,1,676.0,0.0,864.0,1366,0,0,0,0,268.8,1.344,96.0
0,0,2316,25909,0,676.0,0.0,852.0,1313,0,0,0,0,278.4,2.923,32.0
0,0,2321,25959,0,680.0,0.0,828.0,1595,0,0,0,0,297.6,10.155,288.0
0,0,2326,26009,0,680.0,0.0,828.0,1507,0,0,0,0,297.6,17.54,192.0
0,0,2331,26059,0,684.0,0.0,812.0,1463,0,0,0,0,310.4,25.17,128.0
0,0,2336,26110,0,684.0,0.0,812.0,1471,0,0,0,0,310.4,33.09,128.0
0,0,2341,26160,0,688.0,0.0,776.0,1668,0,0,0,0,339.2,41.25,288.0
0,0,2346,26210,0,688.0,0.0,748.0,1800,0,0,0,0,361.6,50.13,512.0
0,0,2351,26260,0,736.0,0.0,724.0,1800,0,0,0,0,380.8,59.39,416.0
0,0,2356,26310,0,736.0,0.0,704.0,1800,0,0,0,0,396.8,69.11,352.0
0,0,2361,26360,0,740.0,0.0,680.0,1800,0,0,0,0,416.0,79.22,352.0
0,0,2366,26411,0,740.0,0.0,660.0,1800,0,0,0,0,432.0,90.09,352.0
0,0,2371,26461,0,740.0,0.0,664.0,1657,0,0,0,0,428.8,100.86,128.0
0,0,2376,26511,0,740.0,0.0,660.0,1543,0,0,0,0,432.0,111.59,0.0
0,0,2381,26561,0,740.0,0.0,664.0,1551,0,0,0,0,428.8,122.33,0.0
0,0,2386,26612,0,740.0,0.0,680.0,1389,0,0,0,0,416.0,133.14,-160.0
0,0,2391,26662,0,736.0,0.0,680.0,1431,0,0,0,0,416.0,143.54,-128.0
0,0,2396,26712,0,736.0,0.0,660.0,1746,0,0,0,0,432.0,154.02,160.0
0,0,2401,26762,0,724.0,0.0,680.0,1580,0,0,0,0,416.0,164.6,0.0
0,0,2406,26812,0,704.0,0.0,672.0,1501,0,0,0,0,422.4,175.1,-96.0
0,0,2411,26862,0,704.0,0.0,652.0,1800,0,0,0,0,438.4,185.9,224.0
0,0,2416,26912,0,456.0,0.0,636.0,1800,0,0,0,0,451.2,197.1,288.0
0,0,2421,26963,0,456.0,0.0,632.0,1800,0,0,0,0,454.4,208.8,157.09
0,0,2426,27013,0,456.0,0.0,608.0,1800,0,0,0,0,473.6,220.5,221.0
0,0,2431,27063,0,456.0,0.0,600.0,1800,0,0,0,0,480.0,232.4,256.0
0,0,2436,27114,0,456.0,0.0,612.0,1682,0,0,0,0,470.4,244.5,-32.0
0,0,2441,27164,0,456.0,0.0,632.0,1454,0,0,0,0,454.4,256.1,-256.0
0,0,2446,27214,0,496.0,0.0,632.0,1561,0,0,0,0,454.4,267.5,-160.0
0,0,2451,27264,0,496.0,0.0,652.0,1557,0,0,0,0,438.4,278.7,-160.0
0,0,2456,27314,0,576.0,0.0,660.0,1497,0,0,0,0,432.0,289.6,-224.0
0,0,2461,27364,0,576.0,0.0,696.0,1351,0,0,0,0,403.2,300.1,-352.0
0,0,2466,27414,0,632.0,0.0,704.0,1354,0,0,0,0,396.8,310.1,-352.0
0,0,2471,27465,0,632.0,0.0,696.0,1720,0,0,0,0,403.2,320.3,-2.909
0,0,2476,27515,0,632.0,0.0,692.0,1800,0,0,0,0,406.4,330.4,93.09
0,0,2481,27565,0,632.0,0.0,684.0,1800,0,0,0,0,412.8,340.6,96.0
0,0,2486,27616,0,692.0,0.0,680.0,1800,0,0,0,0,416.0,351.2,96.0
0,0,2491,27666,0,692.0,0.0,660.0,1800,0,0,0,0,432.0,361.8,192.0
0,0,2496,27716,0,692.0,0.0,652.0,1800,0,0,0,0,438.4,372.7,224.0
0,0,2501,27766,0,692.0,0.0,660.0,1800,0,0,0,0,432.0,383.6,0.0
0,0,2506,27816,0,692.0,0.0,684.0,1551,0,0,0,0,412.8,394.2,-256.0
0,0,2511,27866,0,692.0,0.0,688.0,1590,0,0,0,0,409.6,404.5,-224.0
0,0,2516,27916,0,680.0,0.0,704.0,1651,0,0,0,0,396.8,414.5,-160.0
0,0,2521,27967,0,680.0,0.0,752.0,1279,0,0,0,0,358.4,424.1,-503.2
0,0,2526,28017,0,680.0,0.0,788.0,1098,0,0,0,0,329.6,432.6,-663.2
0,0,2531,28067,0,680.0,0.0,828.0,1130,0,0,0,0,297.6,440.4,-608.0
0,0,2536,28118,0,680.0,0.0,844.0,1293,0,0,0,0,284.8,447.8,-439.2
0,0,2541,28168,0,680.0,0.0,844.0,1620,0,0,0,0,284.8,455.0,-119.27
0,0,2546,28218,0,680.0,0.0,824.0,1800,0,0,0,0,300.8,462.3,160.0
0,0,2551,28268,0,680.0,0.0,776.0,1800,0,0,0,0,339.2,470.4,544.0
0,0,2556,28318,0,668.0,0.0,728.0,1800,0,0,0,0,377.6,479.5,768.0
0,0,2561,28368,0,668.0,0.0,708.0,1800,0,0,0,0,393.6,489.2,544.0
0,0,2566,28418,0,452.0,0.0,660.0,1800,0,0,0,0,432.0,499.5,544.0
0,0,2571,28469,0,452.0,0.0,620.0,1800,0,0,0,0,464.0,511.0,680.7
0,0,2576,28519,0,452.0,0.0,628.0,1800,0,0,0,0,457.6,522.4,232.7
0,0,2581,28569,0,452.0,0.0,600.0,1800,0,0,0,0,480.0,534.4,160.0
0,0,2586,28619,0,452.0,0.0,600.0,1800,0,0,0,0,480.0,546.4,224.0
0,0,2591,28670,0,452.0,0.0,592.0,1800,0,0,0,0,486.4,558.8,61.09
0,0,2596,28720,0,476.0,0.0,600.0,1800,0,0,0,0,480.0,570.8,-2.909
0,0,2601,28770,0,476.0,0.0,604.0,1800,0,0,0,0,476.8,582.8,-96.0
0,0,2606,28820,0,696.0,0.0,628.0,1800,0,0,0,0,457.6,594.4,-224.0
0,0,2611,28870,0,696.0,0.0,648.0,1695,0,0,0,0,441.6,605.6,-352.0
0,0,2616,28920,0,696.0,0.0,672.0,1686,0,0,0,0,422.4,616.4,-352.0
0,0,2621,28971,0,696.0,0.0,720.0,1440,0,0,0,0,384.0,626.5,-570.1
0,0,2626,29021,0,696.0,0.0,760.0,1289,0,0,0,0,352.0,635.6,-698.1
0,0,2631,29071,1,708.0,0.0,812.0,1000,0,0,0,0,310.4,1.5519,-736.0
0,0,2636,29121,1,708.0,0.0,864.0,1000,0,0,0,0,268.8,1.344,-832.0
0,0,2641,29172,1,708.0,0.0,880.0,1000,0,0,0,0,256.0,1.28,-544.0
0,0,2646,29222,1,708.0,0.0,908.0,1000,0,0,0,0,233.6,1.168,-352.0
0,0,2651,29272,1,756.0,0.0,932.0,1000,0,0,0,0,214.4,1.0719,-416.0
0,0,2656,29322,1,756.0,0.0,984.0,1000,0,0,0,0,172.8,0.864,-608.0
0,0,2661,29372,1,768.0,0.0,1000.0,1000,0,0,0,0,160.0,0.8,-544.0
0,0,2666,29422,1,768.0,0.0,1024.0,1000,0,0,0,0,140.8,0.704,-320.0
0,0,2671,29472,1,788.0,0.0,1028.0,1000,0,0,0,0,137.6,0.6879,-224.0
0,0,2676,29523,1,788.0,0.0,1028.0,1106,0,0,0,0,137.6,0.6879,-32.0
0,0,2681,29573,1,800.0,0.0,1016.0,1243,0,0,0,0,147.2,0.736,96.0
0,0,2686,29623,1,800.0,0.0,984.0,1525,0,0,0,0,172.8,0.864,352.0
0,0,2691,29674,1,800.0,0.0,916.0,1800,0,0,0,0,227.2,1.136,800.0
0,0,2696,29724,1,800.0,0.0,832.0,1800,0,0,0,0,294.4,1.472,1216.0
0,0,2701,29774,1,804.0,0.0,732.0,1800,0,0,0,0,374.4,1.872,1472.0
0,0,2706,29824,1,804.0,0.0,632.0,1800,0,0,0,0,454.4,2.272,1600.0
0,0,2711,29874,1,804.0,0.0,460.0,1800,0,0,0,0,592.0,2.959,2176.0
0,0,2716,29924,1,804.0,0.0,284.0,1800,0,0,0,0,732.8,3.664,2784.0
0,0,2721,29974,1,892.0,0.0,108.0,1800,0,0,0,0,873.6,4.368,2816.0
0,0,2731,30075,1,1512.0,0.0,48.0,1800,0,0,0,0,921.6,4.608,480.0
0,0,2736,30125,1,1512.0,0.0,48.0,1800,0,0,0,0,921.6,4.608,0.0
0,0,2741,30176,1,1512.0,0.0,36.0,1800,0,0,0,0,931.2,4.655,87.27
0,0,2746,30226,1,1512.0,0.0,36.0,1800,0,0,0,0,931.2,4.655,87.27
0,0,2751,30276,1,1512.0,0.0,36.0,1800,0,0,0,0,931.2,4.655,0.0
0,0,2756,30326,1,1512.0,0.0,36.0,1800,0,0,0,0,931.2,4.655,0.0
0,0,2761,30376,1,1512.0,0.0,36.0,1800,0,0,0,0,931.2,4.655,0.0
0,0,2766,30426,1,1512.0,0.0,36.0,1800,0,0,0,0,931.2,4.655,0.0
0,0,2771,30476,1,1500.0,0.0,36.0,1800,0,0,0,0,931.2,4.655,0.0
0,0,2776,30527,1,1500.0,0.0,36.0,1800,0,0,0,0,931.2,4.655,0.0
0,0,2781,30577,1,1488.0,0.0,36.0,1800,0,0,0,0,931.2,4.655,0.0
0,0,2786,30627,1,1488.0,0.0,36.0,1800,0,0,0,0,931.2,4.655,0.0
0,0,2791,30678,1,788.0,0.0,36.0,1800,0,0,0,0,931.2,5.121,0.0
0,0,2796,30728,1,788.0,0.0,36.0,1800,0,0,0,0,931.2,4.655,0.0
0,0,2801,30778,1,784.0,0.0,36.0,1800,0,0,0,0,931.2,4.655,0.0
0,0,2806,30828,1,784.0,0.0,36.0,1800,0,0,0,0,931.2,4.655,0.0
0,0,2811,30878,1,728.0,0.0,36.0,1800,0,0,0,0,931.2,4.655,0.0
0,0,2816,30928,1,728.0,0.0,36.0,1800,0,0,0,0,931.2,4.655,0.0
0,0,2821,30978,1,728.0,0.0,36.0,1800,0,0,0,0,931.2,4.655,0.0
0,0,2826,31029,1,728.0,0.0,36.0,1800,0,0,0,0,931.2,4.655,0.0
0,0,2831,31079,1,728.0,0.0,36.0,1800,0,0,0,0,931.2,4.655,0.0
0,0,2836,31129,1,724.0,0.0,36.0,1800,0,0,0,0,931.2,4.655,0.0
0,0,2841,31179,1,724.0,0.0,44.0,1800,0,0,0,0,924.8,4.624,-64.0
0,0,2846,31230,1,720.0,0.0,44.0,1800,0,0,0,0,924.8,4.624,-64.0
0,0,2851,31280,1,720.0,0.0,44.0,1800,0,0,0,0,924.8,4.624,0.0
0,0,2856,31330,1,720.0,0.0,44.0,1800,0,0,0,0,924.8,4.624,0.0
0,0,2861,31380,1,720.0,0.0,44.0,1800,0,0,0,0,924.8,4.624,0.0
0,0,2866,31430,1,1440.0,0.0,44.0,1800,0,0,0,0,924.8,4.624,0.0
0,0,2871,31480,1,1440.0,0.0,44.0,1800,0,0,0,0,924.8,4.624,0.0
0,0,2876,31531,1,924.0,0.0,44.0,1800,0,0,0,0,924.8,5.086,0.0
0,0,2881,31581,1,924.0,0.0,44.0,1800,0,0,0,0,924.8,4.624,0.0
0,0,2886,31631,1,932.0,0.0,44.0,1800,0,0,0,0,924.8,4.624,0.0
0,0,2891,31681,1,932.0,0.0,44.0,1800,0,0,0,0,924.8,4.624,0.0
0,0,2896,31732,1,932.0,0.0,44.0,1800,0,0,0,0,924.8,4.624,0.0
0,0,2901,31782,1,932.0,0.0,44.0,1800,0,0,0,0,924.8,4.624,0.0
0,0,2906,31832,1,932.0,0.0,56.0,1800,0,0,0,0,915.2,4.575,-96.0
0,0,2911,31882,1,932.0,0.0,44.0,1800,0,0,0,0,924.8,4.624,0.0
0,0,2916,31932,1,924.0,0.0,44.0,1800,0,0,0,0,924.8,4.624,96.0
0,0,2921,31982,1,924.0,0.0,44.0,1800,0,0,0,0,924.8,4.624,0.0
0,0,2926,32032,1,932.0,0.0,44.0,1800,0,0,0,0,924.8,4.624,0.0
0,0,2931,32083,1,932.0,0.0,44.0,1800,0,0,0,0,924.8,4.624,0.0
0,0,2936,32133,1,932.0,0.0,44.0,1800,0,0,0,0,924.8,4.624,0.0
0,0,2941,32183,1,932.0,0.0,44.0,1800,0,0,0,0,924.8,4.624,0.0
0,0,2946,32234,1,976.0,0.0,44.0,1800,0,0,0,0,924.8,4.624,0.0
0,0,2951,32284,1,976.0,0.0,44.0,1800,0,0,0,0,924.8,4.624,0.0
0,0,2956,32334,1,1196.0,0.0,44.0,1800,0,0,0,0,924.8,4.624,0.0
0,0,2961,32384,1,1196.0,0.0,44.0,1800,0,0,0,0,924.8,4.624,0.0
0,0,2966,32434,1,1248.0,0.0,44.0,1800,0,0,0,0,924.8,4.624,0.0
0,0,2971,32484,1,1248.0,0.0,44.0,1800,0,0,0,0,924.8,4.624,0.0
0,0,2976,32534,1,1388.0,0.0,44.0,1800,0,0,0,0,924.8,4.624,0.0
0,0,2981,32585,1,1388.0,0.0,44.0,1800,0,0,0,0,924.8,4.624,0.0
0,0,2986,32635,1,1388.0,0.0,52.0,1800,0,0,0,0,918.4,4.592,-64.0
0,0,2991,32685,1,1388.0,0.0,32.0,1800,0,0,0,0,934.4,4.672,96.0
0,0,2996,32736,1,1396.0,0.0,32.0,1800,0,0,0,0,934.4,4.672,160.0
0,0,3001,32786,1,1396.0,0.0,32.0,1800,0,0,0,0,934.4,4.672,0.0
0,0,3006,32836,1,1420.0,0.0,32.0,1800,0,0,0,0,934.4,4.672,0.0
0,0,3011,32886,1,1420.0,0.0,32.0,1800,0,0,0,0,934.4,4.672,0.0
0,0,3016,32936,1,1420.0,0.0,32.0,1800,0,0,0,0,934.4,4.672,0.0
0,0,3021,32986,1,1420.0,0.0,32.0,1800,0,0,0,0,934.4,4.672,0.0
0,0,3026,33036,1,1420.0,0.0,32.0,1800,0,0,0,0,934.4,4.672,0.0
0,0,3031,33087,1,1420.0,0.0,32.0,1800,0,0,0,0,934.4,4.672,0.0
0,0,3036,33137,1,1420.0,0.0,32.0,1800,0,0,0,0,934.4,4.672,0.0
0,0,3041,33187,1,1392.0,0.0,32.0,1800,0,0,0,0,934.4,4.672,0.0
0,0,3046,33238,1,1392.0,0.0,32.0,1800,0,0,0,0,934.4,5.139,0.0
0,0,3051,33288,1,1328.0,0.0,32.0,1800,0,0,0,0,934.4,4.672,0.0
0,0,3056,33338,1,1328.0,0.0,32.0,1800,0,0,0,0,934.4,4.672,0.0
0,0,3061,33388,1,1296.0,0.0,36.0,1800,0,0,0,0,931.2,4.655,-32.0
0,0,3066,33438,1,1296.0,0.0,36.0,1800,0,0,0,0,931.2,4.655,-32.0
0,0,3071,33488,1,1296.0,0.0,36.0,1800,0,0,0,0,931.2,4.655,0.0
0,0,3076,33538,1,1296.0,0.0,36.0,1800,0,0,0,0,931.2,4.655,0.0
0,0,3081,33589,1,1296.0,0.0,36.0,1800,0,0,0,0,931.2,4.655,0.0
0,0,3086,33639,1,1296.0,0.0,36.0,1800,0,0,0,0,931.2,4.655,0.0
0,0,3091,33689,1,1296.0,0.0,36.0,1800,0,0,0,0,931.2,4.655,0.0
0,0,3096,33739,1,1296.0,0.0,36.0,1800,0,0,0,0,931.2,4.655,0.0
0,0,3101,33790,1,1296.0,0.0,36.0,1800,0,0,0,0,931.2,4.655,0.0
0,0,3106,33840,1,1296.0,0.0,36.0,1800,0,0,0,0,931.2,4.655,0.0
0,0,3111,33890,1,1320.0,0.0,36.0,1800,0,0,0,0,931.2,4.655,0.0
0,0,3116,33940,1,1320.0,0.0,36.0,1800,0,0,0,0,931.2,4.655,0.0
0,0,3121,33990,1,1320.0,0.0,36.0,1800,0,0,0,0,931.2,4.655,0.0
0,0,3126,34040,1,1320.0,0.0,36.0,1800,0,0,0,0,931.2,4.655,0.0
0,0,3131,34091,1,1320.0,0.0,64.0,1689,0,0,0,0,908.8,4.998,-224.0
0,0,3136,34141,1,1320.0,0.0,64.0,1689,0,0,0,0,908.8,4.544,-224.0
0,0,3141,34191,1,1320.0,0.0,64.0,1800,0,0,0,0,908.8,4.544,0.0
0,0,3146,34241,1,1320.0,0.0,56.0,1800,0,0,0,0,915.2,4.575,64.0
0,0,3151,34292,1,1228.0,0.0,56.0,1800,0,0,0,0,915.2,4.575,64.0
0,0,3156,34342,1,1228.0,0.0,56.0,1800,0,0,0,0,915.2,4.575,0.0
0,0,3161,34392,1,1212.0,0.0,56.0,1800,0,0,0,0,915.2,4.575,0.0
0,0,3166,34442,1,1212.0,0.0,56.0,1800,0,0,0,0,915.2,4.575,0.0
0,0,3171,34492,1,1212.0,0.0,56.0,1800,0,0,0,0,915.2,4.575,0.0
0,0,3176,34542,1,1212.0,0.0,56.0,1800,0,0,0,0,915.2,4.575,0.0
0,0,3181,34592,1,1208.0,0.0,56.0,1800,0,0,0,0,915.2,4.575,0.0
0,0,3186,34643,1,1208.0,0.0,56.0,1800,0,0,0,0,915.2,4.575,0.0
0,0,3191,34693,1,1128.0,0.0,56.0,1800,0,0,0,0,915.2,4.575,0.0
0,0,3196,34743,1,1128.0,0.0,56.0,1800,0,0,0,0,915.2,4.575,0.0
0,0,3201,34794,1,1128.0,0.0,56.0,1800,0,0,0,0,915.2,4.575,0.0
0,0,3206,34844,1,1128.0,0.0,56.0,1800,0,0,0,0,915.2,4.575,0.0
0,0,3211,34894,1,1204.0,0.0,56.0,1800,0,0,0,0,915.2,4.575,0.0
0,0,3216,34944,1,1204.0,0.0,56.0,1800,0,0,0,0,915.2,4.575,0.0
0,0,3221,34994,1,1204.0,0.0,56.0,1800,0,0,0,0,915.2,4.575,0.0
0,0,3226,35044,1,1204.0,0.0,56.0,1800,0,0,0,0,915.2,4.575,0.0
0,0,3231,35094,1,1208.0,0.0,56.0,1800,0,0,0,0,915.2,4.575,0.0
0,0,3236,35145,1,1208.0,0.0,56.0,1800,0,0,0,0,915.2,4.575,0.0
0,0,3241,35195,1,1224.0,0.0,56.0,1800,0,0,0,0,915.2,4.575,0.0
0,0,3246,35245,1,1224.0,0.0,56.0,1800,0,0,0,0,915.2,4.575,0.0
0,0,3251,35296,1,1276.0,0.0,56.0,1800,0,0,0,0,915.2,4.575,0.0
0,0,3256,35346,1,1280.0,0.0,56.0,1800,0,0,0,0,915.2,4.575,0.0
0,0,3261,35396,1,1280.0,0.0,56.0,1800,0,0,0,0,915.2,4.575,0.0
0,0,3266,35446,1,1316.0,0.0,56.0,1800,0,0,0,0,915.2,4.575,0.0
0,0,3271,35496,1,1316.0,0.0,56.0,1800,0,0,0,0,915.2,4.575,0.0
0,0,3276,35546,1,1316.0,0.0,56.0,1800,0,0,0,0,915.2,4.575,0.0
0,0,3281,35596,1,1316.0,0.0,56.0,1800,0,0,0,0,915.2,4.575,0.0
0,0,3286,35647,1,1360.0,0.0,56.0,1800,0,0,0,0,915.2,4.575,0.0
0,0,3291,35697,1,1360.0,0.0,56.0,1800,0,0,0,0,915.2,4.575,0.0
0,0,3296,35747,1,1364.0,0.0,64.0,1800,0,0,0,0,908.8,4.544,-64.0
0,0,3301,35798,1,1364.0,0.0,28.0,1800,0,0,0,0,937.6,5.156,206.5
0,0,3306,35848,1,1364.0,0.0,28.0,1800,0,0,0,0,937.6,4.687,270.5
0,0,3311,35898,1,1364.0,0.0,28.0,1800,0,0,0,0,937.6,4.687,0.0
0,0,3316,35948,1,560.0,0.0,28.0,1800,0,0,0,0,937.6,4.687,0.0
0,0,3321,35998,1,560.0,0.0,28.0,1800,0,0,0,0,937.6,4.687,0.0
0,0,3326,36048,1,644.0,0.0,28.0,1800,0,0,0,0,937.6,4.687,0.0
0,0,3331,36098,1,644.0,0.0,28.0,1800,0,0,0,0,937.6,4.687,0.0
0,0,3336,36149,1,640.0,0.0,28.0,1800,0,0,0,0,937.6,4.687,0.0
0,0,3341,36199,1,640.0,0.0,28.0,1800,0,0,0,0,937.6,4.687,0.0
0,0,3346,36249,1,640.0,0.0,28.0,1800,0,0,0,0,937.6,4.687,0.0
0,0,3351,36299,1,640.0,0.0,28.0,1800,0,0,0,0,937.6,4.687,0.0
0,0,3356,36350,1,640.0,0.0,28.0,1800,0,0,0,0,937.6,4.687,0.0
0,0,3361,36400,1,640.0,0.0,28.0,1800,0,0,0,0,937.6,4.687,0.0
0,0,3366,36450,1,644.0,0.0,28.0,1800,0,0,0,0,937.6,4.687,0.0
0,0,3371,36500,1,644.0,0.0,52.0,1730,0,0,0,0,918.4,4.592,-192.0
0,0,3376,36550,1,688.0,0.0,52.0,1730,0,0,0,0,918.4,4.592,-192.0
0,0,3381,36600,1,688.0,0.0,52.0,1800,0,0,0,0,918.4,4.592,0.0
0,0,3386,36651,1,836.0,0.0,52.0,1800,0,0,0,0,918.4,5.051,0.0
0,0,3391,36701,1,836.0,0.0,52.0,1800,0,0,0,0,918.4,4.592,0.0
0,0,3396,36751,1,840.0,0.0,52.0,1800,0,0,0,0,918.4,4.592,0.0
0,0,3401,36801,1,840.0,0.0,52.0,1800,0,0,0,0,918.4,4.592,0.0
0,0,3406,36852,1,852.0,0.0,52.0,1800,0,0,0,0,918.4,4.592,0.0
0,0,3411,36902,1,852.0,0.0,52.0,1800,0,0,0,0,918.4,4.592,0.0
0,0,3416,36952,1,852.0,0.0,52.0,1800,0,0,0,0,918.4,4.592,0.0
0,0,3421,37002,1,852.0,0.0,52.0,1800,0,0,0,0,918.4,4.592,0.0
0,0,3426,37052,1,1484.0,0.0,52.0,1800,0,0,0,0,918.4,4.592,0.0
0,0,3431,37102,1,1484.0,0.0,52.0,1800,0,0,0,0,918.4,4.592,0.0
0,0,3436,37152,1,1484.0,0.0,52.0,1800,0,0,0,0,918.4,4.592,0.0
0,0,3441,37203,1,1484.0,0.0,52.0,1800,0,0,0,0,918.4,4.592,0.0
0,0,3446,37253,1,1484.0,0.0,52.0,1800,0,0,0,0,918.4,4.592,0.0
0,0,3451,37303,1,1484.0,0.0,52.0,1800,0,0,0,0,918.4,4.592,0.0
0,0,3456,37354,1,880.0,0.0,52.0,1800,0,0,0,0,918.4,4.592,0.0
0,0,3461,37404,1,880.0,0.0,52.0,1800,0,0,0,0,918.4,4.592,0.0
0,0,3466,37454,1,880.0,0.0,52.0,1800,0,0,0,0,918.4,4.592,0.0
0,0,3471,37504,1,880.0,0.0,52.0,1800,0,0,0,0,918.4,4.592,0.0
0,0,3476,37554,1,880.0,0.0,52.0,1800,0,0,0,0,918.4,4.592,0.0
0,0,3481,37604,1,908.0,0.0,52.0,1800,0,0,0,0,918.4,4.592,0.0
0,0,3486,37654,1,908.0,0.0,52.0,1800,0,0,0,0,918.4,4.592,0.0
0,0,3491,37705,1,908.0,0.0,52.0,1800,0,0,0,0,918.4,4.592,0.0
0,0,3496,37755,1,908.0,0.0,52.0,1800,0,0,0,0,918.4,4.592,0.0
0,0,3501,37805,1,908.0,0.0,52.0,1800,0,0,0,0,918.4,4.592,0.0
0,0,3506,37856,1,908.0,0.0,52.0,1800,0,0,0,0,918.4,4.592,0.0
0,0,3511,37906,1,908.0,0.0,12424.0,1000,0,0,0,0,-8979.0,-44.89,-989700.0
0,0,3516,37956,1,908.0,0.0,12424.0,1000,0,0,0,0,-8979.0,-44.89,-989700.0
0,0,3521,38006,1,912.0,0.0,44.0,1800,0,0,0,0,924.8,4.624,990400.0
0,0,3526,38056,1,912.0,0.0,44.0,1800,0,0,0,0,924.8,4.624,990400.0
0,0,3531,38106,1,836.0,0.0,44.0,1800,0,0,0,0,924.8,4.624,0.0
0,0,3536,38156,1,836.0,0.0,44.0,1800,0,0,0,0,924.8,4.624,0.0
0,0,3541,38207,1,820.0,0.0,44.0,1800,0,0,0,0,924.8,4.624,0.0
0,0,3546,38257,1,820.0,0.0,44.0,1800,0,0,0,0,924.8,4.624,0.0
0,0,3551,38307,1,804.0,0.0,44.0,1800,0,0,0,0,924.8,4.624,0.0
0,0,3556,38358,1,804.0,0.0,44.0,1800,0,0,0,0,924.8,5.086,0.0
0,0,3561,38408,1,788.0,0.0,44.0,1800,0,0,0,0,924.8,4.624,0.0
0,0,3566,38458,1,788.0,0.0,44.0,1800,0,0,0,0,924.8,4.624,0.0
0,0,3571,38508,1,736.0,0.0,44.0,1800,0,0,0,0,924.8,4.624,0.0
0,0,3576,38558,1,736.0,0.0,44.0,1800,0,0,0,0,924.8,4.624,0.0
0,0,3581,38608,1,736.0,0.0,44.0,1800,0,0,0,0,924.8,4.624,0.0
0,0,3586,38658,1,736.0,0.0,44.0,1800,0,0,0,0,924.8,4.624,0.0
0,0,3591,38709,1,736.0,0.0,44.0,1800,0,0,0,0,924.8,4.624,0.0
0,0,3596,38759,1,736.0,0.0,44.0,1800,0,0,0,0,924.8,4.624,0.0
0,0,3601,38809,1,728.0,0.0,44.0,1800,0,0,0,0,924.8,4.624,0.0
0,0,3606,38859,1,728.0,0.0,44.0,1800,0,0,0,0,924.8,4.624,0.0
0,0,3611,38910,1,728.0,0.0,44.0,1800,0,0,0,0,924.8,4.624,0.0
0,0,3616,38960,1,728.0,0.0,44.0,1800,0,0,0,0,924.8,4.624,0.0
0,0,3621,39010,1,500.0,0.0,44.0,1800,0,0,0,0,924.8,4.624,0.0
0,0,3626,39060,1,500.0,0.0,44.0,1800,0,0,0,0,924.8,4.624,0.0
0,0,3631,39110,1,500.0,0.0,44.0,1800,0,0,0,0,924.8,4.624,0.0
0,0,3636,39160,1,500.0,0.0,44.0,1800,0,0,0,0,924.8,4.624,0.0
0,0,3641,39211,1,500.0,0.0,44.0,1800,0,0,0,0,924.8,5.086,0.0
0,0,3646,39261,1,500.0,0.0,44.0,1800,0,0,0,0,924.8,4.624,0.0
0,0,3651,39311,1,600.0,0.0,44.0,1800,0,0,0,0,924.8,4.624,0.0
0,0,3656,39361,1,600.0,0.0,44.0,1800,0,0,0,0,924.8,4.624,0.0
0,0,3661,39412,1,600.0,0.0,28.0,1800,0,0,0,0,937.6,4.687,119.27
0,0,3666,39462,1,600.0,0.0,28.0,1800,0,0,0,0,937.6,4.687,119.27
0,0,3671,39512,1,600.0,0.0,24.0,1800,0,0,0,0,940.8,4.704,32.0
0,0,3676,39562,1,600.0,0.0,24.0,1800,0,0,0,0,940.8,4.704,32.0
0,0,3681,39612,1,600.0,0.0,24.0,1800,0,0,0,0,940.8,4.704,0.0
0,0,3686,39662,1,608.0,0.0,24.0,1800,0,0,0,0,940.8,4.704,0.0
0,0,3691,39712,1,608.0,0.0,24.0,1800,0,0,0,0,940.8,4.704,0.0
0,0,3696,39763,1,636.0,0.0,24.0,1800,0,0,0,0,940.8,4.704,0.0
0,0,3701,39813,1,636.0,0.0,24.0,1800,0,0,0,0,940.8,4.704,0.0
0,0,3706,39863,1,656.0,0.0,24.0,1800,0,0,0,0,940.8,4.704,0.0
0,0,3711,39914,1,656.0,0.0,24.0,1800,0,0,0,0,940.8,4.704,0.0
0,0,3716,39964,1,676.0,0.0,24.0,1800,0,0,0,0,940.8,4.704,0.0
0,0,3721,40014,1,676.0,0.0,24.0,1800,0,0,0,0,940.8,4.704,0.0
0,0,3726,40064,1,700.0,0.0,24.0,1800,0,0,0,0,940.8,4.704,0.0
0,0,3731,40114,1,700.0,0.0,24.0,1800,0,0,0,0,940.8,4.704,0.0
0,0,3736,40164,1,700.0,0.0,24.0,1800,0,0,0,0,940.8,4.704,0.0
0,0,3741,40214,1,700.0,0.0,28.0,1800,0,0,0,0,937.6,4.687,-32.0
0,0,3746,40265,1,704.0,0.0,28.0,1800,0,0,0,0,937.6,4.687,-32.0
0,0,3751,40315,1,704.0,0.0,28.0,1800,0,0,0,0,937.6,4.687,0.0
0,0,3756,40365,1,752.0,0.0,28.0,1800,0,0,0,0,937.6,4.687,0.0
0,0,3761,40416,1,752.0,0.0,28.0,1800,0,0,0,0,937.6,4.687,0.0
0,0,3766,40466,1,1220.0,0.0,28.0,1800,0,0,0,0,937.6,4.687,0.0
0,0,3771,40516,1,1220.0,0.0,28.0,1800,0,0,0,0,937.6,4.687,0.0
0,0,3776,40566,1,1220.0,0.0,28.0,1800,0,0,0,0,937.6,4.687,0.0
0,0,3781,40616,1,1220.0,0.0,28.0,1800,0,0,0,0,937.6,4.687,0.0
0,0,3786,40666,1,1220.0,0.0,28.0,1800,0,0,0,0,937.6,4.687,0.0
0,0,3791,40716,1,1220.0,0.0,28.0,1800,0,0,0,0,937.6,4.687,0.0
0,0,3796,40767,1,1096.0,0.0,28.0,1800,0,0,0,0,937.6,4.687,0.0
0,0,3801,40817,1,1096.0,0.0,28.0,1800,0,0,0,0,937.6,4.687,0.0
0,0,3806,40867,1,1096.0,0.0,28.0,1800,0,0,0,0,937.6,4.687,0.0
0,0,3811,40918,1,1096.0,0.0,28.0,1800,0,0,0,0,937.6,5.156,0.0
0,0,3816,40968,1,776.0,0.0,92.0,1378,0,0,0,0,886.4,4.432,-512.0
0,0,3821,41018,1,776.0,0.0,92.0,1378,0,0,0,0,886.4,4.432,-512.0
0,0,3826,41068,1,496.0,0.0,92.0,1800,0,0,0,0,886.4,4.432,0.0
0,0,3831,41118,1,496.0,0.0,92.0,1800,0,0,0,0,886.4,4.432,0.0
0,0,3836,41168,1,496.0,0.0,92.0,1800,0,0,0,0,886.4,4.432,0.0
0,0,3841,41218,1,496.0,0.0,92.0,1800,0,0,0,0,886.4,4.432,0.0
0,0,3846,41269,1,496.0,0.0,92.0,1800,0,0,0,0,886.4,4.432,0.0
0,0,3851,41319,1,496.0,0.0,92.0,1800,0,0,0,0,886.4,4.432,0.0
0,0,3856,41369,1,484.0,0.0,92.0,1800,0,0,0,0,886.4,4.432,0.0
0,0,3861,41419,1,484.0,0.0,92.0,1800,0,0,0,0,886.4,4.432,0.0
0,0,3866,41470,1,432.0,0.0,92.0,1800,0,0,0,0,886.4,4.432,0.0
0,0,3871,41520,1,432.0,0.0,92.0,1800,0,0,0,0,886.4,4.432,0.0
0,0,3876,41570,1,432.0,0.0,92.0,1800,0,0,0,0,886.4,4.432,0.0
0,0,3881,41620,1,432.0,0.0,92.0,1800,0,0,0,0,886.4,4.432,0.0
0,0,3886,41670,1,432.0,0.0,92.0,1800,0,0,0,0,886.4,4.432,0.0
0,0,3891,41720,1,432.0,0.0,92.0,1800,0,0,0,0,886.4,4.432,0.0
0,0,3896,41771,1,432.0,0.0,92.0,1800,0,0,0,0,886.4,4.875,0.0
0,0,3901,41821,1,432.0,0.0,92.0,1800,0,0,0,0,886.4,4.432,0.0
0,0,3906,41871,1,432.0,0.0,92.0,1800,0,0,0,0,886.4,4.432,0.0
0,0,3911,41921,1,436.0,0.0,92.0,1800,0,0,0,0,886.4,4.432,0.0
0,0,3916,41972,1,436.0,0.0,92.0,1800,0,0,0,0,886.4,4.432,0.0
0,0,3921,42022,1,440.0,0.0,92.0,1800,0,0,0,0,886.4,4.432,0.0
0,0,3926,42072,1,440.0,0.0,92.0,1800,0,0,0,0,886.4,4.432,0.0
0,0,3931,42122,1,444.0,0.0,92.0,1800,0,0,0,0,886.4,4.432,0.0
0,0,3936,42172,1,444.0,0.0,92.0,1800,0,0,0,0,886.4,4.432,0.0
0,0,3941,42222,1,456.0,0.0,92.0,1800,0,0,0,0,886.4,4.432,0.0
0,0,3946,42272,1,456.0,0.0,92.0,1800,0,0,0,0,886.4,4.432,0.0
0,0,3951,42323,1,456.0,0.0,92.0,1800,0,0,0,0,886.4,4.432,0.0
0,0,3956,42373,1,456.0,0.0,92.0,1800,0,0,0,0,886.4,4.432,0.0
0,0,3961,42423,1,456.0,0.0,92.0,1800,0,0,0,0,886.4,4.432,0.0
0,0,3966,42474,1,456.0,0.0,92.0,1800,0,0,0,0,886.4,4.432,0.0
0,0,3971,42524,1,456.0,0.0,92.0,1800,0,0,0,0,886.4,4.432,0.0
0,0,3976,42574,1,456.0,0.0,92.0,1800,0,0,0,0,886.4,4.432,0.0
0,0,3981,42624,1,452.0,0.0,92.0,1800,0,0,0,0,886.4,4.432,0.0
0,0,3986,42674,1,452.0,0.0,92.0,1800,0,0,0,0,886.4,4.432,0.0
0,0,3991,42724,1,452.0,0.0,92.0,1800,0,0,0,0,886.4,4.432,0.0
0,0,3996,42774,1,452.0,0.0,92.0,1800,0,0,0,0,886.4,4.432,0.0
0,0,4001,42825,1,452.0,0.0,92.0,1800,0,0,0,0,886.4,4.432,0.0
0,0,4006,42875,1,452.0,0.0,92.0,1800,0,0,0,0,886.4,4.432,0.0
0,0,4011,42925,1,448.0,0.0,92.0,1800,0,0,0,0,886.4,4.432,0.0
0,0,4016,42976,1,448.0,0.0,92.0,1800,0,0,0,0,886.4,4.432,0.0
0,0,4021,43026,1,440.0,0.0,92.0,1800,0,0,0,0,886.4,4.432,0.0
0,0,4026,43076,1,440.0,0.0,92.0,1800,0,0,0,0,886.4,4.432,0.0
0,0,4031,43126,1,440.0,0.0,92.0,1800,0,0,0,0,886.4,4.432,0.0
0,0,4036,43176,1,440.0,0.0,92.0,1800,0,0,0,0,886.4,4.432,0.0
0,0,4041,43226,1,440.0,0.0,92.0,1800,0,0,0,0,886.4,4.432,0.0
0,0,4046,43276,1,440.0,0.0,92.0,1800,0,0,0,0,886.4,4.432,0.0
0,0,4051,43327,1,404.0,0.0,92.0,1800,0,0,0,0,886.4,4.432,0.0
0,0,4056,43377,1,404.0,0.0,92.0,1800,0,0,0,0,886.4,4.432,0.0
0,0,4061,43427,1,404.0,0.0,92.0,1800,0,0,0,0,886.4,4.432,0.0
0,0,4066,43478,1,404.0,0.0,92.0,1800,0,0,0,0,886.4,4.875,0.0
0,0,4071,43528,1,404.0,0.0,92.0,1800,0,0,0,0,886.4,4.432,0.0
0,0,4076,43578,1,404.0,0.0,92.0,1800,0,0,0,0,886.4,4.432,0.0
0,0,4081,43628,1,448.0,0.0,92.0,1800,0,0,0,0,886.4,4.432,0.0
0,0,4086,43678,1,448.0,0.0,92.0,1800,0,0,0,0,886.4,4.432,0.0
0,0,4091,43728,1,448.0,0.0,92.0,1800,0,0,0,0,886.4,4.432,0.0
0,0,0,43778,1,452.0,0.0,92.0,1800,0,0,0,0,886.4,4.432,0.0
0,0,5,43829,1,452.0,0.0,92.0,1800,0,0,0,0,886.4,4.432,0.0
0,0,10,43879,1,452.0,0.0,92.0,1800,0,0,0,0,886.4,4.432,0.0
0,0,15,43929,1,452.0,0.0,92.0,1800,0,0,0,0,886.4,4.432,0.0
0,0,20,43979,1,452.0,0.0,92.0,1800,0,0,0,0,886.4,4.432,0.0
0,0,25,44030,1,452.0,0.0,92.0,1800,0,0,0,0,886.4,4.432,0.0
0,0,30,44080,1,452.0,0.0,92.0,1800,0,0,0,0,886.4,4.432,0.0
0,0,35,44130,1,452.0,0.0,92.0,1800,0,0,0,0,886.4,4.432,0.0
0,0,40,44180,1,452.0,0.0,92.0,1800,0,0,0,0,886.4,4.432,0.0
0,0,45,44230,1,452.0,0.0,92.0,1800,0,0,0,0,886.4,4.432,0.0
0,0,50,44280,1,480.0,0.0,92.0,1800,0,0,0,0,886.4,4.432,0.0
0,0,55,44331,1,480.0,0.0,92.0,1800,0,0,0,0,886.4,4.875,0.0
0,0,60,44381,1,512.0,0.0,92.0,1800,0,0,0,0,886.4,4.432,0.0
0,0,65,44431,1,512.0,0.0,92.0,1800,0,0,0,0,886.4,4.432,0.0
0,0,70,44481,1,512.0,0.0,92.0,1800,0,0,0,0,886.4,4.432,0.0
0,0,75,44532,1,512.0,0.0,92.0,1800,0,0,0,0,886.4,4.432,0.0
0,0,80,44582,1,512.0,0.0,92.0,1800,0,0,0,0,886.4,4.432,0.0
0,0,85,44632,1,512.0,0.0,92.0,1800,0,0,0,0,886.4,4.432,0.0
0,0,90,44682,1,444.0,0.0,92.0,1800,0,0,0,0,886.4,4.432,0.0
0,0,95,44732,1,444.0,0.0,92.0,1800,0,0,0,0,886.4,4.432,0.0
0,0,100,44782,1,444.0,0.0,92.0,1800,0,0,0,0,886.4,4.432,0.0
0,0,105,44832,1,444.0,0.0,92.0,1800,0,0,0,0,886.4,4.432,0.0
0,0,110,44883,1,444.0,0.0,92.0,1800,0,0,0,0,886.4,4.432,0.0
0,0,115,44933,1,444.0,0.0,92.0,1800,0,0,0,0,886.4,4.432,0.0
0,0,120,44983,1,472.0,0.0,92.0,1800,0,0,0,0,886.4,4.432,0.0
0,0,125,45034,1,472.0,0.0,92.0,1800,0,0,0,0,886.4,4.432,0.0
0,0,130,45084,1,472.0,0.0,92.0,1800,0,0,0,0,886.4,4.432,0.0
0,0,135,45134,1,472.0,0.0,92.0,1800,0,0,0,0,886.4,4.432,0.0
0,0,140,45184,1,476.0,0.0,92.0,1800,0,0,0,0,886.4,4.432,0.0
0,0,145,45234,1,476.0,0.0,92.0,1800,0,0,0,0,886.4,4.432,0.0
0,0,150,45284,1,476.0,0.0,92.0,1800,0,0,0,0,886.4,4.432,0.0
0,0,155,45334,1,476.0,0.0,92.0,1800,0,0,0,0,886.4,4.432,0.0
0,0,160,45385,1,480.0,0.0,92.0,1800,0,0,0,0,886.4,4.432,0.0
0,0,165,45435,1,480.0,0.0,92.0,1800,0,0,0,0,886.4,4.432,0.0
0,0,170,45485,1,488.0,0.0,92.0,1800,0,0,0,0,886.4,4.432,0.0
0,0,175,45536,1,488.0,0.0,92.0,1800,0,0,0,0,886.4,4.432,0.0
0,0,180,45586,1,492.0,0.0,92.0,1800,0,0,0,0,886.4,4.432,0.0
0,0,185,45636,1,492.0,0.0,92.0,1800,0,0,0,0,886.4,4.432,0.0
0,0,190,45686,1,496.0,0.0,92.0,1800,0,0,0,0,886.4,4.432,0.0
0,0,195,45736,1,496.0,0.0,92.0,1800,0,0,0,0,886.4,4.432,0.0
0,0,200,45786,1,500.0,0.0,92.0,1800,0,0,0,0,886.4,4.432,0.0
0,0,205,45836,1,512.0,0.0,92.0,1800,0,0,0,0,886.4,4.432,0.0
0,0,210,45887,1,512.0,0.0,92.0,1800,0,0,0,0,886.4,4.432,0.0
0,0,215,45937,1,516.0,0.0,92.0,1800,0,0,0,0,886.4,4.432,0.0
0,0,220,45987,1,516.0,0.0,92.0,1800,0,0,0,0,886.4,4.432,0.0
0,0,225,46038,1,544.0,0.0,92.0,1800,0,0,0,0,886.4,4.875,0.0
0,0,230,46088,1,544.0,0.0,92.0,1800,0,0,0,0,886.4,4.432,0.0
0,0,235,46138,1,548.0,0.0,92.0,1800,0,0,0,0,886.4,4.432,0.0
0,0,240,46188,1,548.0,0.0,92.0,1800,0,0,0,0,886.4,4.432,0.0
0,0,245,46238,1,556.0,0.0,92.0,1800,0,0,0,0,886.4,4.432,0.0
0,0,250,46288,1,556.0,0.0,92.0,1800,0,0,0,0,886.4,4.432,0.0
0,0,255,46338,1,604.0,0.0,92.0,1800,0,0,0,0,886.4,4.432,0.0
0,0,260,46389,1,604.0,0.0,92.0,1800,0,0,0,0,886.4,4.432,0.0
0,0,265,46439,1,604.0,0.0,92.0,1800,0,0,0,0,886.4,4.432,0.0
0,0,270,46489,1,604.0,0.0,92.0,1800,0,0,0,0,886.4,4.432,0.0
0,0,275,46539,1,604.0,0.0,92.0,1800,0,0,0,0,886.4,4.432,0.0
0,0,280,46590,1,604.0,0.0,92.0,1800,0,0,0,0,886.4,4.432,0.0
0,0,285,46640,1,608.0,0.0,92.0,1800,0,0,0,0,886.4,4.432,0.0
0,0,290,46690,1,608.0,0.0,92.0,1800,0,0,0,0,886.4,4.432,0.0
0,0,295,46740,1,604.0,0.0,92.0,1800,0,0,0,0,886.4,4.432,0.0
0,0,300,46790,1,604.0,0.0,92.0,1800,0,0,0,0,886.4,4.432,0.0
0,0,305,46840,1,604.0,0.0,92.0,1800,0,0,0,0,886.4,4.432,0.0
0,0,310,46891,1,604.0,0.0,92.0,1800,0,0,0,0,886.4,4.875,0.0
0,0,315,46941,1,604.0,0.0,92.0,1800,0,0,0,0,886.4,4.432,0.0
0,0,320,46991,1,604.0,0.0,92.0,1800,0,0,0,0,886.4,4.432,0.0
0,0,325,47041,1,460.0,0.0,92.0,1800,0,0,0,0,886.4,4.432,0.0
0,0,330,47092,1,460.0,0.0,92.0,1800,0,0,0,0,886.4,4.432,0.0
0,0,335,47142,1,444.0,0.0,92.0,1800,0,0,0,0,886.4,4.432,0.0
0,0,340,47192,1,444.0,0.0,92.0,1800,0,0,0,0,886.4,4.432,0.0
0,0,345,47242,1,444.0,0.0,92.0,1800,0,0,0,0,886.4,4.432,0.0
0,0,350,47292,1,444.0,0.0,92.0,1800,0,0,0,0,886.4,4.432,0.0
0,0,355,47342,1,440.0,0.0,92.0,1800,0,0,0,0,886.4,4.432,0.0
0,0,360,47392,1,440.0,0.0,92.0,1800,0,0,0,0,886.4,4.432,0.0
0,0,365,47443,1,440.0,0.0,92.0,1800,0,0,0,0,886.4,4.432,0.0
0,0,370,47493,1,440.0,0.0,92.0,1800,0,0,0,0,886.4,4.432,0.0
0,0,375,47543,1,440.0,0.0,92.0,1800,0,0,0,0,886.4,4.432,0.0
0,0,380,47594,1,440.0,0.0,92.0,1800,0,0,0,0,886.4,4.432,0.0
0,0,385,47644,1,440.0,0.0,92.0,1800,0,0,0,0,886.4,4.432,0.0
0,0,390,47694,1,440.0,0.0,92.0,1800,0,0,0,0,886.4,4.432,0.0
0,0,395,47744,1,440.0,0.0,92.0,1800,0,0,0,0,886.4,4.432,0.0
0,0,400,47794,1,440.0,0.0,92.0,1800,0,0,0,0,886.4,4.432,0.0
0,0,405,47844,1,440.0,0.0,92.0,1800,0,0,0,0,886.4,4.432,0.0
0,0,410,47894,1,440.0,0.0,92.0,1800,0,0,0,0,886.4,4.432,0.0
0,0,415,47945,1,440.0,0.0,92.0,1800,0,0,0,0,886.4,4.432,0.0
0,0,420,47995,1,440.0,0.0,92.0,1800,0,0,0,0,886.4,4.432,0.0
0,0,425,48045,1,440.0,0.0,92.0,1800,0,0,0,0,886.4,4.432,0.0
0,0,430,48096,1,436.0,0.0,92.0,1800,0,0,0,0,886.4,4.432,0.0
0,0,435,48146,1,436.0,0.0,92.0,1800,0,0,0,0,886.4,4.432,0.0
0,0,440,48196,1,436.0,0.0,92.0,1800,0,0,0,0,886.4,4.432,0.0
0,0,445,48246,1,436.0,0.0,92.0,1800,0,0,0,0,886.4,4.432,0.0
0,0,450,48296,1,436.0,0.0,92.0,1800,0,0,0,0,886.4,4.432,0.0
0,0,455,48346,1,436.0,0.0,92.0,1800,0,0,0,0,886.4,4.432,0.0
0,0,460,48396,1,436.0,0.0,92.0,1800,0,0,0,0,886.4,4.432,0.0
0,0,465,48447,1,436.0,0.0,92.0,1800,0,0,0,0,886.4,4.432,0.0
0,0,470,48497,1,440.0,0.0,92.0,1800,0,0,0,0,886.4,4.432,0.0
0,0,475,48547,1,440.0,0.0,92.0,1800,0,0,0,0,886.4,4.432,0.0
0,0,480,48598,1,500.0,0.0,92.0,1800,0,0,0,0,886.4,4.875,0.0
0,0,485,48648,1,500.0,0.0,92.0,1800,0,0,0,0,886.4,4.432,0.0
0,0,490,48698,1,508.0,0.0,92.0,1800,0,0,0,0,886.4,4.432,0.0
0,0,495,48748,1,508.0,0.0,92.0,1800,0,0,0,0,886.4,4.432,0.0
0,0,500,48798,1,608.0,0.0,92.0,1800,0,0,0,0,886.4,4.432,0.0
0,0,505,48848,1,608.0,0.0,92.0,1800,0,0,0,0,886.4,4.432,0.0
0,0,510,48898,1,608.0,0.0,92.0,1800,0,0,0,0,886.4,4.432,0.0
0,0,515,48949,1,608.0,0.0,92.0,1800,0,0,0,0,886.4,4.432,0.0
0,0,520,48999,1,608.0,0.0,92.0,1800,0,0,0,0,886.4,4.432,0.0
0,0,525,49049,1,608.0,0.0,92.0,1800,0,0,0,0,886.4,4.432,0.0
0,0,530,49099,1,444.0,0.0,92.0,1800,0,0,0,0,886.4,4.432,0.0
0,0,535,49150,1,444.0,0.0,92.0,1800,0,0,0,0,886.4,4.432,0.0
0,0,540,49200,1,444.0,0.0,92.0,1800,0,0,0,0,886.4,4.432,0.0
0,0,545,49250,1,444.0,0.0,92.0,1800,0,0,0,0,886.4,4.432,0.0
0,0,550,49300,1,440.0,0.0,92.0,1800,0,0,0,0,886.4,4.432,0.0
0,0,555,49350,1,440.0,0.0,92.0,1800,0,0,0,0,886.4,4.432,0.0
0,0,560,49400,1,440.0,0.0,92.0,1800,0,0,0,0,886.4,4.432,0.0
0,0,565,49451,1,440.0,0.0,92.0,1800,0,0,0,0,886.4,4.875,0.0
0,0,570,49501,1,436.0,0.0,92.0,1800,0,0,0,0,886.4,4.432,0.0
0,0,575,49551,1,436.0,0.0,92.0,1800,0,0,0,0,886.4,4.432,0.0
0,0,580,49601,1,436.0,0.0,92.0,1800,0,0,0,0,886.4,4.432,0.0
0,0,585,49652,1,436.0,0.0,92.0,1800,0,0,0,0,886.4,4.432,0.0
0,0,590,49702,1,436.0,0.0,92.0,1800,0,0,0,0,886.4,4.432,0.0
0,0,595,49752,1,436.0,0.0,92.0,1800,0,0,0,0,886.4,4.432,0.0
0,0,600,49802,1,440.0,0.0,92.0,1800,0,0,0,0,886.4,4.432,0.0
0,0,605,49852,1,440.0,0.0,92.0,1800,0,0,0,0,886.4,4.432,0.0
0,0,610,49902,1,444.0,0.0,92.0,1800,0,0,0,0,886.4,4.432,0.0
0,0,615,49952,1,444.0,0.0,92.0,1800,0,0,0,0,886.4,4.432,0.0
0,0,620,50003,1,448.0,0.0,92.0,1800,0,0,0,0,886.4,4.432,0.0
0,0,625,50053,1,448.0,0.0,92.0,1800,0,0,0,0,886.4,4.432,0.0
0,0,630,50103,1,448.0,0.0,92.0,1800,0,0,0,0,886.4,4.432,0.0
0,0,635,50154,1,448.0,0.0,92.0,1800,0,0,0,0,886.4,4.432,0.0
0,0,640,50204,1,448.0,0.0,92.0,1800,0,0,0,0,886.4,4.432,0.0
0,0,645,50254,1,448.0,0.0,92.0,1800,0,0,0,0,886.4,4.432,0.0
0,0,650,50304,1,448.0,0.0,92.0,1800,0,0,0,0,886.4,4.432,0.0
0,0,655,50354,1,448.0,0.0,92.0,1800,0,0,0,0,886.4,4.432,0.0
0,0,660,50404,1,448.0,0.0,92.0,1800,0,0,0,0,886.4,4.432,0.0
0,0,665,50454,1,448.0,0.0,92.0,1800,0,0,0,0,886.4,4.432,0.0
0,0,670,50505,1,448.0,0.0,92.0,1800,0,0,0,0,886.4,4.432,0.0
0,0,675,50555,1,448.0,0.0,92.0,1800,0,0,0,0,886.4,4.432,0.0
0,0,680,50605,1,448.0,0.0,92.0,1800,0,0,0,0,886.4,4.432,0.0
0,0,685,50656,1,440.0,0.0,92.0,1800,0,0,0,0,886.4,4.432,0.0
0,0,690,50706,1,440.0,0.0,92.0,1800,0,0,0,0,886.4,4.432,0.0
0,0,695,50756,1,440.0,0.0,92.0,1800,0,0,0,0,886.4,4.432,0.0
