InitialVarHeader,InitialVars,logNo,timeStep,controlMode,forwardSensor1,forwardSensor2,AltitudeSensor,throttleControl,yawControl,rollControl,pitchControl,stablilityModeControl,errorP,errorI,errorD
ALTITUDE_KP,1.0,6,2718,0,-13624.0,0.0,336.0,1000,0,0,0,0,0.0,0.0,0.0
ALTITUDE_KI,0.5,11,2768,0,-13624.0,0.0,332.0,1000,0,0,0,0,0.0,0.0,0.0
ALTITUDE_KD,0.02,16,2818,0,1464.0,0.0,328.0,1800,0,0,0,0,872.0,21.76,174400.0
THROTTLE_LIMIT,1800.0,21,2869,0,1464.0,0.0,348.0,1510,0,0,0,0,852.0,43.7,-385.4
ALTITUDE_PID_GAIN_RATIO,1.0,26,2919,0,1462.0,0.0,340.0,1800,0,0,0,0,860.0,65.06,160.0
ALTITUDE_HOVER_HEIGHT,1200.0,31,2969,0,1462.0,0.0,336.0,1800,0,0,0,0,864.0,86.66,80.0
0,0,36,3019,0,1460.0,0.0,336.0,1800,0,0,0,0,864.0,108.26,0.0
0,0,41,3070,0,1460.0,0.0,332.0,1800,0,0,0,0,868.0,130.38,72.72
0,0,46,3120,0,1460.0,0.0,324.0,1800,0,0,0,0,876.0,152.16,160.0
0,0,51,3170,0,1436.0,0.0,336.0,1797,0,0,0,0,864.0,173.8,-240.0
0,0,56,3220,0,1436.0,0.0,344.0,1800,0,0,0,0,856.0,195.3,-160.0
0,0,61,3270,0,588.0,0.0,340.0,1800,0,0,0,0,860.0,216.8,80.0
0,0,66,3320,0,588.0,0.0,332.0,1800,0,0,0,0,868.0,238.5,160.0
0,0,71,3371,0,588.0,0.0,340.0,1800,0,0,0,0,860.0,260.4,-167.2
0,0,76,3421,0,588.0,0.0,324.0,1800,0,0,0,0,876.0,282.1,320.0
0,0,81,3471,0,588.0,0.0,336.0,1800,0,0,0,0,864.0,303.9,-240.0
0,0,86,3521,0,588.0,0.0,328.0,1800,0,0,0,0,872.0,325.6,160.0
0,0,91,3572,0,612.0,0.0,336.0,1800,0,0,0,0,864.0,347.8,-160.0
0,0,96,3622,0,612.0,0.0,324.0,1800,0,0,0,0,876.0,369.6,240.0
0,0,101,3672,0,664.0,0.0,336.0,1800,0,0,0,0,864.0,391.3,-240.0
0,0,106,3722,0,664.0,0.0,328.0,1800,0,0,0,0,872.0,413.0,160.0
0,0,111,3772,0,668.0,0.0,336.0,1800,0,0,0,0,864.0,434.6,-160.0
0,0,116,3822,0,668.0,0.0,332.0,1800,0,0,0,0,868.0,456.4,80.0
0,0,121,3872,0,916.0,0.0,344.0,1800,0,0,0,0,856.0,478.0,-240.0
0,0,126,3923,0,916.0,0.0,328.0,1800,0,0,0,0,872.0,500.0,320.0
0,0,131,3973,0,920.0,0.0,324.0,1800,0,0,0,0,876.0,521.9,80.0
0,0,136,4023,0,920.0,0.0,340.0,1800,0,0,0,0,860.0,543.5,-320.0
0,0,141,4074,0,924.0,0.0,332.0,1800,0,0,0,0,868.0,565.6,152.72
0,0,146,4124,0,924.0,0.0,340.0,1800,0,0,0,0,860.0,587.2,-160.0
0,0,151,4174,0,924.0,0.0,336.0,1800,0,0,0,0,864.0,608.7,80.0
0,0,156,4224,0,924.0,0.0,340.0,1800,0,0,0,0,860.0,630.3,-80.0
0,0,161,4274,0,956.0,0.0,336.0,1800,0,0,0,0,864.0,651.8,80.0
0,0,166,4324,0,956.0,0.0,340.0,1800,0,0,0,0,860.0,673.3,-80.0
0,0,171,4374,0,956.0,0.0,336.0,1800,0,0,0,0,864.0,694.9,80.0
0,0,176,4425,0,956.0,0.0,332.0,1800,0,0,0,0,868.0,716.9,80.0
0,0,181,4475,0,956.0,0.0,332.0,1800,0,0,0,0,868.0,738.6,0.0
0,0,186,4525,0,956.0,0.0,324.0,1800,0,0,0,0,876.0,760.3,160.0
0,0,191,4576,0,924.0,0.0,348.0,1800,0,0,0,0,852.0,782.0,-480.0
0,0,196,4626,0,924.0,0.0,328.0,1800,0,0,0,0,872.0,803.6,400.0
0,0,201,4676,0,924.0,0.0,336.0,1800,0,0,0,0,864.0,825.2,-160.0
0,0,206,4726,0,924.0,0.0,332.0,1800,0,0,0,0,868.0,846.9,80.0
0,0,211,4776,0,924.0,0.0,328.0,1800,0,0,0,0,872.0,868.7,80.0
0,0,216,4826,0,924.0,0.0,340.0,1800,0,0,0,0,860.0,890.4,-240.0
0,0,221,4876,0,936.0,0.0,336.0,1800,0,0,0,0,864.0,911.9,80.0
0,0,226,4927,1,936.0,0.0,336.0,1800,0,0,0,0,864.0,4.319,0.0
0,0,231,4977,1,1248.0,0.0,328.0,1800,0,0,0,0,872.0,4.36,160.0
0,0,236,5027,1,1248.0,0.0,332.0,1792,0,0,0,0,868.0,4.339,-80.0
0,0,241,5078,1,1248.0,0.0,344.0,1620,0,0,0,0,856.0,4.708,-240.0
0,0,246,5128,1,1356.0,0.0,336.0,1800,0,0,0,0,864.0,4.319,160.0
0,0,251,5178,1,1356.0,0.0,332.0,1800,0,0,0,0,868.0,4.339,80.0
0,0,256,5228,1,1336.0,0.0,324.0,1800,0,0,0,0,876.0,4.38,160.0
0,0,261,5278,1,1336.0,0.0,348.0,1376,0,0,0,0,852.0,4.259,-480.0
0,0,266,5328,1,1328.0,0.0,328.0,1800,0,0,0,0,872.0,4.36,400.0
0,0,271,5378,1,1328.0,0.0,336.0,1708,0,0,0,0,864.0,4.319,-160.0
0,0,276,5429,1,1336.0,0.0,336.0,1800,0,0,0,0,864.0,4.319,-14.545
0,0,281,5479,1,1336.0,0.0,328.0,1800,0,0,0,0,872.0,4.36,160.0
0,0,286,5529,1,1340.0,0.0,324.0,1800,0,0,0,0,876.0,4.38,80.0
0,0,291,5579,1,1340.0,0.0,332.0,1712,0,0,0,0,868.0,4.339,-160.0
0,0,296,5630,1,1340.0,0.0,324.0,1800,0,0,0,0,876.0,4.38,152.72
0,0,301,5680,1,1340.0,0.0,336.0,1628,0,0,0,0,864.0,4.319,-240.0
0,0,306,5730,1,1412.0,0.0,328.0,1800,0,0,0,0,872.0,4.36,160.0
0,0,311,5780,1,1412.0,0.0,332.0,1792,0,0,0,0,868.0,4.339,-80.0
0,0,316,5830,1,1412.0,0.0,328.0,1800,0,0,0,0,872.0,4.36,80.0
0,0,321,5880,1,1412.0,0.0,344.0,1540,0,0,0,0,856.0,4.279,-320.0
0,0,326,5931,1,1412.0,0.0,328.0,1800,0,0,0,0,872.0,4.796,305.4
0,0,331,5981,1,1412.0,0.0,340.0,1624,0,0,0,0,860.0,4.299,-240.0
0,0,336,6031,1,1380.0,0.0,328.0,1800,0,0,0,0,872.0,4.36,240.0
0,0,341,6081,1,1380.0,0.0,332.0,1792,0,0,0,0,868.0,4.339,-80.0
0,0,346,6132,1,1368.0,0.0,336.0,1759,0,0,0,0,864.0,4.319,-109.09
0,0,351,6182,1,1368.0,0.0,336.0,1800,0,0,0,0,864.0,4.319,0.0
0,0,356,6232,1,1336.0,0.0,336.0,1800,0,0,0,0,864.0,4.319,0.0
0,0,361,6282,1,1336.0,0.0,332.0,1800,0,0,0,0,868.0,4.339,80.0
0,0,366,6332,1,1316.0,0.0,328.0,1800,0,0,0,0,872.0,4.36,80.0
0,0,371,6382,1,1316.0,0.0,328.0,1800,0,0,0,0,872.0,4.36,0.0
0,0,376,6432,1,1316.0,0.0,348.0,1456,0,0,0,0,852.0,4.259,-400.0
0,0,381,6483,1,1316.0,0.0,344.0,1800,0,0,0,0,856.0,4.279,50.9
0,0,386,6533,1,1316.0,0.0,340.0,1800,0,0,0,0,860.0,4.299,80.0
0,0,391,6583,1,1316.0,0.0,324.0,1800,0,0,0,0,876.0,4.38,320.0
0,0,396,6634,1,1316.0,0.0,328.0,1800,0,0,0,0,872.0,4.36,-72.72
0,0,401,6684,1,1316.0,0.0,328.0,1800,0,0,0,0,872.0,4.36,0.0
0,0,406,6734,1,1316.0,0.0,332.0,1792,0,0,0,0,868.0,4.339,-80.0
0,0,411,6784,1,1316.0,0.0,348.0,1536,0,0,0,0,852.0,4.259,-320.0
0,0,416,6834,1,1000.0,0.0,336.0,1800,0,0,0,0,864.0,4.319,240.0
0,0,421,6884,1,1000.0,0.0,328.0,1800,0,0,0,0,872.0,4.36,160.0
0,0,426,6934,1,972.0,0.0,324.0,1800,0,0,0,0,876.0,4.38,80.0
0,0,431,6985,1,972.0,0.0,328.0,1800,0,0,0,0,872.0,4.36,-72.72
0,0,436,7035,1,968.0,0.0,332.0,1792,0,0,0,0,868.0,4.339,-80.0
0,0,441,7085,1,968.0,0.0,328.0,1800,0,0,0,0,872.0,4.36,80.0
0,0,446,7136,1,944.0,0.0,324.0,1800,0,0,0,0,876.0,4.38,80.0
0,0,451,7186,1,944.0,0.0,328.0,1796,0,0,0,0,872.0,4.36,-80.0
0,0,456,7236,1,912.0,0.0,328.0,1800,0,0,0,0,872.0,4.36,0.0
0,0,461,7286,1,900.0,0.0,340.0,1624,0,0,0,0,860.0,4.299,-240.0
0,0,466,7336,1,900.0,0.0,332.0,1800,0,0,0,0,868.0,4.339,160.0
0,0,471,7386,1,836.0,0.0,328.0,1800,0,0,0,0,872.0,4.36,80.0
0,0,476,7436,1,836.0,0.0,332.0,1792,0,0,0,0,868.0,4.339,-80.0
0,0,481,7487,1,824.0,0.0,336.0,1788,0,0,0,0,864.0,4.319,-80.0
0,0,486,7537,1,824.0,0.0,336.0,1800,0,0,0,0,864.0,4.319,0.0
0,0,491,7587,1,800.0,0.0,324.0,1800,0,0,0,0,876.0,4.38,240.0
0,0,496,7638,1,800.0,0.0,336.0,1628,0,0,0,0,864.0,4.752,-240.0
0,0,501,7688,1,800.0,0.0,328.0,1800,0,0,0,0,872.0,4.36,160.0
0,0,506,7738,1,800.0,0.0,328.0,1800,0,0,0,0,872.0,4.36,0.0
0,0,511,7788,1,800.0,0.0,324.0,1800,0,0,0,0,876.0,4.38,80.0
0,0,516,7838,1,800.0,0.0,324.0,1800,0,0,0,0,876.0,4.38,0.0
0,0,521,7888,1,1340.0,0.0,324.0,1800,0,0,0,0,876.0,4.38,0.0
0,0,526,7938,1,1340.0,0.0,328.0,1796,0,0,0,0,872.0,4.36,-80.0
0,0,531,7989,1,1340.0,0.0,336.0,1715,0,0,0,0,864.0,4.319,-152.72
0,0,536,8039,1,1340.0,0.0,332.0,1800,0,0,0,0,868.0,4.339,80.0
0,0,541,8089,1,1340.0,0.0,328.0,1800,0,0,0,0,872.0,4.36,80.0
0,0,546,8139,1,1340.0,0.0,340.0,1624,0,0,0,0,860.0,4.299,-240.0
0,0,551,8190,1,372.0,0.0,328.0,1800,0,0,0,0,872.0,4.36,247.2
0,0,556,8240,1,372.0,0.0,332.0,1792,0,0,0,0,868.0,4.339,-80.0
0,0,561,8290,1,372.0,0.0,324.0,1800,0,0,0,0,876.0,4.38,160.0
0,0,566,8340,1,372.0,0.0,328.0,1796,0,0,0,0,872.0,4.36,-80.0
0,0,571,8390,1,372.0,0.0,328.0,1800,0,0,0,0,872.0,4.36,0.0
0,0,576,8440,1,372.0,0.0,324.0,1800,0,0,0,0,876.0,4.38,80.0
0,0,581,8491,1,456.0,0.0,324.0,1800,0,0,0,0,876.0,4.818,0.0
0,0,586,8541,1,456.0,0.0,332.0,1712,0,0,0,0,868.0,4.339,-160.0
0,0,591,8591,1,1312.0,0.0,340.0,1704,0,0,0,0,860.0,4.299,-160.0
0,0,596,8641,1,1312.0,0.0,324.0,1800,0,0,0,0,876.0,4.38,320.0
0,0,601,8692,1,1420.0,0.0,332.0,1712,0,0,0,0,868.0,4.339,-160.0
0,0,606,8742,1,1420.0,0.0,324.0,1800,0,0,0,0,876.0,4.38,160.0
0,0,611,8792,1,1424.0,0.0,328.0,1796,0,0,0,0,872.0,4.36,-80.0
0,0,616,8842,1,1424.0,0.0,332.0,1792,0,0,0,0,868.0,4.339,-80.0
0,0,621,8892,1,1424.0,0.0,328.0,1800,0,0,0,0,872.0,4.36,80.0
0,0,626,8942,1,1424.0,0.0,332.0,1792,0,0,0,0,868.0,4.339,-80.0
0,0,631,8992,1,1452.0,0.0,324.0,1800,0,0,0,0,876.0,4.38,160.0
0,0,636,9043,1,1452.0,0.0,324.0,1800,0,0,0,0,876.0,4.38,0.0
0,0,641,9093,1,1456.0,0.0,324.0,1800,0,0,0,0,876.0,4.38,0.0
0,0,646,9143,1,1456.0,0.0,332.0,1712,0,0,0,0,868.0,4.339,-160.0
0,0,651,9194,1,1456.0,0.0,332.0,1800,0,0,0,0,868.0,4.339,0.0
0,0,656,9244,1,1456.0,0.0,332.0,1800,0,0,0,0,868.0,4.339,0.0
0,0,661,9294,1,1460.0,0.0,332.0,1800,0,0,0,0,868.0,4.339,0.0
0,0,666,9344,1,1460.0,0.0,336.0,1788,0,0,0,0,864.0,4.319,-80.0
0,0,671,9394,1,1460.0,0.0,324.0,1800,0,0,0,0,876.0,4.38,240.0
0,0,676,9444,1,1460.0,0.0,332.0,1712,0,0,0,0,868.0,4.339,-160.0
0,0,681,9494,1,1460.0,0.0,328.0,1800,0,0,0,0,872.0,4.36,80.0
0,0,686,9545,1,1416.0,0.0,332.0,1792,0,0,0,0,868.0,4.339,-80.0
0,0,691,9595,1,1416.0,0.0,328.0,1800,0,0,0,0,872.0,4.36,80.0
0,0,696,9645,1,1416.0,0.0,328.0,1800,0,0,0,0,872.0,4.36,0.0
0,0,701,9696,1,1416.0,0.0,332.0,1792,0,0,0,0,868.0,4.339,-80.0
0,0,706,9746,1,1412.0,0.0,332.0,1800,0,0,0,0,868.0,4.339,0.0
0,0,711,9796,1,1412.0,0.0,328.0,1800,0,0,0,0,872.0,4.36,80.0
0,0,716,9846,1,1400.0,0.0,324.0,1800,0,0,0,0,876.0,4.38,80.0
0,0,721,9896,1,1400.0,0.0,324.0,1800,0,0,0,0,876.0,4.38,0.0
0,0,726,9946,1,1400.0,0.0,324.0,1800,0,0,0,0,876.0,4.38,0.0
0,0,731,9996,1,1400.0,0.0,324.0,1800,0,0,0,0,876.0,4.38,0.0
0,0,736,10047,1,1400.0,0.0,328.0,1796,0,0,0,0,872.0,4.36,-80.0
0,0,741,10097,1,1400.0,0.0,328.0,1800,0,0,0,0,872.0,4.36,0.0
0,0,746,10147,1,1400.0,0.0,324.0,1800,0,0,0,0,876.0,4.38,80.0
0,0,751,10198,1,1400.0,0.0,328.0,1800,0,0,0,0,872.0,4.796,-72.72
0,0,756,10248,1,1400.0,0.0,340.0,1624,0,0,0,0,860.0,4.299,-240.0
0,0,761,10298,1,1400.0,0.0,328.0,1800,0,0,0,0,872.0,4.36,240.0
0,0,766,10348,1,1412.0,0.0,324.0,1800,0,0,0,0,876.0,4.38,80.0
0,0,771,10398,1,1412.0,0.0,320.0,1800,0,0,0,0,880.0,4.4,80.0
0,0,776,10448,1,1412.0,0.0,336.0,1548,0,0,0,0,864.0,4.319,-320.0
0,0,781,10498,1,1412.0,0.0,328.0,1800,0,0,0,0,872.0,4.36,160.0
0,0,786,10549,1,1420.0,0.0,324.0,1800,0,0,0,0,876.0,4.38,80.0
0,0,791,10599,1,1420.0,0.0,328.0,1796,0,0,0,0,872.0,4.36,-80.0
0,0,796,10649,1,1428.0,0.0,324.0,1800,0,0,0,0,876.0,4.38,80.0
0,0,801,10699,1,1428.0,0.0,320.0,1800,0,0,0,0,880.0,4.4,80.0
0,0,806,10750,1,1428.0,0.0,328.0,1723,0,0,0,0,872.0,4.36,-152.72
0,0,811,10800,1,1428.0,0.0,332.0,1792,0,0,0,0,868.0,4.339,-80.0
0,0,816,10850,1,1432.0,0.0,320.0,1800,0,0,0,0,880.0,4.4,240.0
0,0,821,10900,1,1432.0,0.0,328.0,1716,0,0,0,0,872.0,4.36,-160.0
0,0,826,10950,1,1432.0,0.0,324.0,1800,0,0,0,0,876.0,4.38,80.0
0,0,831,11000,1,1432.0,0.0,328.0,1796,0,0,0,0,872.0,4.36,-80.0
0,0,836,11051,1,1432.0,0.0,328.0,1800,0,0,0,0,872.0,4.796,0.0
0,0,841,11101,1,1432.0,0.0,324.0,1800,0,0,0,0,876.0,4.38,80.0
0,0,846,11151,1,1424.0,0.0,324.0,1800,0,0,0,0,876.0,4.38,0.0
0,0,851,11201,1,1424.0,0.0,328.0,1796,0,0,0,0,872.0,4.36,-80.0
0,0,856,11252,1,804.0,0.0,336.0,1722,0,0,0,0,864.0,4.319,-145.45
0,0,861,11302,1,804.0,0.0,328.0,1800,0,0,0,0,872.0,4.36,160.0
0,0,866,11352,1,804.0,0.0,324.0,1800,0,0,0,0,876.0,4.38,80.0
0,0,871,11402,1,804.0,0.0,316.0,1800,0,0,0,0,884.0,4.42,160.0
0,0,876,11452,1,804.0,0.0,332.0,1552,0,0,0,0,868.0,4.339,-320.0
0,0,881,11502,1,1364.0,0.0,328.0,1800,0,0,0,0,872.0,4.36,80.0
0,0,886,11552,1,1364.0,0.0,324.0,1800,0,0,0,0,876.0,4.38,80.0
0,0,891,11603,1,1364.0,0.0,328.0,1796,0,0,0,0,872.0,4.36,-80.0
0,0,896,11653,1,1364.0,0.0,332.0,1792,0,0,0,0,868.0,4.339,-80.0
0,0,901,11703,1,1364.0,0.0,328.0,1800,0,0,0,0,872.0,4.36,80.0
0,0,906,11754,1,1364.0,0.0,328.0,1800,0,0,0,0,872.0,4.36,0.0
0,0,911,11804,1,1364.0,0.0,324.0,1800,0,0,0,0,876.0,4.38,80.0
0,0,916,11854,1,1364.0,0.0,324.0,1800,0,0,0,0,876.0,4.38,0.0
0,0,921,11904,1,1028.0,0.0,328.0,1796,0,0,0,0,872.0,4.36,-80.0
0,0,926,11954,1,1028.0,0.0,320.0,1800,0,0,0,0,880.0,4.4,160.0
0,0,931,12004,1,852.0,0.0,320.0,1800,0,0,0,0,880.0,4.4,0.0
0,0,936,12054,1,852.0,0.0,320.0,1800,0,0,0,0,880.0,4.4,0.0
0,0,941,12105,1,852.0,0.0,316.0,1800,0,0,0,0,884.0,4.42,80.0
0,0,946,12155,1,852.0,0.0,316.0,1800,0,0,0,0,884.0,4.42,0.0
0,0,951,12205,1,824.0,0.0,320.0,1800,0,0,0,0,880.0,4.4,-80.0
0,0,956,12256,1,824.0,0.0,328.0,1709,0,0,0,0,872.0,4.36,-167.2
0,0,961,12306,1,804.0,0.0,324.0,1800,0,0,0,0,876.0,4.38,80.0
0,0,966,12356,1,804.0,0.0,324.0,1800,0,0,0,0,876.0,4.38,0.0
0,0,971,12406,1,784.0,0.0,324.0,1800,0,0,0,0,876.0,4.38,0.0
0,0,976,12456,1,784.0,0.0,320.0,1800,0,0,0,0,880.0,4.4,80.0
0,0,981,12506,1,776.0,0.0,332.0,1632,0,0,0,0,868.0,4.339,-240.0
0,0,986,12556,1,776.0,0.0,344.0,1620,0,0,0,0,856.0,4.279,-240.0
0,0,991,12607,1,764.0,0.0,360.0,1531,0,0,0,0,840.0,4.2,-312.7
0,0,996,12657,1,764.0,0.0,380.0,1424,0,0,0,0,820.0,4.1,-400.0
0,0,1001,12707,1,576.0,0.0,392.0,1572,0,0,0,0,808.0,4.04,-240.0
0,0,1006,12758,1,576.0,0.0,400.0,1651,0,0,0,0,800.0,4.4,-152.72
0,0,1011,12808,1,576.0,0.0,432.0,1131,0,0,0,0,768.0,3.84,-640.0
0,0,1016,12858,1,576.0,0.0,444.0,1519,0,0,0,0,756.0,3.78,-240.0
0,0,1021,12908,1,576.0,0.0,468.0,1255,0,0,0,0,732.0,3.659,-480.0
0,0,1026,12958,1,576.0,0.0,512.0,1000,0,0,0,0,688.0,3.439,-880.0
0,0,1031,13008,1,684.0,0.0,532.0,1271,0,0,0,0,668.0,3.34,-400.0
0,0,1036,13058,1,684.0,0.0,552.0,1251,0,0,0,0,648.0,3.24,-400.0
0,0,1041,13109,1,688.0,0.0,588.0,1000,0,0,0,0,612.0,3.06,-690.9
0,0,1046,13159,1,688.0,0.0,612.0,1110,0,0,0,0,588.0,2.939,-480.0
0,0,1051,13209,1,688.0,0.0,632.0,1170,0,0,0,0,568.0,2.84,-400.0
0,0,1056,13259,1,688.0,0.0,640.0,1402,0,0,0,0,560.0,2.8,-160.0
0,0,1061,13310,1,684.0,0.0,660.0,1164,0,0,0,0,540.0,2.7,-378.1
0,0,1066,13360,1,684.0,0.0,684.0,1038,0,0,0,0,516.0,2.58,-480.0
0,0,1071,13410,1,680.0,0.0,712.0,1000,0,0,0,0,488.0,2.44,-560.0
0,0,1076,13460,1,680.0,0.0,732.0,1070,0,0,0,0,468.0,2.34,-400.0
0,0,1081,13510,1,680.0,0.0,744.0,1218,0,0,0,0,456.0,2.28,-240.0
0,0,1086,13560,1,680.0,0.0,748.0,1374,0,0,0,0,452.0,2.26,-80.0
0,0,1091,13611,1,680.0,0.0,748.0,1454,0,0,0,0,452.0,2.486,0.0
0,0,1096,13661,1,680.0,0.0,768.0,1034,0,0,0,0,432.0,2.159,-400.0
0,0,1101,13711,1,680.0,0.0,768.0,1434,0,0,0,0,432.0,2.159,0.0
0,0,1106,13761,1,680.0,0.0,776.0,1266,0,0,0,0,424.0,2.12,-160.0
0,0,1111,13812,1,680.0,0.0,824.0,1000,0,0,0,0,376.0,1.88,-930.9
0,0,1116,13862,1,820.0,0.0,800.0,1800,0,0,0,0,400.0,2.0,480.0
0,0,1121,13912,1,820.0,0.0,836.0,1000,0,0,0,0,364.0,1.819,-720.0
0,0,1126,13962,1,672.0,0.0,840.0,1281,0,0,0,0,360.0,1.8,-80.0
0,0,1131,14012,1,672.0,0.0,816.0,1800,0,0,0,0,384.0,1.92,480.0
0,0,1136,14062,1,668.0,0.0,816.0,1385,0,0,0,0,384.0,1.92,0.0
0,0,1141,14112,1,668.0,0.0,840.0,1000,0,0,0,0,360.0,1.8,-480.0
0,0,1146,14163,1,660.0,0.0,820.0,1781,0,0,0,0,380.0,1.9,400.0
0,0,1151,14213,1,660.0,0.0,864.0,1000,0,0,0,0,336.0,1.68,-880.0
0,0,1156,14263,1,660.0,0.0,876.0,1085,0,0,0,0,324.0,1.62,-240.0
0,0,1161,14314,1,660.0,0.0,880.0,1241,0,0,0,0,320.0,1.5999,-80.0
0,0,1166,14364,1,396.0,0.0,872.0,1489,0,0,0,0,328.0,1.64,160.0
0,0,1171,14414,1,396.0,0.0,884.0,1077,0,0,0,0,316.0,1.5799,-240.0
0,0,1176,14464,1,396.0,0.0,892.0,1149,0,0,0,0,308.0,1.54,-160.0
0,0,1181,14514,1,396.0,0.0,904.0,1057,0,0,0,0,296.0,1.48,-240.0
0,0,1186,14564,1,396.0,0.0,904.0,1297,0,0,0,0,296.0,1.48,0.0
0,0,1191,14614,1,396.0,0.0,908.0,1213,0,0,0,0,292.0,1.4599,-80.0
0,0,1196,14665,1,396.0,0.0,904.0,1392,0,0,0,0,296.0,1.48,94.54
0,0,1201,14715,1,396.0,0.0,924.0,1000,0,0,0,0,276.0,1.38,-400.0
0,0,1206,14765,1,396.0,0.0,932.0,1109,0,0,0,0,268.0,1.3399,-160.0
0,0,1211,14816,1,396.0,0.0,944.0,1031,0,0,0,0,256.0,1.28,-225.4
0,0,1216,14866,1,356.0,0.0,944.0,1257,0,0,0,0,256.0,1.28,0.0
0,0,1221,14916,1,356.0,0.0,964.0,1000,0,0,0,0,236.0,1.1799,-400.0
0,0,1226,14966,1,356.0,0.0,960.0,1321,0,0,0,0,240.0,1.1999,80.0
0,0,1231,15016,1,356.0,0.0,964.0,1157,0,0,0,0,236.0,1.1799,-80.0
0,0,1236,15066,1,356.0,0.0,968.0,1153,0,0,0,0,232.0,1.16,-80.0
0,0,1241,15116,1,356.0,0.0,964.0,1317,0,0,0,0,236.0,1.1799,80.0
0,0,1246,15167,1,444.0,0.0,976.0,1000,0,0,0,0,224.0,1.12,-240.0
0,0,1251,15217,1,444.0,0.0,976.0,1225,0,0,0,0,224.0,1.12,0.0
0,0,1256,15267,1,508.0,0.0,976.0,1225,0,0,0,0,224.0,1.12,0.0
0,0,1261,15318,1,508.0,0.0,976.0,1225,0,0,0,0,224.0,1.232,0.0
0,0,1266,15368,1,528.0,0.0,980.0,1141,0,0,0,0,220.0,1.1,-80.0
0,0,1271,15418,1,528.0,0.0,980.0,1221,0,0,0,0,220.0,1.1,0.0
0,0,1276,15468,1,736.0,0.0,976.0,1305,0,0,0,0,224.0,1.12,80.0
0,0,1281,15518,1,736.0,0.0,984.0,1057,0,0,0,0,216.0,1.0799,-160.0
0,0,1286,15568,1,744.0,0.0,1004.0,1000,0,0,0,0,196.0,0.98,-400.0
0,0,1291,15618,1,744.0,0.0,1008.0,1112,0,0,0,0,192.0,0.96,-80.0
0,0,1296,15669,1,760.0,0.0,988.0,1613,0,0,0,0,212.0,1.0599,400.0
0,0,1301,15719,1,760.0,0.0,988.0,1213,0,0,0,0,212.0,1.0599,0.0
0,0,1306,15769,1,760.0,0.0,980.0,1381,0,0,0,0,220.0,1.1,160.0
0,0,1311,15819,1,760.0,0.0,992.0,1000,0,0,0,0,208.0,1.04,-240.0
0,0,1316,15870,1,760.0,0.0,984.0,1369,0,0,0,0,216.0,1.0799,152.72
0,0,1321,15920,1,760.0,0.0,980.0,1301,0,0,0,0,220.0,1.1,80.0
0,0,1326,15970,1,760.0,0.0,984.0,1137,0,0,0,0,216.0,1.0799,-80.0
0,0,1331,16020,1,780.0,0.0,968.0,1553,0,0,0,0,232.0,1.16,320.0
0,0,1336,16070,1,780.0,0.0,988.0,1000,0,0,0,0,212.0,1.0599,-400.0
0,0,1341,16120,1,756.0,0.0,992.0,1129,0,0,0,0,208.0,1.04,-80.0
0,0,1346,16171,1,756.0,0.0,980.0,1461,0,0,0,0,220.0,1.21,240.0
0,0,1351,16221,1,748.0,0.0,964.0,1557,0,0,0,0,236.0,1.1799,320.0
0,0,1356,16271,1,748.0,0.0,972.0,1069,0,0,0,0,228.0,1.14,-160.0
0,0,1361,16321,1,748.0,0.0,936.0,1800,0,0,0,0,264.0,1.3199,720.0
0,0,1366,16372,1,748.0,0.0,944.0,1097,0,0,0,0,256.0,1.28,-160.0
0,0,1371,16422,1,748.0,0.0,944.0,1257,0,0,0,0,256.0,1.28,0.0
0,0,1376,16472,1,748.0,0.0,932.0,1509,0,0,0,0,268.0,1.3399,240.0
0,0,1381,16522,1,712.0,0.0,932.0,1269,0,0,0,0,268.0,1.3399,0.0
0,0,1386,16572,1,712.0,0.0,928.0,1353,0,0,0,0,272.0,1.36,80.0
0,0,1391,16622,1,712.0,0.0,920.0,1441,0,0,0,0,280.0,1.4,160.0
0,0,1396,16672,1,712.0,0.0,904.0,1617,0,0,0,0,296.0,1.48,320.0
0,0,1401,16723,1,712.0,0.0,892.0,1549,0,0,0,0,308.0,1.54,240.0
0,0,1406,16773,1,712.0,0.0,884.0,1477,0,0,0,0,316.0,1.5799,160.0
0,0,1411,16823,1,712.0,0.0,876.0,1485,0,0,0,0,324.0,1.62,160.0
0,0,1416,16874,1,712.0,0.0,868.0,1493,0,0,0,0,332.0,1.66,160.0
0,0,1421,16924,1,712.0,0.0,852.0,1669,0,0,0,0,348.0,1.74,320.0
0,0,1426,16974,1,712.0,0.0,840.0,1601,0,0,0,0,360.0,1.8,240.0
0,0,1431,17024,1,844.0,0.0,832.0,1529,0,0,0,0,368.0,1.839,160.0
0,0,1436,17074,1,844.0,0.0,824.0,1537,0,0,0,0,376.0,1.88,160.0
0,0,1441,17124,1,844.0,0.0,796.0,1800,0,0,0,0,404.0,2.02,560.0
0,0,1446,17174,1,844.0,0.0,760.0,1800,0,0,0,0,440.0,2.2,720.0
0,0,1451,17225,1,844.0,0.0,736.0,1800,0,0,0,0,464.0,2.32,472.7
0,0,1456,17275,1,844.0,0.0,732.0,1550,0,0,0,0,468.0,2.34,80.0
0,0,1461,17325,1,844.0,0.0,716.0,1800,0,0,0,0,484.0,2.419,320.0
0,0,1466,17376,1,844.0,0.0,680.0,1800,0,0,0,0,520.0,2.6,676.3
0,0,1471,17426,0,844.0,0.0,664.0,1800,0,0,0,0,536.0,5.359,320.0
0,0,1476,17476,0,844.0,0.0,656.0,1722,0,0,0,0,544.0,18.83,160.0
0,0,1481,17526,0,844.0,0.0,632.0,1800,0,0,0,0,568.0,32.65,480.0
0,0,1486,17576,0,844.0,0.0,596.0,1800,0,0,0,0,604.0,47.51,720.0
0,0,1491,17626,0,848.0,0.0,564.0,1800,0,0,0,0,636.0,63.13,640.0
0,0,1496,17676,0,848.0,0.0,552.0,1800,0,0,0,0,648.0,79.15,240.0
0,0,1501,17727,0,848.0,0.0,532.0,1800,0,0,0,0,668.0,95.94,2038.4
0,0,1506,17777,0,848.0,0.0,548.0,1444,0,0,0,0,652.0,112.42,-320.0
0,0,1511,17827,0,856.0,0.0,564.0,1444,0,0,0,0,636.0,128.5,-320.0
0,0,1516,17878,0,856.0,0.0,592.0,1214,0,0,0,0,608.0,144.37,-538.1
0,0,1521,17928,0,856.0,0.0,616.0,1263,0,0,0,0,584.0,159.11,-480.0
0,0,1526,17978,0,856.0,0.0,628.0,1505,0,0,0,0,572.0,173.4,-240.0
0,0,1531,18028,0,856.0,0.0,612.0,1800,0,0,0,0,588.0,187.6,320.0
0,0,1536,18078,0,808.0,0.0,636.0,1286,0,0,0,0,564.0,202.0,-480.0
0,0,1541,18128,0,808.0,0.0,608.0,1800,0,0,0,0,592.0,216.6,560.0
0,0,1546,18178,0,808.0,0.0,600.0,1800,0,0,0,0,600.0,231.5,160.0
0,0,1551,18229,0,808.0,0.0,588.0,1800,0,0,0,0,612.0,247.0,225.4
0,0,1556,18279,0,808.0,0.0,588.0,1800,0,0,0,0,612.0,262.3,0.0
0,0,1561,18329,0,808.0,0.0,580.0,1800,0,0,0,0,620.0,277.8,160.0
0,0,1566,18379,0,816.0,0.0,588.0,1745,0,0,0,0,612.0,293.3,-160.0
0,0,1571,18430,0,816.0,0.0,604.0,1584,0,0,0,0,596.0,308.6,-320.0
0,0,1576,18480,0,828.0,0.0,632.0,1330,0,0,0,0,568.0,322.9,-560.0
0,0,1581,18530,0,828.0,0.0,664.0,1232,0,0,0,0,536.0,336.6,-640.0
0,0,1586,18580,0,832.0,0.0,704.0,1045,0,0,0,0,496.0,349.4,-800.0
0,0,1591,18630,0,832.0,0.0,732.0,1269,0,0,0,0,468.0,361.4,-560.0
0,0,1596,18680,0,832.0,0.0,748.0,1504,0,0,0,0,452.0,372.8,-320.0
0,0,1601,18731,0,832.0,0.0,768.0,1415,0,0,0,0,432.0,383.9,-400.0
0,0,1606,18781,0,816.0,0.0,760.0,1800,0,0,0,0,440.0,394.9,160.0
0,0,1611,18831,0,816.0,0.0,736.0,1800,0,0,0,0,464.0,406.2,480.0
0,0,1616,18881,0,716.0,0.0,728.0,1800,0,0,0,0,472.0,417.9,160.0
0,0,1621,18932,0,716.0,0.0,700.0,1800,0,0,0,0,500.0,430.4,538.1
0,0,1626,18982,0,708.0,0.0,672.0,1800,0,0,0,0,528.0,443.3,560.0
0,0,1631,19032,0,708.0,0.0,680.0,1800,0,0,0,0,520.0,456.3,-160.0
0,0,1636,19082,0,708.0,0.0,672.0,1800,0,0,0,0,528.0,469.5,160.0
0,0,1641,19132,0,708.0,0.0,680.0,1800,0,0,0,0,520.0,482.6,-160.0
0,0,1646,19182,0,716.0,0.0,684.0,1800,0,0,0,0,516.0,495.5,-80.0
0,0,1651,19232,0,716.0,0.0,708.0,1520,0,0,0,0,492.0,508.0,-480.0
0,0,1656,19283,0,708.0,0.0,752.0,1124,0,0,0,0,448.0,519.7,-843.6
0,0,1661,19333,0,708.0,0.0,780.0,1390,0,0,0,0,420.0,530.6,-560.0
0,0,1666,19383,0,708.0,0.0,828.0,1000,0,0,0,0,372.0,540.4,-960.0
0,0,1671,19434,0,708.0,0.0,880.0,1000,0,0,0,0,320.0,548.9,-996.3
0,0,1676,19484,0,516.0,0.0,888.0,1708,0,0,0,0,312.0,556.7,-160.0
0,0,1681,19534,1,516.0,0.0,912.0,1000,0,0,0,0,288.0,1.4399,-480.0
0,0,1686,19584,1,512.0,0.0,912.0,1289,0,0,0,0,288.0,1.4399,0.0
0,0,1691,19634,1,512.0,0.0,908.0,1373,0,0,0,0,292.0,1.4599,80.0
0,0,1696,19684,1,512.0,0.0,888.0,1713,0,0,0,0,312.0,1.5599,400.0
0,0,1701,19734,1,512.0,0.0,848.0,1800,0,0,0,0,352.0,1.76,800.0
0,0,1706,19785,1,492.0,0.0,820.0,1800,0,0,0,0,380.0,1.9,552.7
0,0,1711,19835,1,492.0,0.0,796.0,1800,0,0,0,0,404.0,2.02,480.0
0,0,1716,19885,1,500.0,0.0,776.0,1800,0,0,0,0,424.0,2.12,400.0
0,0,1721,19936,1,500.0,0.0,748.0,1800,0,0,0,0,452.0,2.26,560.0
0,0,1726,19986,1,500.0,0.0,736.0,1706,0,0,0,0,464.0,2.32,240.0
0,0,1731,20036,1,448.0,0.0,720.0,1800,0,0,0,0,480.0,2.399,320.0
0,0,1736,20086,1,448.0,0.0,704.0,1800,0,0,0,0,496.0,2.48,320.0
0,0,1741,20136,1,448.0,0.0,692.0,1750,0,0,0,0,508.0,2.54,240.0
0,0,1746,20186,1,448.0,0.0,736.0,1000,0,0,0,0,464.0,2.32,-880.0
0,0,1751,20236,1,452.0,0.0,764.0,1000,0,0,0,0,436.0,2.18,-560.0
0,0,1756,20287,1,452.0,0.0,796.0,1000,0,0,0,0,404.0,2.02,-632.7
0,0,1761,20337,1,452.0,0.0,848.0,1000,0,0,0,0,352.0,1.76,-1040.0
0,0,1766,20387,1,452.0,0.0,892.0,1000,0,0,0,0,308.0,1.54,-880.0
0,0,1771,20438,1,480.0,0.0,976.0,1000,0,0,0,0,224.0,1.232,-1650.0
0,0,1776,20488,1,480.0,0.0,1028.0,1000,0,0,0,0,172.0,0.86,-1040.0
0,0,1781,20538,1,480.0,0.0,1128.0,1000,0,0,0,0,72.0,0.3599,-2000.0
0,0,1786,20588,1,480.0,0.0,1212.0,1000,0,0,0,0,-12.0,-0.06,-1680.0
0,0,1791,20638,1,504.0,0.0,1328.0,1000,0,0,0,0,-128.0,-0.64,-2320.0
0,0,1796,20688,1,504.0,0.0,1392.0,1000,0,0,0,0,-192.0,-0.96,-1280.0
0,0,1801,20738,1,480.0,0.0,732.0,1800,0,0,0,0,468.0,2.34,13200.0
0,0,21226,0,0,-3169.1,3821900.0,-51200.0,0,0,0,0,0,20.34,-57400.0,0.0
0,0,1811,20839,1,480.0,0.0,580.0,1800,0,0,0,0,620.0,3.1,3280.0
0,0,1816,20889,1,480.0,0.0,428.0,1800,0,0,0,0,772.0,38.94,-14343.0
0,0,1821,20939,1,488.0,0.0,432.0,1691,0,0,0,0,768.0,3.84,-80.0
0,0,1826,20990,1,488.0,0.0,472.0,1000,0,0,0,0,728.0,3.639,-800.0
0,0,1831,21040,1,508.0,0.0,468.0,1800,0,0,0,0,732.0,3.659,80.0
0,0,1836,21090,1,508.0,0.0,424.0,1800,0,0,0,0,776.0,3.879,880.0
0,0,1841,21140,1,524.0,0.0,404.0,1800,0,0,0,0,796.0,3.98,400.0
0,0,1846,21190,1,524.0,0.0,372.0,1800,21354,0,0,0,0.0,200.0,-5.64
0,0,1851,21240,1,524.0,0.0,376.0,1748,0,0,0,0,824.0,4.12,-80.0
0,0,1856,21291,1,524.0,0.0,348.0,1800,0,0,0,0,852.0,4.686,560.0
0,0,1861,21341,1,524.0,0.0,356.0,1688,0,0,0,0,844.0,4.22,-160.0
0,0,1866,21391,1,524.0,0.0,528.0,1000,0,0,0,0,672.0,3.36,-3440.0
0,0,1871,21441,1,452.0,0.0,1036.0,1000,0,0,0,0,164.0,0.82,-10160.0
0,0,1876,21492,1,452.0,0.0,1620.0,1000,0,0,0,0,-420.0,-2.1,-11381.0
0,0,1881,21542,1,436.0,0.0,1784.0,1000,0,0,0,0,-584.0,-2.919,-3280.0
0,0,1886,21592,1,436.0,0.0,1664.0,1800,0,0,0,0,-464.0,-2.32,2400.0
0,0,1891,21642,1,436.0,0.0,1620.0,1457,0,0,0,0,-420.0,-2.1,880.0
0,0,1896,21692,1,436.0,0.0,1000.0,1800,0,0,0,0,200.0,1.0,12400.0
0,0,1901,21742,1,416.0,0.0,420.0,1800,0,0,0,0,780.0,3.899,11600.0
0,0,1906,21792,1,416.0,0.0,324.0,1800,0,0,0,0,876.0,4.38,1920.0
0,0,1911,21843,1,416.0,0.0,420.0,1000,0,0,0,0,780.0,3.899,-1818.0
0,0,1916,21893,1,416.0,0.0,388.0,1800,0,0,0,0,812.0,4.06,640.0
0,0,1921,21943,1,400.0,0.0,404.0,1479,0,0,0,0,796.0,3.98,-320.0
0,0,1926,21994,1,336.0,0.0,408.0,1715,0,0,0,0,792.0,3.959,-80.0
0,0,1931,22044,1,336.0,0.0,516.0,1000,0,0,0,0,684.0,3.419,-2160.0
0,0,1936,22094,1,336.0,0.0,572.0,1000,0,0,0,0,628.0,3.139,-1120.0
0,0,1941,22144,1,336.0,0.0,452.0,1800,0,0,0,0,748.0,3.74,2400.0
0,0,1946,22194,1,336.0,0.0,380.0,1800,0,0,0,0,820.0,4.1,1440.0
0,0,1951,22244,1,336.0,0.0,280.0,1800,0,0,0,0,920.0,4.6,2000.0
0,0,1956,22294,1,1732.0,0.0,320.0,1084,0,0,0,0,880.0,4.4,-800.0
0,0,1961,22345,1,1732.0,0.0,320.0,1800,0,0,0,0,880.0,4.4,0.0
0,0,1966,22395,1,1732.0,0.0,380.0,1000,0,0,0,0,820.0,4.1,-1200.0
0,0,1971,22445,1,1732.0,0.0,432.0,1000,0,0,0,0,768.0,3.84,-1040.0
0,0,1976,22496,1,1732.0,0.0,496.0,1000,0,0,0,0,704.0,3.52,-1280.0
0,0,1981,22546,1,1732.0,0.0,368.0,1800,0,0,0,0,832.0,4.16,2560.0
0,0,1986,22596,1,1704.0,0.0,392.0,1332,0,0,0,0,808.0,4.04,-480.0
0,0,1991,22646,1,1704.0,0.0,400.0,1644,0,0,0,0,800.0,4.0,-160.0
0,0,1996,22696,1,1700.0,0.0,416.0,1467,0,0,0,0,784.0,3.919,-320.0
0,0,2001,22746,1,1700.0,0.0,496.0,1000,0,0,0,0,704.0,3.52,-1600.0
0,0,2006,22796,1,1700.0,0.0,492.0,1791,0,0,0,0,708.0,3.54,80.0
0,0,2011,22847,1,1700.0,0.0,732.0,1000,0,0,0,0,468.0,2.34,-4800.0
0,0,2016,22897,1,1584.0,0.0,700.0,1800,0,0,0,0,500.0,2.5,640.0
0,0,2021,22947,1,1584.0,0.0,436.0,1800,0,0,0,0,764.0,3.82,5280.0
0,0,2026,22998,1,1500.0,0.0,304.0,1800,0,0,0,0,896.0,4.928,2530.0
0,0,2031,23048,1,1500.0,0.0,268.0,1800,0,0,0,0,932.0,4.66,720.0
0,0,2036,23098,1,1480.0,0.0,264.0,1800,0,0,0,0,936.0,4.68,80.0
0,0,2041,23148,1,1480.0,0.0,256.0,1800,0,0,0,0,944.0,4.72,160.0
0,0,2046,23198,1,1344.0,0.0,352.0,1000,0,0,0,0,848.0,4.24,-1920.0
0,0,2051,23248,1,1344.0,0.0,364.0,1600,0,0,0,0,836.0,4.18,-240.0
0,0,2056,23298,1,1344.0,0.0,328.0,1800,0,0,0,0,872.0,4.36,720.0
0,0,2061,23349,1,1344.0,0.0,284.0,1800,0,0,0,0,916.0,4.58,880.0
0,0,2066,23399,1,1344.0,0.0,344.0,1000,0,0,0,0,856.0,4.279,-1200.0
0,0,2071,23449,1,1344.0,0.0,292.0,1800,0,0,0,0,908.0,4.54,1040.0
0,0,2076,23499,1,1348.0,0.0,268.0,1800,0,0,0,0,932.0,4.66,480.0
0,0,2081,23550,1,1348.0,0.0,320.0,1000,0,0,0,0,880.0,4.4,-974.5
0,0,2086,23600,1,1464.0,0.0,344.0,1380,0,0,0,0,856.0,4.279,-480.0
0,0,2091,23650,1,1464.0,0.0,316.0,1800,0,0,0,0,884.0,4.42,560.0
0,0,2096,23700,1,1464.0,0.0,300.0,1800,0,0,0,0,900.0,4.5,320.0
0,0,2101,23750,1,1464.0,0.0,316.0,1568,0,0,0,0,884.0,4.42,-320.0
0,0,2106,23800,1,1480.0,0.0,308.0,1800,0,0,0,0,892.0,4.46,160.0
0,0,2111,23851,1,1480.0,0.0,324.0,1560,0,0,0,0,876.0,4.818,-320.0
0,0,2116,23901,1,1480.0,0.0,340.0,1544,0,0,0,0,860.0,4.299,-320.0
0,0,2121,23951,1,1480.0,0.0,316.0,1800,0,0,0,0,884.0,4.42,480.0
0,0,2126,24001,1,1480.0,0.0,324.0,1720,0,0,0,0,876.0,4.38,-160.0
0,0,2131,24052,1,1372.0,0.0,336.0,1635,0,0,0,0,864.0,4.319,-232.7
0,0,2136,24102,1,1372.0,0.0,328.0,1800,0,0,0,0,872.0,4.36,160.0
0,0,2141,24152,1,796.0,0.0,332.0,1792,0,0,0,0,868.0,4.339,-80.0
0,0,2146,24202,1,796.0,0.0,340.0,1704,0,0,0,0,860.0,4.299,-160.0
0,0,2151,24252,1,792.0,0.0,340.0,1800,0,0,0,0,860.0,4.299,0.0
0,0,2156,24302,1,792.0,0.0,340.0,1800,0,0,0,0,860.0,4.299,0.0
0,0,2161,24352,1,736.0,0.0,336.0,1800,0,0,0,0,864.0,4.319,80.0
0,0,2166,24403,1,736.0,0.0,344.0,1707,0,0,0,0,856.0,4.279,-152.72
0,0,2171,24453,0,736.0,0.0,316.0,1800,0,0,0,0,884.0,13.24,560.0
0,0,2176,24503,1,736.0,0.0,312.0,1800,0,0,0,0,888.0,4.44,80.0
0,0,2181,24554,1,736.0,0.0,336.0,1388,0,0,0,0,864.0,4.319,-480.0
0,0,2186,24604,1,736.0,0.0,324.0,1800,0,0,0,0,876.0,4.38,240.0
0,0,2191,24654,1,732.0,0.0,332.0,1712,0,0,0,0,868.0,4.339,-160.0
0,0,2196,24704,1,732.0,0.0,324.0,1800,0,0,0,0,876.0,4.38,160.0
0,0,2201,24754,1,732.0,0.0,336.0,1628,0,0,0,0,864.0,4.319,-240.0
0,0,2206,24804,1,732.0,0.0,320.0,1800,0,0,0,0,880.0,4.4,320.0
0,0,2211,24854,1,776.0,0.0,300.0,1800,0,0,0,0,900.0,4.5,400.0
0,0,2216,24905,1,776.0,0.0,284.0,1800,0,0,0,0,916.0,4.58,320.0
0,0,2221,24955,1,1364.0,0.0,284.0,1800,0,0,0,0,916.0,4.58,0.0
0,0,2226,25005,1,1364.0,0.0,284.0,1800,0,0,0,0,916.0,4.58,0.0
0,0,2231,25056,1,1364.0,0.0,304.0,1500,0,0,0,0,896.0,4.48,-400.0
0,0,2236,25106,1,1364.0,0.0,304.0,1800,0,0,0,0,896.0,4.48,0.0
0,0,2241,25156,1,1364.0,0.0,296.0,1800,0,0,0,0,904.0,4.52,160.0
0,0,2246,25206,1,1364.0,0.0,320.0,1404,0,0,0,0,880.0,4.4,-480.0
0,0,2251,25256,1,1352.0,0.0,392.0,1000,0,0,0,0,808.0,4.04,-1440.0
0,0,2256,25306,1,1352.0,0.0,388.0,1800,0,0,0,0,812.0,4.06,80.0
0,0,2261,25356,1,1352.0,0.0,368.0,1800,0,0,0,0,832.0,4.16,400.0
0,0,2266,25407,1,1352.0,0.0,352.0,1800,0,0,0,0,848.0,4.24,320.0
0,0,2271,25457,1,1352.0,0.0,336.0,1800,0,0,0,0,864.0,4.319,320.0
0,0,2276,25507,1,1352.0,0.0,312.0,1800,0,0,0,0,888.0,4.44,480.0
0,0,2281,25558,1,1376.0,0.0,356.0,1000,0,0,0,0,844.0,4.642,-865.4
0,0,2286,25608,1,1376.0,0.0,444.0,1000,0,0,0,0,756.0,3.78,-1760.0
0,0,2291,25658,1,1380.0,0.0,536.0,1000,0,0,0,0,664.0,3.32,-1840.0
0,0,2296,25708,1,1380.0,0.0,552.0,1331,0,0,0,0,648.0,3.24,-320.0
0,0,2301,25758,1,1396.0,0.0,360.0,1800,0,0,0,0,840.0,4.2,3840.0
0,0,2306,25808,1,1396.0,0.0,308.0,1800,0,0,0,0,892.0,4.46,1040.0
0,0,2311,25858,1,1400.0,0.0,352.0,1000,0,0,0,0,848.0,4.24,-880.0
0,0,2316,25909,1,1400.0,0.0,364.0,1621,0,0,0,0,836.0,4.18,-218.1
0,0,2321,25959,1,1488.0,0.0,320.0,1800,0,0,0,0,880.0,4.4,880.0
0,0,2326,26009,1,1488.0,0.0,304.0,1800,0,0,0,0,896.0,4.48,320.0
0,0,2331,26059,1,1520.0,0.0,304.0,1800,0,0,0,0,896.0,4.48,0.0
0,0,2336,26110,1,1520.0,0.0,264.0,1800,0,0,0,0,936.0,4.68,800.0
0,0,2341,26160,1,1520.0,0.0,292.0,1352,0,0,0,0,908.0,4.54,-560.0
0,0,2346,26210,1,1520.0,0.0,304.0,1660,0,0,0,0,896.0,4.48,-240.0
0,0,2351,26260,1,1520.0,0.0,324.0,1480,0,0,0,0,876.0,4.38,-400.0
0,0,2356,26310,1,1092.0,0.0,340.0,1544,0,0,0,0,860.0,4.299,-320.0
0,0,2361,26360,1,1092.0,0.0,336.0,1800,0,0,0,0,864.0,4.319,80.0
0,0,2366,26411,1,1092.0,0.0,340.0,1792,0,0,0,0,860.0,4.73,-72.72
0,0,2371,26461,1,1092.0,0.0,316.0,1800,0,0,0,0,884.0,4.42,480.0
0,0,2376,26511,1,1060.0,0.0,300.0,1800,0,0,0,0,900.0,4.5,320.0
0,0,2381,26561,1,1060.0,0.0,316.0,1568,0,0,0,0,884.0,4.42,-320.0
0,0,2386,26612,1,1060.0,0.0,332.0,1566,0,0,0,0,868.0,4.339,-305.4
0,0,2391,26662,1,1060.0,0.0,332.0,1800,0,0,0,0,868.0,4.339,0.0
0,0,2396,26712,1,1040.0,0.0,332.0,1800,0,0,0,0,868.0,4.339,0.0
0,0,2401,26762,1,1040.0,0.0,328.0,1800,0,0,0,0,872.0,4.36,80.0
0,0,2406,26812,1,1020.0,0.0,332.0,1792,0,0,0,0,868.0,4.339,-80.0
0,0,2411,26862,1,1020.0,0.0,316.0,1800,0,0,0,0,884.0,4.42,320.0
0,0,2416,26912,1,888.0,0.0,320.0,1800,0,0,0,0,880.0,4.4,-80.0
0,0,2421,26963,1,888.0,0.0,304.0,1800,0,0,0,0,896.0,4.48,320.0
0,0,2426,27013,1,888.0,0.0,220.0,1800,0,0,0,0,980.0,4.9,1680.0
0,0,2431,27063,1,888.0,0.0,236.0,1648,0,0,0,0,964.0,4.819,-320.0
0,0,2436,27114,1,888.0,0.0,212.0,1800,0,0,0,0,988.0,4.94,472.7
0,0,2441,27164,1,888.0,0.0,224.0,1740,0,0,0,0,976.0,4.88,-240.0
0,0,2446,27214,1,888.0,0.0,216.0,1800,0,0,0,0,984.0,4.92,160.0
0,0,2451,27264,1,888.0,0.0,220.0,1800,0,0,0,0,980.0,4.9,-80.0
0,0,2456,27314,1,1332.0,0.0,236.0,1648,0,0,0,0,964.0,4.819,-320.0
0,0,2461,27364,1,1332.0,0.0,268.0,1296,0,0,0,0,932.0,4.66,-640.0
0,0,2466,27414,1,1348.0,0.0,252.0,1800,0,0,0,0,948.0,4.74,320.0
0,0,2471,27465,1,1348.0,0.0,204.0,1800,0,0,0,0,996.0,4.98,938.1
0,0,2476,27515,1,1368.0,0.0,196.0,1800,0,0,0,0,1004.0,5.02,160.0
0,0,2481,27565,1,1368.0,0.0,264.0,1000,0,0,0,0,936.0,4.68,-1360.0
0,0,2486,27616,1,1368.0,0.0,276.0,1703,0,0,0,0,924.0,4.62,-225.4
0,0,2491,27666,1,1368.0,0.0,308.0,1256,0,0,0,0,892.0,4.46,-640.0
0,0,2496,27716,1,1380.0,0.0,312.0,1800,0,0,0,0,888.0,4.44,-80.0
0,0,2501,27766,1,1380.0,0.0,308.0,1800,0,0,0,0,892.0,4.46,80.0
0,0,2506,27816,1,1380.0,0.0,304.0,1800,0,0,0,0,896.0,4.48,80.0
0,0,2511,27866,1,1380.0,0.0,312.0,1732,0,0,0,0,888.0,4.44,-160.0
0,0,2516,27916,1,1432.0,0.0,312.0,1800,0,0,0,0,888.0,4.44,0.0
0,0,2521,27967,1,1432.0,0.0,320.0,1724,0,0,0,0,880.0,4.4,-160.0
0,0,2526,28017,1,1444.0,0.0,260.0,1800,0,0,0,0,940.0,4.7,1200.0
0,0,2531,28067,1,1444.0,0.0,236.0,1800,0,0,0,0,964.0,4.819,480.0
0,0,2536,28118,1,1444.0,0.0,420.0,1000,0,0,0,0,780.0,4.29,-3549.0
0,0,2541,28168,1,1444.0,0.0,344.0,1800,0,0,0,0,856.0,4.279,1520.0
0,0,2546,28218,1,1444.0,0.0,256.0,1800,0,0,0,0,944.0,4.72,1760.0
0,0,2551,28268,1,676.0,0.0,348.0,1000,0,0,0,0,852.0,4.259,-1840.0
0,0,2556,28318,1,676.0,0.0,244.0,1800,0,0,0,0,956.0,4.779,2080.0
0,0,2561,28368,1,676.0,0.0,276.0,1288,0,0,0,0,924.0,4.62,-640.0
0,0,2566,28418,1,676.0,0.0,240.0,1800,0,0,0,0,960.0,4.799,720.0
0,0,2571,28469,1,676.0,0.0,220.0,1800,0,0,0,0,980.0,4.9,421.8
0,0,2576,28519,1,676.0,0.0,240.0,1564,0,0,0,0,960.0,4.799,-400.0
0,0,2581,28569,1,1444.0,0.0,264.0,1460,0,0,0,0,936.0,4.68,-480.0
0,0,2586,28619,1,1444.0,0.0,276.0,1688,0,0,0,0,924.0,4.62,-240.0
0,0,2591,28670,1,1444.0,0.0,280.0,1800,0,0,0,0,920.0,4.6,-80.0
0,0,2596,28720,1,1444.0,0.0,224.0,1800,0,0,0,0,976.0,4.88,1120.0
0,0,2601,28770,1,1444.0,0.0,224.0,1800,0,0,0,0,976.0,4.88,0.0
0,0,2606,28820,1,1444.0,0.0,236.0,1728,0,0,0,0,964.0,4.819,-240.0
0,0,2611,28870,1,1392.0,0.0,268.0,1296,0,0,0,0,932.0,4.66,-640.0
0,0,2616,28920,1,1392.0,0.0,264.0,1800,0,0,0,0,936.0,4.68,80.0
0,0,2621,28971,1,1368.0,0.0,316.0,1000,0,0,0,0,884.0,4.862,-1032.7
0,0,2626,29021,1,1368.0,0.0,328.0,1636,0,0,0,0,872.0,4.36,-240.0
0,0,2631,29071,1,1368.0,0.0,348.0,1456,0,0,0,0,852.0,4.259,-400.0
0,0,2636,29121,1,1368.0,0.0,204.0,1800,0,0,0,0,996.0,4.98,2880.0
0,0,2641,29172,1,1368.0,0.0,292.0,1000,0,0,0,0,908.0,4.54,-1760.0
0,0,2646,29222,1,1368.0,0.0,300.0,1744,0,0,0,0,900.0,4.5,-160.0
0,0,2651,29272,1,1368.0,0.0,300.0,1800,0,0,0,0,900.0,4.5,0.0
0,0,2656,29322,1,1368.0,0.0,272.0,1800,0,0,0,0,928.0,4.64,560.0
0,0,2661,29372,1,1372.0,0.0,132.0,1800,0,0,0,0,1068.0,5.339,2800.0
0,0,2666,29422,1,1372.0,0.0,276.0,1000,0,0,0,0,924.0,4.62,-2880.0
0,0,2671,29472,1,1372.0,0.0,308.0,1256,0,0,0,0,892.0,4.46,-640.0
0,0,2676,29523,1,1372.0,0.0,276.0,1800,0,0,0,0,924.0,4.62,654.5
0,0,2681,29573,1,1368.0,0.0,248.0,1800,0,0,0,0,952.0,4.759,560.0
0,0,2686,29623,1,1368.0,0.0,364.0,1000,0,0,0,0,836.0,4.18,-2320.0
0,0,2691,29674,1,1028.0,0.0,360.0,1800,0,0,0,0,840.0,4.2,87.27
0,0,2696,29724,1,1028.0,0.0,304.0,1800,0,0,0,0,896.0,4.48,1120.0
0,0,2701,29774,1,1028.0,0.0,340.0,1144,0,0,0,0,860.0,4.299,-720.0
0,0,2706,29824,1,1028.0,0.0,284.0,1800,0,0,0,0,916.0,4.58,1120.0
0,0,2711,29874,1,1028.0,0.0,192.0,1800,0,0,0,0,1008.0,5.04,1840.0
0,0,2716,29924,1,1028.0,0.0,260.0,1000,0,0,0,0,940.0,4.7,-1360.0
0,0,2721,29974,1,1288.0,0.0,268.0,1776,0,0,0,0,932.0,4.66,-160.0
0,0,2726,30025,1,1288.0,0.0,256.0,1800,0,0,0,0,944.0,4.72,232.7
0,0,2731,30075,1,1288.0,0.0,228.0,1800,0,0,0,0,972.0,4.859,560.0
0,0,2736,30125,1,1288.0,0.0,236.0,1800,0,0,0,0,964.0,4.819,-160.0
0,0,2741,30176,1,1288.0,0.0,276.0,1157,0,0,0,0,924.0,4.62,-770.9
0,0,2746,30226,1,1288.0,0.0,284.0,1760,0,0,0,0,916.0,4.58,-160.0
0,0,2751,30276,1,1288.0,0.0,248.0,1800,0,0,0,0,952.0,4.759,720.0
0,0,2756,30326,1,352.0,0.0,292.0,1032,0,0,0,0,908.0,4.54,-880.0
0,0,2761,30376,1,352.0,0.0,300.0,1744,0,0,0,0,900.0,4.5,-160.0
0,0,2766,30426,1,312.0,0.0,300.0,1800,0,0,0,0,900.0,4.5,0.0
0,0,2771,30476,1,312.0,0.0,300.0,1800,0,0,0,0,900.0,4.5,0.0
0,0,2776,30527,1,300.0,0.0,328.0,1316,0,0,0,0,872.0,4.36,-560.0
0,0,2781,30577,1,300.0,0.0,300.0,1800,0,0,0,0,900.0,4.5,560.0
0,0,2786,30627,1,300.0,0.0,304.0,1800,0,0,0,0,896.0,4.48,-80.0
0,0,2791,30678,1,300.0,0.0,316.0,1648,0,0,0,0,884.0,4.862,-240.0
0,0,2796,30728,1,300.0,0.0,332.0,1552,0,0,0,0,868.0,4.339,-320.0
0,0,2801,30778,1,300.0,0.0,320.0,1800,0,0,0,0,880.0,4.4,240.0
0,0,2806,30828,1,300.0,0.0,336.0,1548,0,0,0,0,864.0,4.319,-320.0
0,0,2811,30878,1,300.0,0.0,328.0,1800,0,0,0,0,872.0,4.36,160.0
0,0,2816,30928,1,300.0,0.0,332.0,1792,0,0,0,0,868.0,4.339,-80.0
0,0,2821,30978,1,300.0,0.0,300.0,1800,0,0,0,0,900.0,4.5,640.0
0,0,2826,31029,1,300.0,0.0,312.0,1674,0,0,0,0,888.0,4.44,-218.1
0,0,2831,31079,1,300.0,0.0,300.0,1800,0,0,0,0,900.0,4.5,240.0
0,0,2836,31129,1,328.0,0.0,312.0,1652,0,0,0,0,888.0,4.44,-240.0
0,0,2841,31179,1,328.0,0.0,304.0,1800,0,0,0,0,896.0,4.48,160.0
0,0,2846,31230,1,336.0,0.0,288.0,1800,0,0,0,0,912.0,4.56,290.9
0,0,2851,31280,1,336.0,0.0,272.0,1800,0,0,0,0,928.0,4.64,320.0
0,0,2856,31330,1,336.0,0.0,272.0,1800,0,0,0,0,928.0,4.64,0.0
0,0,2861,31380,1,336.0,0.0,212.0,1800,0,0,0,0,988.0,4.94,1200.0
0,0,2866,31430,1,336.0,0.0,308.0,1000,0,0,0,0,892.0,4.46,-1920.0
0,0,2871,31480,1,336.0,0.0,320.0,1644,0,0,0,0,880.0,4.4,-240.0
0,0,2876,31531,1,336.0,0.0,308.0,1800,0,0,0,0,892.0,4.906,240.0
0,0,2881,31581,1,336.0,0.0,320.0,1644,0,0,0,0,880.0,4.4,-240.0
0,0,2886,31631,1,336.0,0.0,352.0,1212,0,0,0,0,848.0,4.24,-640.0
0,0,2891,31681,1,336.0,0.0,244.0,1800,0,0,0,0,956.0,4.779,2160.0
0,0,2896,31732,1,336.0,0.0,228.0,1800,0,0,0,0,972.0,4.859,320.0
0,0,2901,31782,1,336.0,0.0,248.0,1556,0,0,0,0,952.0,4.759,-400.0
0,0,2906,31832,1,320.0,0.0,304.0,1000,0,0,0,0,896.0,4.48,-1120.0
0,0,2911,31882,1,320.0,0.0,300.0,1800,0,0,0,0,900.0,4.5,80.0
0,0,2916,31932,1,304.0,0.0,232.0,1800,0,0,0,0,968.0,4.839,1360.0
0,0,2921,31982,1,304.0,0.0,296.0,1000,0,0,0,0,904.0,4.52,-1280.0
0,0,2926,32032,1,300.0,0.0,260.0,1800,0,0,0,0,940.0,4.7,720.0
0,0,2931,32083,1,300.0,0.0,260.0,1800,0,0,0,0,940.0,4.7,0.0
0,0,2936,32133,1,300.0,0.0,288.0,1356,0,0,0,0,912.0,4.56,-560.0
0,0,2941,32183,1,300.0,0.0,280.0,1800,0,0,0,0,920.0,4.6,160.0
0,0,2946,32234,1,300.0,0.0,288.0,1771,0,0,0,0,912.0,4.56,-145.45
0,0,2951,32284,1,300.0,0.0,268.0,1800,0,0,0,0,932.0,4.66,400.0
0,0,2956,32334,1,300.0,0.0,280.0,1684,0,0,0,0,920.0,4.6,-240.0
0,0,2961,32384,1,300.0,0.0,300.0,1504,0,0,0,0,900.0,4.5,-400.0
0,0,2966,32434,1,300.0,0.0,300.0,1800,0,0,0,0,900.0,4.5,0.0
0,0,2971,32484,1,300.0,0.0,288.0,1800,0,0,0,0,912.0,4.56,240.0
0,0,2976,32534,1,300.0,0.0,284.0,1800,0,0,0,0,916.0,4.58,80.0
0,0,2981,32585,0,300.0,0.0,276.0,1800,0,0,0,0,924.0,9.24,160.0
0,0,2986,32635,1,300.0,0.0,264.0,1800,0,0,0,0,936.0,4.68,240.0
0,0,2991,32685,1,312.0,0.0,252.0,1800,0,0,0,0,948.0,4.74,240.0
0,0,2996,32736,1,312.0,0.0,248.0,1800,0,0,0,0,952.0,4.759,80.0
0,0,3001,32786,1,336.0,0.0,284.0,1200,0,0,0,0,916.0,4.58,-720.0
0,0,3006,32836,1,336.0,0.0,220.0,1800,0,0,0,0,980.0,4.9,1280.0
0,0,3011,32886,1,336.0,0.0,228.0,1800,0,0,0,0,972.0,4.859,-160.0
0,0,3016,32936,1,336.0,0.0,164.0,1800,0,0,0,0,1036.0,5.18,1280.0
0,0,3021,32986,1,336.0,0.0,476.0,1000,0,0,0,0,724.0,3.62,-6240.0
0,0,3026,33036,1,336.0,0.0,236.0,1800,0,0,0,0,964.0,4.819,4800.0
0,0,3031,33087,1,336.0,0.0,272.0,1278,0,0,0,0,928.0,4.64,-654.5
0,0,3036,33137,1,336.0,0.0,316.0,1008,0,0,0,0,884.0,4.42,-880.0
0,0,3041,33187,1,332.0,0.0,420.0,1000,0,0,0,0,780.0,3.899,-2080.0
0,0,3046,33238,1,332.0,0.0,436.0,1448,0,0,0,0,764.0,4.202,-320.0
0,0,3051,33288,1,332.0,0.0,408.0,1800,0,0,0,0,792.0,3.959,560.0
0,0,3056,33338,1,332.0,0.0,496.0,1000,0,0,0,0,704.0,3.52,-1760.0
0,0,3061,33388,1,332.0,0.0,612.0,1000,0,0,0,0,588.0,2.939,-2320.0
0,0,3066,33438,1,332.0,0.0,576.0,1800,0,0,0,0,624.0,3.12,720.0
0,0,3071,33488,1,328.0,0.0,576.0,1627,0,0,0,0,624.0,3.12,0.0
0,0,3076,33538,1,328.0,0.0,656.0,1000,0,0,0,0,544.0,2.72,-1600.0
0,0,3081,33589,1,324.0,0.0,620.0,1800,0,0,0,0,580.0,2.899,683.6
0,0,3086,33639,1,324.0,0.0,740.0,1000,0,0,0,0,460.0,2.3,-2400.0
0,0,3091,33689,1,300.0,0.0,768.0,1000,0,0,0,0,432.0,2.159,-560.0
0,0,3096,33739,1,300.0,0.0,808.0,1000,0,0,0,0,392.0,1.959,-800.0
0,0,3101,33790,1,300.0,0.0,828.0,1000,0,0,0,0,372.0,1.86,-400.0
0,0,3106,33840,1,300.0,0.0,828.0,1373,0,0,0,0,372.0,1.86,0.0
0,0,3111,33890,1,300.0,0.0,768.0,1800,0,0,0,0,432.0,2.159,1200.0
0,0,3116,33940,1,300.0,0.0,812.0,1000,0,0,0,0,388.0,1.939,-880.0
0,0,3121,33990,1,300.0,0.0,808.0,1473,0,0,0,0,392.0,1.959,80.0
0,0,3126,34040,1,300.0,0.0,1064.0,1000,0,0,0,0,136.0,0.68,-5120.0
0,0,3131,34091,1,300.0,0.0,1012.0,1800,0,0,0,0,188.0,1.034,967.2
0,0,3136,34141,1,300.0,0.0,924.0,1800,0,0,0,0,276.0,1.38,1760.0
0,0,3141,34191,1,300.0,0.0,908.0,1613,0,0,0,0,292.0,1.4599,320.0
0,0,3146,34241,1,300.0,0.0,960.0,1000,0,0,0,0,240.0,1.1999,-1040.0
0,0,3151,34292,1,300.0,0.0,1016.0,1000,0,0,0,0,184.0,0.92,-1120.0
0,0,3156,34342,1,300.0,0.0,972.0,1800,0,0,0,0,228.0,1.14,880.0
0,0,3161,34392,1,300.0,0.0,828.0,1800,0,0,0,0,372.0,1.86,2880.0
0,0,3166,34442,1,300.0,0.0,840.0,1121,0,0,0,0,360.0,1.8,-240.0
0,0,3171,34492,1,300.0,0.0,932.0,1000,0,0,0,0,268.0,1.3399,-1840.0
0,0,3176,34542,1,300.0,0.0,900.0,1800,0,0,0,0,300.0,1.5,640.0
0,0,3181,34592,1,300.0,0.0,824.0,1800,0,0,0,0,376.0,1.88,1520.0
0,0,3186,34643,1,300.0,0.0,1040.0,1000,0,0,0,0,160.0,0.7999,-4087.0
0,0,3191,34693,1,300.0,0.0,1012.0,1748,0,0,0,0,188.0,0.94,560.0
0,0,3196,34743,1,300.0,0.0,1068.0,1000,0,0,0,0,132.0,0.6599,-1120.0
0,0,3201,34794,1,300.0,0.0,880.0,1800,0,0,0,0,320.0,1.5999,3614.0
0,0,3206,34844,1,300.0,0.0,864.0,1657,0,0,0,0,336.0,1.68,320.0
0,0,3211,34894,1,300.0,0.0,896.0,1000,0,0,0,0,304.0,1.52,-640.0
0,0,3216,34944,1,300.0,0.0,880.0,1641,0,0,0,0,320.0,1.5999,320.0
0,0,3221,34994,1,300.0,0.0,896.0,1000,0,0,0,0,304.0,1.52,-320.0
0,0,3226,35044,1,300.0,0.0,816.0,1800,0,0,0,0,384.0,1.92,1600.0
0,0,3231,35094,1,300.0,0.0,900.0,1000,0,0,0,0,300.0,1.5,-1680.0
0,0,3236,35145,1,300.0,0.0,848.0,1800,0,0,0,0,352.0,1.76,1032.7
0,0,3241,35195,1,300.0,0.0,804.0,1800,0,0,0,0,396.0,1.979,880.0
0,0,3246,35245,1,300.0,0.0,1120.0,1000,0,0,0,0,80.0,0.3999,-6320.0
0,0,3251,35296,1,300.0,0.0,1184.0,1000,0,0,0,0,16.0,0.08,-1250.9
0,0,3256,35346,1,300.0,0.0,1248.0,1000,0,0,0,0,-48.0,-0.24,-1280.0
0,0,3261,35396,1,300.0,0.0,1308.0,1000,0,0,0,0,-108.0,-0.5399,-1200.0
0,0,3266,35446,1,300.0,0.0,1332.0,1000,0,0,0,0,-132.0,-0.6599,-480.0
0,0,3271,35496,1,300.0,0.0,1124.0,1800,0,0,0,0,76.0,0.38,4160.0
0,0,3276,35546,1,300.0,0.0,892.0,1800,0,0,0,0,308.0,1.54,4640.0
0,0,3281,35596,1,300.0,0.0,820.0,1800,0,0,0,0,380.0,1.9,1440.0
0,0,3286,35647,1,300.0,0.0,1060.0,1000,0,0,0,0,140.0,0.7,-4669.0
0,0,3291,35697,1,300.0,0.0,1008.0,1800,0,0,0,0,192.0,0.96,1040.0
0,0,3296,35747,1,300.0,0.0,916.0,1800,0,0,0,0,284.0,1.42,1840.0
0,0,3301,35798,1,300.0,0.0,852.0,1800,0,0,0,0,348.0,1.914,1163.6
0,0,3306,35848,1,300.0,0.0,836.0,1685,0,0,0,0,364.0,1.819,320.0
0,0,3311,35898,1,300.0,0.0,732.0,1800,0,0,0,0,468.0,2.34,2080.0
0,0,3316,35948,1,300.0,0.0,744.0,1218,0,0,0,0,456.0,2.28,-240.0
0,0,3321,35998,1,300.0,0.0,616.0,1800,0,0,0,0,584.0,2.919,2560.0
0,0,3326,36048,1,300.0,0.0,536.0,1800,0,0,0,0,664.0,3.32,1600.0
0,0,3331,36098,1,300.0,0.0,576.0,1000,0,0,0,0,624.0,3.12,-800.0
0,0,3336,36149,1,300.0,0.0,584.0,1473,0,0,0,0,616.0,3.08,-145.45
0,0,3341,36199,1,300.0,0.0,592.0,1451,0,0,0,0,608.0,3.04,-160.0
0,0,3346,36249,1,300.0,0.0,512.0,1800,0,0,0,0,688.0,3.439,1600.0
0,0,3351,36299,1,300.0,0.0,444.0,1800,0,0,0,0,756.0,3.78,1360.0
0,0,3356,36350,1,300.0,0.0,436.0,1800,0,0,0,0,764.0,3.82,123.63
0,0,3361,36400,1,300.0,0.0,432.0,1800,0,0,0,0,768.0,3.84,80.0
0,0,3366,36450,1,300.0,0.0,444.0,1519,0,0,0,0,756.0,3.78,-240.0
0,0,3371,36500,1,300.0,0.0,440.0,1800,0,0,0,0,760.0,3.8,80.0
0,0,3376,36550,1,300.0,0.0,424.0,1800,0,0,0,0,776.0,3.879,320.0
0,0,3381,36600,1,300.0,0.0,452.0,1191,0,0,0,0,748.0,3.74,-560.0
0,0,3386,36651,1,300.0,0.0,444.0,1800,0,0,0,0,756.0,4.158,167.2
0,0,3391,36701,1,296.0,0.0,456.0,1507,0,0,0,0,744.0,3.72,-240.0
0,0,3396,36751,1,296.0,0.0,476.0,1327,0,0,0,0,724.0,3.62,-400.0
0,0,3401,36801,1,300.0,0.0,476.0,1727,0,0,0,0,724.0,3.62,0.0
0,0,3406,36852,1,300.0,0.0,452.0,1800,0,0,0,0,748.0,3.74,480.0
0,0,3411,36902,1,300.0,0.0,432.0,1800,0,0,0,0,768.0,3.84,400.0
0,0,3416,36952,1,300.0,0.0,344.0,1800,0,0,0,0,856.0,4.279,1760.0
0,0,3421,37002,1,300.0,0.0,248.0,1800,0,0,0,0,952.0,4.759,1920.0
0,0,3426,37052,1,300.0,0.0,276.0,1368,0,0,0,0,924.0,4.62,-560.0
0,0,3431,37102,1,300.0,0.0,288.0,1676,0,0,0,0,912.0,4.56,-240.0
0,0,3436,37152,1,300.0,0.0,292.0,1800,0,0,0,0,908.0,4.54,-80.0
0,0,3441,37203,1,300.0,0.0,288.0,1800,0,0,0,0,912.0,4.56,80.0
0,0,3446,37253,1,300.0,0.0,268.0,1800,0,0,0,0,932.0,4.66,400.0
0,0,3451,37303,1,300.0,0.0,208.0,1800,0,0,0,0,992.0,4.96,1200.0
0,0,3456,37354,1,300.0,0.0,192.0,1800,0,0,0,0,1008.0,5.04,320.0
0,0,3461,37404,1,300.0,0.0,300.0,1000,0,0,0,0,900.0,4.5,-2160.0
0,0,3466,37454,1,300.0,0.0,300.0,1800,0,0,0,0,900.0,4.5,0.0
0,0,3471,37504,1,324.0,0.0,292.0,1800,0,0,0,0,908.0,4.54,160.0
0,0,3476,37554,1,324.0,0.0,320.0,1324,0,0,0,0,880.0,4.4,-560.0
0,0,3481,37604,1,324.0,0.0,352.0,1212,0,0,0,0,848.0,4.24,-640.0
0,0,3486,37654,1,324.0,0.0,356.0,1768,0,0,0,0,844.0,4.22,-80.0
0,0,3491,37705,1,324.0,0.0,296.0,1800,0,0,0,0,904.0,4.52,1192.7
0,0,3496,37755,1,324.0,0.0,324.0,1320,0,0,0,0,876.0,4.38,-560.0
0,0,3501,37805,1,324.0,0.0,328.0,1796,0,0,0,0,872.0,4.36,-80.0
0,0,3506,37856,1,324.0,0.0,276.0,1800,0,0,0,0,924.0,4.62,1003.6
0,0,3511,37906,1,308.0,0.0,256.0,1800,0,0,0,0,944.0,4.72,400.0
0,0,3516,37956,1,308.0,0.0,276.0,1528,0,0,0,0,924.0,4.62,-400.0
0,0,3521,38006,1,308.0,0.0,284.0,1760,0,0,0,0,916.0,4.58,-160.0
0,0,3526,38056,1,308.0,0.0,264.0,1800,0,0,0,0,936.0,4.68,400.0
0,0,3531,38106,1,308.0,0.0,276.0,1688,0,0,0,0,924.0,4.62,-240.0
0,0,3536,38156,1,308.0,0.0,248.0,1800,0,0,0,0,952.0,4.759,560.0
0,0,3541,38207,1,308.0,0.0,244.0,1800,0,0,0,0,956.0,4.779,80.0
0,0,3546,38257,1,308.0,0.0,244.0,1800,0,0,0,0,956.0,4.779,0.0
0,0,3551,38307,1,308.0,0.0,232.0,1800,0,0,0,0,968.0,4.839,240.0
0,0,3556,38358,1,308.0,0.0,208.0,1800,0,0,0,0,992.0,5.456,443.6
0,0,3561,38408,1,308.0,0.0,228.0,1576,0,0,0,0,972.0,4.859,-400.0
0,0,3566,38458,1,308.0,0.0,228.0,1800,0,0,0,0,972.0,4.859,0.0
0,0,3571,38508,1,300.0,0.0,252.0,1472,0,0,0,0,948.0,4.74,-480.0
0,0,3576,38558,1,300.0,0.0,268.0,1616,0,0,0,0,932.0,4.66,-320.0
0,0,3581,38608,1,300.0,0.0,280.0,1684,0,0,0,0,920.0,4.6,-240.0
0,0,3586,38658,1,300.0,0.0,276.0,1800,0,0,0,0,924.0,4.62,80.0
0,0,3591,38709,1,300.0,0.0,264.0,1800,0,0,0,0,936.0,4.68,240.0
0,0,3596,38759,1,300.0,0.0,248.0,1800,0,0,0,0,952.0,4.759,320.0
0,0,3601,38809,1,300.0,0.0,232.0,1800,0,0,0,0,968.0,4.839,320.0
0,0,3606,38859,1,300.0,0.0,232.0,1800,0,0,0,0,968.0,4.839,0.0
0,0,3611,38910,1,300.0,0.0,216.0,1800,0,0,0,0,984.0,4.92,305.4
0,0,3616,38960,1,300.0,0.0,244.0,1400,0,0,0,0,956.0,4.779,-560.0
0,0,3621,39010,1,300.0,0.0,204.0,1800,0,0,0,0,996.0,4.98,800.0
0,0,3626,39060,1,300.0,0.0,204.0,1800,0,0,0,0,996.0,4.98,0.0
0,0,3631,39110,1,300.0,0.0,212.0,1800,0,0,0,0,988.0,4.94,-160.0
0,0,3636,39160,1,300.0,0.0,236.0,1488,0,0,0,0,964.0,4.819,-480.0
0,0,3641,39211,1,300.0,0.0,248.0,1717,0,0,0,0,952.0,5.236,-240.0
0,0,3646,39261,1,300.0,0.0,216.0,1800,0,0,0,0,984.0,4.92,640.0
0,0,3651,39311,1,300.0,0.0,216.0,1800,0,0,0,0,984.0,4.92,0.0
0,0,3656,39361,1,300.0,0.0,224.0,1800,0,0,0,0,976.0,4.88,-160.0
0,0,3661,39412,1,300.0,0.0,240.0,1644,0,0,0,0,960.0,4.799,-320.0
0,0,3666,39462,1,300.0,0.0,224.0,1800,0,0,0,0,976.0,4.88,320.0
0,0,3671,39512,1,300.0,0.0,180.0,1800,0,0,0,0,1020.0,5.1,880.0
0,0,3676,39562,1,300.0,0.0,216.0,1268,0,0,0,0,984.0,4.92,-720.0
0,0,3681,39612,1,300.0,0.0,220.0,1800,0,0,0,0,980.0,4.9,-80.0
0,0,3686,39662,1,300.0,0.0,204.0,1800,0,0,0,0,996.0,4.98,320.0
0,0,3691,39712,1,300.0,0.0,224.0,1580,0,0,0,0,976.0,4.88,-400.0
0,0,3696,39763,1,300.0,0.0,224.0,1800,0,0,0,0,976.0,4.88,-7.272
0,0,3701,39813,1,300.0,0.0,232.0,1800,0,0,0,0,968.0,4.839,-160.0
0,0,3706,39863,1,300.0,0.0,208.0,1800,0,0,0,0,992.0,4.96,480.0
0,0,3711,39914,1,300.0,0.0,196.0,1800,0,0,0,0,1004.0,5.02,218.1
0,0,3716,39964,1,300.0,0.0,176.0,1800,0,0,0,0,1024.0,5.12,400.0
0,0,3721,40014,1,300.0,0.0,164.0,1800,0,0,0,0,1036.0,5.18,240.0
0,0,3726,40064,1,300.0,0.0,172.0,1800,0,0,0,0,1028.0,5.14,-160.0
0,0,3731,40114,1,300.0,0.0,172.0,1800,0,0,0,0,1028.0,5.14,0.0
0,0,3736,40164,1,300.0,0.0,180.0,1800,0,0,0,0,1020.0,5.1,-160.0
0,0,3741,40214,1,300.0,0.0,200.0,1605,0,0,0,0,1000.0,5.0,-400.0
0,0,3746,40265,1,300.0,0.0,196.0,1800,0,0,0,0,1004.0,5.02,80.0
0,0,3751,40315,1,300.0,0.0,184.0,1800,0,0,0,0,1016.0,5.08,240.0
0,0,3756,40365,1,300.0,0.0,168.0,1800,0,0,0,0,1032.0,5.16,320.0
0,0,3761,40416,1,300.0,0.0,192.0,1547,0,0,0,0,1008.0,5.04,-465.4
0,0,3766,40466,1,300.0,0.0,200.0,1800,0,0,0,0,1000.0,5.0,-160.0
0,0,3771,40516,1,300.0,0.0,208.0,1800,0,0,0,0,992.0,4.96,-160.0
0,0,3776,40566,1,300.0,0.0,212.0,1800,0,0,0,0,988.0,4.94,-80.0
0,0,3781,40616,1,300.0,0.0,256.0,1068,0,0,0,0,944.0,4.72,-880.0
0,0,3786,40666,1,300.0,0.0,260.0,1800,0,0,0,0,940.0,4.7,-80.0
0,0,3791,40716,1,300.0,0.0,256.0,1800,0,0,0,0,944.0,4.72,80.0
0,0,3796,40767,1,300.0,0.0,228.0,1800,0,0,0,0,972.0,4.859,560.0
0,0,3801,40817,1,300.0,0.0,216.0,1800,0,0,0,0,984.0,4.92,240.0
0,0,3806,40867,1,300.0,0.0,244.0,1400,0,0,0,0,956.0,4.779,-560.0
0,0,3811,40918,1,300.0,0.0,372.0,1000,0,0,0,0,828.0,4.554,-2494.0
0,0,3816,40968,1,300.0,0.0,332.0,1800,0,0,0,0,868.0,4.339,800.0
0,0,3821,41018,1,300.0,0.0,268.0,1800,0,0,0,0,932.0,4.66,1280.0
0,0,3826,41068,1,300.0,0.0,260.0,1800,0,0,0,0,940.0,4.7,160.0
0,0,3831,41118,1,300.0,0.0,324.0,1000,0,0,0,0,876.0,4.38,-1280.0
0,0,3836,41168,1,300.0,0.0,296.0,1800,0,0,0,0,904.0,4.52,560.0
0,0,3841,41218,1,300.0,0.0,364.0,1000,0,0,0,0,836.0,4.18,-1360.0
0,0,3846,41269,1,300.0,0.0,444.0,1000,0,0,0,0,756.0,3.78,-1600.0
0,0,3851,41319,1,300.0,0.0,372.0,1800,0,0,0,0,828.0,4.14,1440.0
0,0,3856,41369,1,300.0,0.0,348.0,1800,0,0,0,0,852.0,4.259,480.0
0,0,3861,41419,1,300.0,0.0,376.0,1268,0,0,0,0,824.0,4.12,-560.0
0,0,3866,41470,1,300.0,0.0,504.0,1000,0,0,0,0,696.0,3.48,-2509.0
0,0,3871,41520,1,300.0,0.0,508.0,1615,0,0,0,0,692.0,3.46,-80.0
0,0,3876,41570,1,300.0,0.0,552.0,1000,0,0,0,0,648.0,3.24,-880.0
0,0,3881,41620,1,300.0,0.0,548.0,1735,0,0,0,0,652.0,3.26,80.0
0,0,3886,41670,1,300.0,0.0,548.0,1655,0,0,0,0,652.0,3.26,0.0
0,0,3891,41720,1,300.0,0.0,528.0,1800,0,0,0,0,672.0,3.36,400.0
0,0,3896,41771,1,300.0,0.0,528.0,1675,0,0,0,0,672.0,3.696,0.0
0,0,3901,41821,1,300.0,0.0,544.0,1339,0,0,0,0,656.0,3.28,-320.0
0,0,3906,41871,1,300.0,0.0,548.0,1575,0,0,0,0,652.0,3.26,-80.0
0,0,3911,41921,1,300.0,0.0,560.0,1403,0,0,0,0,640.0,3.199,-240.0
0,0,3916,41972,1,300.0,0.0,556.0,1727,0,0,0,0,644.0,3.22,80.0
0,0,3921,42022,1,300.0,0.0,540.0,1800,0,0,0,0,660.0,3.3,320.0
0,0,3926,42072,1,300.0,0.0,508.0,1800,0,0,0,0,692.0,3.46,640.0
0,0,3931,42122,1,300.0,0.0,464.0,1800,0,0,0,0,736.0,3.679,880.0
0,0,3936,42172,1,300.0,0.0,564.0,1000,0,0,0,0,636.0,3.179,-2000.0
0,0,3941,42222,1,300.0,0.0,600.0,1000,0,0,0,0,600.0,3.0,-720.0
0,0,3946,42272,1,300.0,0.0,664.0,1000,0,0,0,0,536.0,2.679,-1280.0
0,0,3951,42323,1,300.0,0.0,832.0,1000,0,0,0,0,368.0,1.839,-3360.0
0,0,3956,42373,1,300.0,0.0,908.0,1000,0,0,0,0,292.0,1.4599,-1520.0
0,0,3961,42423,1,300.0,0.0,892.0,1629,0,0,0,0,308.0,1.54,320.0
0,0,3966,42474,1,300.0,0.0,864.0,1800,0,0,0,0,336.0,1.68,545.4
0,0,3971,42524,1,300.0,0.0,824.0,1800,0,0,0,0,376.0,1.88,800.0
0,0,3976,42574,1,300.0,0.0,296.0,1800,0,0,0,0,904.0,4.52,10560.0
0,0,3981,42624,1,300.0,0.0,252.0,1800,0,0,0,0,948.0,4.74,880.0
0,0,3986,42674,1,300.0,0.0,212.0,1800,0,0,0,0,988.0,4.94,800.0
0,0,3991,42724,1,300.0,0.0,232.0,1572,0,0,0,0,968.0,4.839,-400.0
0,0,3996,42774,1,300.0,0.0,248.0,1636,0,0,0,0,952.0,4.759,-320.0
0,0,4001,42825,1,300.0,0.0,224.0,1800,0,0,0,0,976.0,4.88,472.7
0,0,4006,42875,1,300.0,0.0,228.0,1800,0,0,0,0,972.0,4.859,-80.0
0,0,4011,42925,1,300.0,0.0,220.0,1800,0,0,0,0,980.0,4.9,160.0
0,0,4016,42976,1,300.0,0.0,252.0,1312,0,0,0,0,948.0,4.74,-640.0
0,0,4021,43026,1,300.0,0.0,252.0,1800,0,0,0,0,948.0,4.74,0.0
0,0,4026,43076,1,300.0,0.0,280.0,1364,0,0,0,0,920.0,4.6,-560.0
0,0,4031,43126,1,300.0,0.0,340.0,1000,0,0,0,0,860.0,4.299,-1200.0
0,0,4036,43176,1,300.0,0.0,460.0,1000,0,0,0,0,740.0,3.699,-2400.0
0,0,4041,43226,1,300.0,0.0,284.0,1800,0,0,0,0,916.0,4.58,3520.0
0,0,4046,43276,1,300.0,0.0,264.0,1800,0,0,0,0,936.0,4.68,400.0
0,0,4051,43327,0,300.0,0.0,268.0,1800,0,0,0,0,932.0,9.32,-72.72
0,0,4056,43377,1,300.0,0.0,268.0,1800,0,0,0,0,932.0,4.66,0.0
0,0,4061,43427,1,300.0,0.0,272.0,1800,0,0,0,0,928.0,4.64,-80.0
0,0,4066,43478,1,300.0,0.0,260.0,1800,0,0,0,0,940.0,5.17,254.5
0,0,4071,43528,1,300.0,0.0,268.0,1776,0,0,0,0,932.0,4.66,-160.0
0,0,4076,43578,1,300.0,0.0,272.0,1800,0,0,0,0,928.0,4.64,-80.0
0,0,4081,43628,1,300.0,0.0,256.0,1800,0,0,0,0,944.0,4.72,320.0
0,0,4086,43678,1,300.0,0.0,256.0,1800,0,0,0,0,944.0,4.72,0.0
0,0,4091,43728,1,300.0,0.0,252.0,1800,0,0,0,0,948.0,4.74,80.0
0,0,0,43778,1,300.0,0.0,252.0,1800,0,0,0,0,948.0,4.74,0.0
0,0,5,43829,1,300.0,0.0,248.0,1800,0,0,0,0,952.0,4.759,80.0
0,0,10,43879,1,300.0,0.0,244.0,1800,0,0,0,0,956.0,4.779,80.0
0,0,15,43929,1,300.0,0.0,236.0,1800,0,0,0,0,964.0,4.819,160.0
0,0,20,43979,1,300.0,0.0,248.0,1716,0,0,0,0,952.0,4.759,-240.0
0,0,25,44030,1,300.0,0.0,252.0,1800,0,0,0,0,948.0,4.74,-80.0
0,0,30,44080,1,300.0,0.0,256.0,1800,0,0,0,0,944.0,4.72,-80.0
0,0,35,44130,1,300.0,0.0,256.0,1800,0,0,0,0,944.0,4.72,0.0
0,0,40,44180,1,300.0,0.0,252.0,1800,0,0,0,0,948.0,4.74,80.0
0,0,45,44230,1,300.0,0.0,248.0,1800,0,0,0,0,952.0,4.759,80.0
0,0,50,44280,1,300.0,0.0,244.0,1800,0,0,0,0,956.0,4.779,80.0
0,0,55,44331,1,300.0,0.0,236.0,1800,0,0,0,0,964.0,5.302,160.0
0,0,60,44381,1,300.0,0.0,272.0,1212,0,0,0,0,928.0,4.64,-720.0
0,0,65,44431,1,300.0,0.0,240.0,1800,0,0,0,0,960.0,4.799,640.0
0,0,70,44481,1,300.0,0.0,256.0,1628,0,0,0,0,944.0,4.72,-320.0
0,0,75,44532,1,300.0,0.0,248.0,1800,0,0,0,0,952.0,4.759,160.0
0,0,80,44582,1,300.0,0.0,248.0,1800,0,0,0,0,952.0,4.759,0.0
0,0,85,44632,1,300.0,0.0,248.0,1800,0,0,0,0,952.0,4.759,0.0
0,0,90,44682,1,300.0,0.0,260.0,1704,0,0,0,0,940.0,4.7,-240.0
0,0,95,44732,1,300.0,0.0,300.0,1104,0,0,0,0,900.0,4.5,-800.0
0,0,100,44782,1,300.0,0.0,308.0,1736,0,0,0,0,892.0,4.46,-160.0
0,0,105,44832,1,300.0,0.0,296.0,1800,0,0,0,0,904.0,4.52,240.0
0,0,110,44883,1,300.0,0.0,380.0,1000,0,0,0,0,820.0,4.1,-1680.0
0,0,115,44933,1,300.0,0.0,364.0,1800,0,0,0,0,836.0,4.18,320.0
0,0,120,44983,1,300.0,0.0,380.0,1504,0,0,0,0,820.0,4.1,-320.0
0,0,125,45034,1,300.0,0.0,372.0,1800,0,0,0,0,828.0,4.14,160.0
0,0,130,45084,1,300.0,0.0,264.0,1800,0,0,0,0,936.0,4.68,2160.0
0,0,135,45134,1,300.0,0.0,52.0,1800,0,0,0,0,1148.0,5.74,4240.0
0,0,140,45184,1,300.0,0.0,60.0,1800,0,0,0,0,1140.0,5.7,-160.0
0,0,145,45234,1,300.0,0.0,60.0,1800,0,0,0,0,1140.0,5.7,0.0
0,0,150,45284,1,300.0,0.0,32.0,1800,0,0,0,0,1168.0,5.839,560.0
0,0,155,45334,1,300.0,0.0,32.0,1800,0,0,0,0,1168.0,5.839,0.0
0,0,160,45385,1,300.0,0.0,48.0,1800,0,0,0,0,1152.0,5.759,-305.4
0,0,165,45435,1,300.0,0.0,168.0,1000,0,0,0,0,1032.0,5.16,-2400.0
0,0,170,45485,1,300.0,0.0,240.0,1000,0,0,0,0,960.0,4.799,-1440.0
0,0,175,45536,1,300.0,0.0,256.0,1628,0,0,0,0,944.0,4.72,-320.0
0,0,180,45586,1,300.0,0.0,236.0,1800,0,0,0,0,964.0,4.819,400.0
0,0,185,45636,1,300.0,0.0,284.0,1000,0,0,0,0,916.0,4.58,-960.0
0,0,190,45686,1,300.0,0.0,296.0,1668,0,0,0,0,904.0,4.52,-240.0
0,0,195,45736,1,300.0,0.0,356.0,1000,0,0,0,0,844.0,4.22,-1200.0
0,0,200,45786,1,300.0,0.0,372.0,1512,0,0,0,0,828.0,4.14,-320.0
0,0,205,45836,1,300.0,0.0,440.0,1000,0,0,0,0,760.0,3.8,-1360.0
0,0,210,45887,1,300.0,0.0,476.0,1007,0,0,0,0,724.0,3.62,-720.0
0,0,215,45937,1,300.0,0.0,516.0,1000,0,0,0,0,684.0,3.419,-800.0
0,0,220,45987,1,300.0,0.0,528.0,1435,0,0,0,0,672.0,3.36,-240.0
0,0,225,46038,1,300.0,0.0,336.0,1800,0,0,0,0,864.0,4.752,3767.0
0,0,230,46088,1,300.0,0.0,76.0,1800,0,0,0,0,1124.0,5.62,5200.0
0,0,235,46138,1,300.0,0.0,92.0,1793,0,0,0,0,1108.0,5.54,-320.0
0,0,240,46188,1,300.0,0.0,260.0,1000,0,0,0,0,940.0,4.7,-3360.0
0,0,245,46238,1,300.0,0.0,396.0,1000,0,0,0,0,804.0,4.02,-2720.0
0,0,250,46288,1,300.0,0.0,332.0,1800,0,0,0,0,868.0,4.339,1280.0
0,0,255,46338,1,300.0,0.0,680.0,1000,0,0,0,0,520.0,2.6,-6960.0
0,0,260,46389,1,300.0,0.0,856.0,1000,0,0,0,0,344.0,1.719,-3418.0
0,0,265,46439,1,300.0,0.0,448.0,1800,0,0,0,0,752.0,3.76,8160.0
0,0,270,46489,1,300.0,0.0,104.0,1800,0,0,0,0,1096.0,5.48,6880.0
0,0,275,46539,1,300.0,0.0,88.0,1800,0,0,0,0,1112.0,5.56,320.0
0,0,280,46590,1,300.0,0.0,64.0,1800,0,0,0,0,1136.0,5.68,472.7
0,0,285,46640,1,300.0,0.0,64.0,1800,0,0,0,0,1136.0,5.68,0.0
0,0,290,46690,1,300.0,0.0,40.0,1800,0,0,0,0,1160.0,5.799,480.0
0,0,295,46740,1,300.0,0.0,112.0,1000,0,0,0,0,1088.0,5.44,-1440.0
0,0,300,46790,1,300.0,0.0,608.0,1000,0,0,0,0,592.0,2.96,-9920.0
0,0,305,46840,1,300.0,0.0,892.0,1000,0,0,0,0,308.0,1.54,-5680.0
0,0,310,46891,1,300.0,0.0,868.0,1800,0,0,0,0,332.0,1.826,494.5
0,0,315,46941,1,300.0,0.0,920.0,1000,0,0,0,0,280.0,1.4,-1040.0
0,0,320,46991,1,300.0,0.0,852.0,1800,0,0,0,0,348.0,1.74,1360.0
0,0,325,47041,1,300.0,0.0,776.0,1800,0,0,0,0,424.0,2.12,1520.0
0,0,330,47092,1,300.0,0.0,760.0,1762,0,0,0,0,440.0,2.2,320.0
0,0,335,47142,1,300.0,0.0,744.0,1778,0,0,0,0,456.0,2.28,320.0
0,0,340,47192,1,300.0,0.0,696.0,1800,0,0,0,0,504.0,2.52,960.0
0,0,345,47242,1,300.0,0.0,360.0,1800,0,0,0,0,840.0,4.2,6720.0
0,0,350,47292,1,300.0,0.0,88.0,1800,0,0,0,0,1112.0,5.56,5440.0
0,0,355,47342,1,300.0,0.0,72.0,1800,0,0,0,0,1128.0,5.64,320.0
0,0,360,47392,1,300.0,0.0,132.0,1000,0,0,0,0,1068.0,5.339,-1200.0
0,0,365,47443,1,300.0,0.0,136.0,1800,0,0,0,0,1064.0,5.319,-50.9
0,0,370,47493,1,300.0,0.0,552.0,1000,0,0,0,0,648.0,3.24,-8320.0
0,0,375,47543,1,300.0,0.0,592.0,1000,0,0,0,0,608.0,3.04,-800.0
0,0,380,47594,1,300.0,0.0,728.0,1000,0,0,0,0,472.0,2.36,-2669.0
0,0,385,47644,1,300.0,0.0,744.0,1138,0,0,0,0,456.0,2.28,-320.0
0,0,390,47694,1,300.0,0.0,720.0,1800,0,0,0,0,480.0,2.399,480.0
0,0,395,47744,1,300.0,0.0,668.0,1800,0,0,0,0,532.0,2.659,1040.0
0,0,400,47794,1,300.0,0.0,648.0,1800,0,0,0,0,552.0,2.76,400.0
0,0,405,47844,1,300.0,0.0,676.0,1000,0,0,0,0,524.0,2.62,-560.0
0,0,410,47894,1,300.0,0.0,912.0,1000,0,0,0,0,288.0,1.4399,-4720.0
0,0,415,47945,1,300.0,0.0,828.0,1800,0,0,0,0,372.0,1.86,1680.0
0,0,420,47995,1,300.0,0.0,644.0,1800,0,0,0,0,556.0,2.78,3680.0
0,0,425,48045,1,300.0,0.0,748.0,1000,0,0,0,0,452.0,2.26,-2080.0
0,0,430,48096,1,300.0,0.0,640.0,1800,0,0,0,0,560.0,2.8,2152.0
0,0,435,48146,1,300.0,0.0,532.0,1800,0,0,0,0,668.0,3.34,2160.0
0,0,440,48196,1,300.0,0.0,180.0,1800,0,0,0,0,1020.0,5.1,7040.0
0,0,445,48246,1,300.0,0.0,372.0,1000,0,0,0,0,828.0,4.14,-3840.0
0,0,450,48296,1,300.0,0.0,676.0,1000,0,0,0,0,524.0,2.62,-6080.0
0,0,455,48346,1,300.0,0.0,696.0,1106,0,0,0,0,504.0,2.52,-400.0
0,0,460,48396,1,300.0,0.0,696.0,1506,0,0,0,0,504.0,2.52,0.0
0,0,465,48447,1,300.0,0.0,692.0,1568,0,0,0,0,508.0,2.54,58.18
0,0,470,48497,1,304.0,0.0,716.0,1006,0,0,0,0,484.0,2.419,-480.0
0,0,475,48547,1,304.0,0.0,736.0,1066,0,0,0,0,464.0,2.32,-400.0
0,0,480,48598,1,308.0,0.0,752.0,1137,0,0,0,0,448.0,2.464,-312.7
0,0,485,48648,1,308.0,0.0,776.0,1000,0,0,0,0,424.0,2.12,-480.0
0,0,490,48698,1,312.0,0.0,808.0,1000,0,0,0,0,392.0,1.959,-640.0
0,0,495,48748,1,312.0,0.0,844.0,1000,0,0,0,0,356.0,1.78,-720.0
0,0,500,48798,1,312.0,0.0,816.0,1800,0,0,0,0,384.0,1.92,560.0
0,0,505,48848,1,312.0,0.0,784.0,1800,0,0,0,0,416.0,2.08,640.0
0,0,510,48898,1,312.0,0.0,876.0,1000,0,0,0,0,324.0,1.62,-1840.0
0,0,515,48949,1,312.0,0.0,972.0,1000,0,0,0,0,228.0,1.14,-1861.0
0,0,520,48999,1,312.0,0.0,988.0,1000,0,0,0,0,212.0,1.0599,-320.0
0,0,525,49049,1,312.0,0.0,1036.0,1000,0,0,0,0,164.0,0.82,-960.0
0,0,530,49099,1,308.0,0.0,1200.0,1000,0,0,0,0,0.0,0.0,-3280.0
0,0,535,49150,1,308.0,0.0,1304.0,1000,0,0,0,0,-104.0,-0.52,-2021.0
0,0,540,49200,1,304.0,0.0,1288.0,1231,0,0,0,0,-88.0,-0.44,320.0
0,0,545,49250,1,300.0,0.0,1272.0,1247,0,0,0,0,-72.0,-0.3599,320.0
0,0,550,49300,1,300.0,0.0,1312.0,1000,0,0,0,0,-112.0,-0.56,-800.0
0,0,555,49350,1,300.0,0.0,1332.0,1000,0,0,0,0,-132.0,-0.6599,-400.0
0,0,560,49400,1,300.0,0.0,1388.0,1000,0,0,0,0,-188.0,-0.94,-1120.0
0,0,565,49451,1,300.0,0.0,1372.0,1110,0,0,0,0,-172.0,-0.946,283.6
0,0,570,49501,1,300.0,0.0,1032.0,1800,0,0,0,0,168.0,0.84,6800.0
0,0,575,49551,1,300.0,0.0,876.0,1800,0,0,0,0,324.0,1.62,3120.0
0,0,580,49601,1,300.0,0.0,796.0,1800,0,0,0,0,404.0,2.02,1600.0
0,0,585,49652,1,300.0,0.0,756.0,1800,0,0,0,0,444.0,2.22,800.0
0,0,590,49702,1,300.0,0.0,760.0,1362,0,0,0,0,440.0,2.2,-80.0
0,0,595,49752,1,300.0,0.0,756.0,1526,0,0,0,0,444.0,2.22,80.0
0,0,600,49802,1,300.0,0.0,960.0,1000,0,0,0,0,240.0,1.1999,-4080.0
0,0,605,49852,1,324.0,0.0,984.0,1000,0,0,0,0,216.0,1.0799,-480.0
0,0,610,49902,1,324.0,0.0,1020.0,1000,0,0,0,0,180.0,0.9,-720.0
