InitialVarHeader,InitialVars,logNo,timeStep,controlMode,forwardSensor1,forwardSensor2,AltitudeSensor,throttleControl,yawControl,rollControl,pitchControl,stablilityModeControl,errorP,errorI,errorD
ALTITUDE_KP,0.6,1,2679,0,-272600.0,-272200.0,728.0,1000,0,0,0,0,0.0,0.0,0.0
ALTITUDE_KI,0.3,2,2699,0,-272600.0,-272200.0,756.0,1000,0,0,0,0,0.0,0.0,0.0
ALTITUDE_KD,0.0,3,2719,0,-272600.0,308.0,752.0,1000,0,0,0,0,0.0,0.0,0.0
THROTTLE_LIMIT,1800.0,4,2739,0,388.0,308.0,736.0,1000,0,0,0,0,0.0,0.0,0.0
ALTITUDE_PID_GAIN_RATIO,1.0,5,2759,0,388.0,308.0,736.0,1000,0,0,0,0,0.0,0.0,0.0
ALTITUDE_HOVER_HEIGHT,1200.0,6,2779,0,388.0,308.0,736.0,1000,0,0,0,0,0.0,0.0,0.0
0,0,7,2799,0,388.0,308.0,740.0,1000,0,0,0,0,0.0,0.0,0.0
0,0,8,2819,0,388.0,308.0,724.0,1000,0,0,0,0,0.0,0.0,0.0
0,0,9,2839,0,388.0,308.0,748.0,1000,0,0,0,0,0.0,0.0,0.0
0,0,10,2859,0,388.0,308.0,736.0,1000,0,0,0,0,0.0,0.0,0.0
0,0,11,2879,0,388.0,308.0,724.0,1000,0,0,0,0,0.0,0.0,0.0
0,0,12,2899,0,388.0,308.0,732.0,1800,0,0,0,0,280.8,2.808,4680.0
0,0,13,2919,0,388.0,308.0,728.0,1800,0,0,0,0,283.2,5.64,4720.0
0,0,14,2939,0,388.0,308.0,736.0,1800,0,0,0,0,278.4,8.424,4640.0
0,0,15,2959,0,388.0,308.0,724.0,1376,0,0,0,0,285.6,11.28,80.0
0,0,16,2979,0,388.0,308.0,732.0,1254,0,0,0,0,280.8,14.088,-40.0
0,0,17,2999,0,388.0,308.0,736.0,1295,0,0,0,0,278.4,16.87,0.0
0,0,18,3019,0,388.0,308.0,736.0,1178,0,0,0,0,278.4,19.65,-120.0
0,0,19,3039,0,388.0,308.0,732.0,1303,0,0,0,0,280.8,22.46,0.0
0,0,20,3059,0,388.0,308.0,736.0,1303,0,0,0,0,278.4,25.24,0.0
0,0,21,3079,0,388.0,308.0,736.0,1306,0,0,0,0,278.4,28.03,0.0
0,0,22,3099,0,388.0,308.0,724.0,1396,0,0,0,0,285.6,30.88,80.0
0,0,23,3119,0,388.0,308.0,724.0,1439,0,0,0,0,285.6,33.74,120.0
0,0,24,3139,0,388.0,308.0,732.0,1357,0,0,0,0,280.8,36.55,40.0
0,0,25,3159,0,388.0,308.0,736.0,1197,0,0,0,0,278.4,39.33,-120.0
0,0,26,3179,0,388.0,308.0,740.0,1158,0,0,0,0,276.0,42.09,-160.0
0,0,27,3200,0,388.0,312.0,712.0,1524,0,0,0,0,292.8,45.17,186.6
0,0,28,3220,0,388.0,312.0,720.0,1482,0,0,0,0,288.0,48.05,146.66
0,0,29,3240,0,388.0,312.0,756.0,1143,0,0,0,0,266.4,50.71,-173.3
0,0,30,3260,0,388.0,312.0,752.0,1000,0,0,0,0,268.8,53.4,-400.0
0,0,31,3280,0,388.0,312.0,744.0,1089,0,0,0,0,273.6,56.13,-240.0
0,0,32,3300,0,388.0,308.0,744.0,1452,0,0,0,0,273.6,58.87,120.0
0,0,33,3320,0,388.0,308.0,740.0,1457,0,0,0,0,276.0,61.63,120.0
0,0,34,3340,0,388.0,308.0,744.0,1337,0,0,0,0,273.6,64.37,0.0
0,0,35,3360,0,388.0,308.0,736.0,1425,0,0,0,0,278.4,67.15,80.0
0,0,36,3380,0,388.0,308.0,736.0,1388,0,0,0,0,278.4,69.93,40.0
0,0,37,3400,0,388.0,308.0,744.0,1346,0,0,0,0,273.6,72.67,0.0
0,0,38,3420,0,388.0,308.0,728.0,1438,0,0,0,0,283.2,75.5,80.0
0,0,39,3440,0,388.0,308.0,740.0,1314,0,0,0,0,276.0,78.26,-40.0
0,0,40,3460,0,388.0,308.0,740.0,1397,0,0,0,0,276.0,81.02,40.0
0,0,41,3480,0,388.0,308.0,740.0,1239,0,0,0,0,276.0,83.78,-120.0
0,0,42,3500,0,388.0,308.0,736.0,1404,0,0,0,0,278.4,86.57,40.0
0,0,43,3520,0,392.0,308.0,728.0,1492,0,0,0,0,283.2,89.4,120.0
0,0,44,3540,0,392.0,308.0,732.0,1453,0,0,0,0,280.8,92.21,80.0
0,0,45,3560,0,392.0,308.0,728.0,1458,0,0,0,0,283.2,95.04,80.0
0,0,46,3580,0,392.0,308.0,732.0,1338,0,0,0,0,280.8,97.85,-40.0
0,0,47,3600,0,392.0,312.0,740.0,1296,0,0,0,0,276.0,100.61,-80.0
0,0,48,3620,0,388.0,312.0,732.0,1344,0,0,0,0,280.8,103.41,-40.0
0,0,49,3640,0,388.0,312.0,704.0,1683,0,0,0,0,297.6,106.39,280.0
0,0,50,3660,0,388.0,312.0,736.0,1427,0,0,0,0,278.4,109.17,40.0
0,0,51,3680,0,388.0,312.0,744.0,1265,0,0,0,0,273.6,111.91,-120.0
0,0,52,3700,0,388.0,308.0,724.0,1200,0,0,0,0,285.6,114.77,-200.0
0,0,53,3720,0,388.0,308.0,748.0,1268,0,0,0,0,271.2,117.48,-120.0
0,0,54,3740,0,388.0,308.0,728.0,1563,0,0,0,0,283.2,120.31,160.0
0,0,55,3760,0,388.0,308.0,736.0,1281,0,0,0,0,278.4,123.09,-120.0
0,0,56,3780,0,388.0,308.0,724.0,1651,0,0,0,0,285.6,125.95,240.0
0,0,57,3800,0,388.0,312.0,736.0,1327,0,0,0,0,278.4,128.73,-80.0
0,0,58,3820,0,388.0,312.0,724.0,1537,0,0,0,0,285.6,131.59,120.0
0,0,59,3840,0,388.0,312.0,740.0,1250,0,0,0,0,276.0,134.35,-160.0
0,0,60,3860,0,388.0,312.0,744.0,1330,0,0,0,0,273.6,137.09,-80.0
0,0,61,3880,0,388.0,312.0,748.0,1171,0,0,0,0,271.2,139.8,-240.0
0,0,62,3900,0,388.0,312.0,732.0,1503,0,0,0,0,280.8,142.61,80.0
0,0,63,3920,0,388.0,312.0,704.0,1800,0,0,0,0,297.6,145.58,400.0
0,0,64,3940,0,388.0,312.0,732.0,1589,0,0,0,0,280.8,148.39,160.0
0,0,65,3960,0,388.0,312.0,724.0,1516,0,0,0,0,285.6,151.25,80.0
0,0,66,3980,0,388.0,308.0,740.0,1070,0,0,0,0,276.0,154.01,-360.0
0,0,67,4000,0,388.0,308.0,712.0,1649,0,0,0,0,292.8,156.93,200.0
0,0,68,4020,0,388.0,308.0,744.0,1233,0,0,0,0,273.6,159.67,-200.0
0,0,69,4040,0,388.0,308.0,732.0,1523,0,0,0,0,280.8,162.48,80.0
0,0,70,4060,0,388.0,308.0,704.0,1543,0,0,0,0,297.6,165.4,80.0
0,0,71,4080,0,388.0,308.0,736.0,1526,0,0,0,0,278.4,168.2,80.0
0,0,72,4100,0,372.0,308.0,748.0,1282,0,0,0,0,271.2,170.9,-160.0
0,0,73,4120,0,372.0,308.0,740.0,1089,0,0,0,0,276.0,173.7,-360.0
0,0,74,4140,0,372.0,308.0,736.0,1454,0,0,0,0,278.4,176.4,0.0
0,0,75,4160,0,372.0,308.0,740.0,1535,0,0,0,0,276.0,179.2,80.0
0,0,76,4180,0,372.0,284.0,740.0,1458,0,0,0,0,276.0,182.0,0.0
0,0,77,4200,0,388.0,284.0,736.0,1463,0,0,0,0,278.4,184.8,0.0
0,0,78,4220,0,388.0,284.0,740.0,1463,0,0,0,0,276.0,187.5,0.0
0,0,79,4240,0,388.0,284.0,728.0,1593,0,0,0,0,283.2,190.3,120.0
0,0,80,4260,0,388.0,284.0,752.0,1301,0,0,0,0,268.8,193.0,-160.0
0,0,81,4280,0,388.0,308.0,732.0,1556,0,0,0,0,280.8,195.8,80.0
0,0,82,4300,0,388.0,308.0,744.0,1312,0,0,0,0,273.6,198.6,-160.0
0,0,83,4320,0,388.0,308.0,740.0,1597,0,0,0,0,276.0,201.3,120.0
0,0,84,4340,0,388.0,308.0,732.0,1484,0,0,0,0,280.8,204.1,0.0
0,0,85,4360,0,388.0,308.0,732.0,1607,0,0,0,0,280.8,207.0,120.0
0,0,86,4380,0,388.0,308.0,740.0,1485,0,0,0,0,276.0,209.7,0.0
0,0,87,4400,0,392.0,308.0,748.0,1323,0,0,0,0,271.2,212.4,-160.0
0,0,88,4420,0,392.0,308.0,732.0,1496,0,0,0,0,280.8,215.2,0.0
0,0,89,4440,0,392.0,308.0,732.0,1578,0,0,0,0,280.8,218.0,80.0
0,0,90,4460,0,392.0,308.0,740.0,1576,0,0,0,0,276.0,220.8,80.0
0,0,91,4480,0,392.0,312.0,744.0,1377,0,0,0,0,273.6,223.5,-120.0
0,0,92,4500,0,388.0,312.0,740.0,1422,0,0,0,0,276.0,226.3,-80.0
0,0,93,4520,0,388.0,312.0,756.0,1335,0,0,0,0,266.4,229.0,-160.0
0,0,94,4540,0,388.0,312.0,740.0,1547,0,0,0,0,276.0,231.7,40.0
0,0,95,4560,0,388.0,312.0,736.0,1552,0,0,0,0,278.4,234.5,40.0
0,0,96,4580,0,388.0,312.0,740.0,1673,0,0,0,0,276.0,237.3,160.0
0,0,97,4600,0,388.0,312.0,728.0,1643,0,0,0,0,283.2,240.1,120.0
0,0,98,4620,0,388.0,312.0,732.0,1563,0,0,0,0,280.8,242.9,40.0
0,0,99,4640,0,388.0,312.0,752.0,1394,0,0,0,0,268.8,245.6,-120.0
0,0,100,4660,0,388.0,312.0,732.0,1489,0,0,0,0,280.8,248.4,-40.0
0,0,101,4680,0,388.0,308.0,744.0,1404,0,0,0,0,273.6,251.1,-120.0
0,0,102,4700,0,392.0,308.0,732.0,1734,0,0,0,0,280.8,253.9,200.0
0,0,103,4720,0,392.0,308.0,716.0,1707,0,0,0,0,290.4,256.8,160.0
0,0,104,4740,0,392.0,308.0,748.0,1490,0,0,0,0,271.2,259.6,-40.0
0,0,105,4760,0,392.0,308.0,728.0,1585,0,0,0,0,283.2,262.4,40.0
0,0,106,4780,0,392.0,308.0,720.0,1513,0,0,0,0,288.0,265.3,-40.0
0,0,107,4800,0,388.0,308.0,720.0,1800,0,0,0,0,288.0,268.2,280.0
0,0,108,4820,0,388.0,308.0,728.0,1554,0,0,0,0,283.2,271.0,0.0
0,0,109,4840,0,388.0,308.0,732.0,1434,0,0,0,0,280.8,273.8,-120.0
0,0,110,4860,0,388.0,308.0,744.0,1310,0,0,0,0,273.6,276.5,-240.0
0,0,111,4880,0,388.0,308.0,748.0,1350,0,0,0,0,271.2,279.2,-200.0
0,0,112,4900,0,388.0,308.0,748.0,1393,0,0,0,0,271.2,282.0,-160.0
0,0,113,4920,0,388.0,308.0,728.0,1728,0,0,0,0,283.2,284.8,160.0
0,0,114,4940,0,388.0,308.0,736.0,1686,0,0,0,0,278.4,287.6,120.0
0,0,115,4960,0,388.0,308.0,736.0,1688,0,0,0,0,278.4,290.4,120.0
0,0,116,4980,0,388.0,308.0,748.0,1364,0,0,0,0,271.2,293.1,-200.0
0,0,117,5000,0,388.0,308.0,728.0,1659,0,0,0,0,283.2,295.9,80.0
0,0,118,5020,0,388.0,308.0,692.0,1800,0,0,0,0,304.8,298.9,440.0
0,0,119,5040,0,388.0,308.0,724.0,1800,0,0,0,0,285.6,301.8,240.0
0,0,120,5060,0,388.0,300.0,728.0,1587,0,0,0,0,283.2,304.6,0.0
0,0,121,5080,0,388.0,300.0,728.0,1230,0,0,0,0,283.2,307.5,-360.0
0,0,122,5100,0,388.0,300.0,740.0,1426,0,0,0,0,276.0,310.2,-160.0
0,0,123,5120,0,388.0,300.0,728.0,1596,0,0,0,0,283.2,313.1,0.0
0,0,124,5140,0,388.0,300.0,724.0,1641,0,0,0,0,285.6,315.9,40.0
0,0,125,5160,0,388.0,312.0,728.0,1721,0,0,0,0,283.2,318.7,120.0
0,0,126,5180,0,388.0,312.0,724.0,1647,0,0,0,0,285.6,321.6,40.0
0,0,127,5200,0,388.0,312.0,740.0,1440,0,0,0,0,276.0,324.4,-160.0
0,0,128,5220,0,388.0,312.0,748.0,1398,0,0,0,0,271.2,327.1,-200.0
0,0,129,5240,0,388.0,312.0,724.0,1615,0,0,0,0,285.6,329.9,0.0
0,0,130,5260,0,388.0,308.0,736.0,1651,0,0,0,0,278.4,332.7,40.0
0,0,131,5280,0,388.0,308.0,752.0,1564,0,0,0,0,268.8,335.4,-40.0
0,0,132,5300,0,388.0,308.0,724.0,1623,0,0,0,0,285.6,338.3,0.0
0,0,133,5320,0,388.0,308.0,744.0,1534,0,0,0,0,273.6,341.0,-80.0
0,0,134,5340,0,388.0,308.0,760.0,1527,0,0,0,0,264.0,343.6,-80.0
0,0,135,5360,0,388.0,308.0,728.0,1589,0,0,0,0,283.2,346.5,-40.0
0,0,136,5380,0,388.0,308.0,720.0,1800,0,0,0,0,288.0,349.3,240.0
0,0,137,5400,0,388.0,308.0,724.0,1800,0,0,0,0,285.6,352.2,360.0
0,0,138,5420,0,388.0,308.0,744.0,1468,0,0,0,0,273.6,354.9,-160.0
0,0,139,5440,0,388.0,308.0,744.0,1391,0,0,0,0,273.6,357.7,-240.0
0,0,140,5460,0,388.0,312.0,740.0,1476,0,0,0,0,276.0,360.4,-160.0
0,0,141,5480,0,388.0,312.0,728.0,1800,0,0,0,0,283.2,363.3,160.0
0,0,142,5500,0,388.0,312.0,736.0,1724,0,0,0,0,278.4,366.0,80.0
0,0,143,5520,0,388.0,312.0,740.0,1644,0,0,0,0,276.0,368.8,0.0
0,0,144,5540,0,388.0,312.0,732.0,1612,0,0,0,0,280.8,371.6,-40.0
0,0,145,5560,0,388.0,308.0,736.0,1652,0,0,0,0,278.4,374.4,0.0
0,0,146,5580,0,388.0,308.0,736.0,1695,0,0,0,0,278.4,377.2,40.0
0,0,147,5600,0,388.0,308.0,740.0,1575,0,0,0,0,276.0,379.9,-80.0
0,0,148,5620,0,388.0,308.0,728.0,1746,0,0,0,0,283.2,382.8,80.0
0,0,149,5640,0,388.0,308.0,736.0,1664,0,0,0,0,278.4,385.6,0.0
0,0,150,5660,0,388.0,308.0,712.0,1800,0,0,0,0,292.8,388.5,280.0
0,0,151,5680,0,388.0,308.0,732.0,1632,0,0,0,0,280.8,391.3,-40.0
0,0,152,5700,0,388.0,308.0,740.0,1630,0,0,0,0,276.0,394.1,-40.0
0,0,153,5720,0,388.0,308.0,740.0,1392,0,0,0,0,276.0,396.8,-280.0
0,0,154,5740,0,388.0,308.0,740.0,1595,0,0,0,0,276.0,399.6,-80.0
0,0,155,5760,0,388.0,312.0,744.0,1635,0,0,0,0,273.6,402.3,-40.0
0,0,156,5780,0,388.0,312.0,736.0,1723,0,0,0,0,278.4,405.1,40.0
0,0,157,5800,0,388.0,312.0,712.0,1800,0,0,0,0,292.8,408.0,280.0
0,0,158,5820,0,388.0,312.0,740.0,1726,0,0,0,0,276.0,410.8,40.0
0,0,159,5840,0,388.0,312.0,752.0,1522,0,0,0,0,268.8,413.5,-160.0
0,0,160,5860,0,388.0,312.0,736.0,1454,0,0,0,0,278.4,416.3,-240.0
0,0,161,5880,0,388.0,312.0,736.0,1737,0,0,0,0,278.4,419.0,40.0
0,0,162,5900,0,388.0,312.0,732.0,1800,0,0,0,0,280.8,421.8,200.0
0,0,163,5920,0,388.0,312.0,736.0,1703,0,0,0,0,278.4,424.6,0.0
0,0,164,5940,0,388.0,312.0,752.0,1536,0,0,0,0,268.8,427.3,-160.0
0,0,165,5960,0,388.0,312.0,720.0,1800,0,0,0,0,288.0,430.2,120.0
0,0,166,5980,0,388.0,312.0,764.0,1414,0,0,0,0,261.6,432.8,-280.0
0,0,167,6000,0,388.0,312.0,740.0,1800,0,0,0,0,276.0,435.6,120.0
0,0,168,6020,0,388.0,312.0,740.0,1514,0,0,0,0,276.0,438.3,-200.0
0,0,169,6040,0,388.0,308.0,728.0,1800,0,0,0,0,283.2,441.2,360.0
0,0,170,6060,0,388.0,308.0,740.0,1719,0,0,0,0,276.0,443.9,0.0
0,0,171,6080,0,388.0,308.0,724.0,1800,0,0,0,0,285.6,446.8,160.0
0,0,172,6100,0,388.0,308.0,716.0,1800,0,0,0,0,290.4,449.7,120.0
0,0,173,6120,0,388.0,308.0,740.0,1728,0,0,0,0,276.0,452.4,0.0
0,0,174,6140,0,388.0,308.0,744.0,1528,0,0,0,0,273.6,455.2,-200.0
0,0,175,6160,0,388.0,308.0,744.0,1451,0,0,0,0,273.6,457.9,-280.0
0,0,176,6180,0,388.0,308.0,768.0,1439,0,0,0,0,259.2,460.5,-280.0
0,0,177,6200,0,388.0,308.0,736.0,1800,0,0,0,0,278.4,463.3,80.0
0,0,178,6220,0,388.0,308.0,748.0,1697,0,0,0,0,271.2,466.0,-40.0
0,0,179,6240,0,388.0,308.0,728.0,1800,0,0,0,0,283.2,468.8,400.0
0,0,180,6260,0,392.0,308.0,724.0,1800,0,0,0,0,285.6,471.7,120.0
0,0,181,6280,0,392.0,308.0,732.0,1800,0,0,0,0,280.8,474.5,160.0
0,0,182,6300,0,392.0,308.0,728.0,1760,0,0,0,0,283.2,477.3,0.0
0,0,183,6320,0,392.0,308.0,740.0,1596,0,0,0,0,276.0,480.1,-160.0
0,0,184,6340,0,392.0,308.0,740.0,1678,0,0,0,0,276.0,482.9,-80.0
0,0,185,6360,0,388.0,308.0,736.0,1684,0,0,0,0,278.4,485.6,-80.0
0,0,186,6380,0,388.0,308.0,744.0,1722,0,0,0,0,273.6,488.4,-40.0
0,0,187,6400,0,388.0,308.0,748.0,1682,0,0,0,0,271.2,491.1,-80.0
0,0,188,6420,0,388.0,308.0,744.0,1687,0,0,0,0,273.6,493.8,-80.0
0,0,189,6440,0,388.0,308.0,724.0,1800,0,0,0,0,285.6,496.7,200.0
0,0,190,6460,0,388.0,308.0,724.0,1800,0,0,0,0,285.6,499.5,240.0
0,0,191,6480,0,388.0,308.0,736.0,1800,0,0,0,0,278.4,502.3,80.0
0,0,192,6500,0,388.0,308.0,716.0,1800,0,0,0,0,290.4,505.2,80.0
0,0,193,6520,0,388.0,308.0,720.0,1800,0,0,0,0,288.0,508.1,40.0
0,0,194,6540,0,388.0,308.0,748.0,1662,0,0,0,0,271.2,510.8,-120.0
0,0,195,6560,0,388.0,308.0,732.0,1634,0,0,0,0,280.8,513.6,-160.0
0,0,196,6580,0,388.0,308.0,748.0,1507,0,0,0,0,271.2,516.3,-280.0
0,0,197,6600,0,388.0,308.0,740.0,1800,0,0,0,0,276.0,519.1,80.0
0,0,198,6620,0,388.0,308.0,556.0,1800,0,0,0,0,386.4,523.0,1760.0
0,0,199,6640,0,388.0,308.0,436.0,1800,0,0,0,0,458.4,527.5,3120.0
0,0,200,6660,0,392.0,308.0,396.0,1800,0,0,0,0,482.4,532.4,3440.0
0,0,201,6680,0,392.0,308.0,384.0,1800,0,0,0,0,489.6,537.3,1720.0
0,0,202,6700,0,392.0,308.0,440.0,1800,0,0,0,0,456.0,541.8,-40.0
0,0,203,6720,0,392.0,308.0,552.0,1000,0,0,0,0,388.8,545.7,-1560.0
0,0,204,6740,0,392.0,304.0,612.0,1000,0,0,0,0,352.8,549.2,-2280.0
0,0,205,6760,0,388.0,304.0,616.0,1000,0,0,0,0,350.4,552.7,-1760.0
0,0,206,6780,0,388.0,304.0,684.0,1000,0,0,0,0,309.6,555.8,-1320.0
0,0,207,6800,0,388.0,304.0,656.0,1445,0,0,0,0,326.4,559.1,-440.0
0,0,208,6820,0,388.0,304.0,644.0,1616,0,0,0,0,333.6,562.4,-280.0
0,0,209,6840,0,388.0,308.0,640.0,1800,0,0,0,0,336.0,565.8,440.0
0,0,210,6860,0,388.0,308.0,572.0,1800,0,0,0,0,376.8,569.6,840.0
0,0,211,6880,0,388.0,308.0,548.0,1800,0,0,0,0,391.2,573.5,960.0
0,0,212,6900,0,388.0,308.0,532.0,1800,0,0,0,0,400.8,577.5,1080.0
0,0,213,6920,0,388.0,308.0,632.0,1321,0,0,0,0,340.8,580.9,-600.0
0,0,214,6940,0,388.0,304.0,748.0,1000,0,0,0,0,271.2,583.6,-2000.0
0,0,215,6960,0,388.0,304.0,724.0,1000,0,0,0,0,285.6,586.5,-1920.0
0,0,216,6980,0,388.0,304.0,748.0,1000,0,0,0,0,271.2,589.2,-1160.0
0,0,217,7000,0,388.0,304.0,744.0,1800,0,0,0,0,273.6,591.9,40.0
0,0,218,7020,0,388.0,304.0,712.0,1800,0,0,0,0,292.8,594.8,120.0
0,0,219,7040,0,388.0,304.0,732.0,1800,0,0,0,0,280.8,597.6,160.0
0,0,220,7060,0,388.0,304.0,736.0,1800,0,0,0,0,278.4,600.4,80.0
0,0,221,7080,0,388.0,304.0,744.0,1556,0,0,0,0,273.6,603.2,-320.0
0,0,222,7100,0,388.0,304.0,732.0,1800,0,0,0,0,280.8,606.0,0.0
0,0,223,7120,0,388.0,308.0,732.0,1800,0,0,0,0,280.8,608.8,40.0
0,0,224,7140,0,388.0,308.0,760.0,1715,0,0,0,0,264.0,611.4,-160.0
0,0,225,7160,0,388.0,308.0,736.0,1800,0,0,0,0,278.4,614.2,-40.0
0,0,226,7180,0,388.0,308.0,728.0,1800,0,0,0,0,283.2,617.0,40.0
0,0,227,7200,0,388.0,308.0,760.0,1800,0,0,0,0,264.0,619.7,0.0
0,0,228,7220,0,388.0,308.0,732.0,1800,0,0,0,0,280.8,622.5,40.0
0,0,229,7240,0,388.0,308.0,732.0,1800,0,0,0,0,280.8,625.3,-40.0
0,0,230,7260,0,388.0,308.0,724.0,1800,0,0,0,0,285.6,628.2,360.0
0,0,231,7280,0,388.0,308.0,492.0,1800,0,0,0,0,424.8,632.4,2400.0
0,0,232,7300,0,388.0,308.0,280.0,1800,0,0,0,0,552.0,637.9,4520.0
0,0,233,7320,0,388.0,308.0,244.0,1800,0,0,0,0,573.6,643.7,4800.0
0,0,234,7340,0,388.0,308.0,188.0,1800,0,0,0,0,607.2,649.7,3040.0
0,0,235,7360,0,388.0,308.0,172.0,1800,0,0,0,0,616.8,655.9,1080.0
0,0,236,7380,0,388.0,308.0,188.0,1800,0,0,0,0,607.2,662.0,560.0
0,0,237,7400,0,388.0,308.0,228.0,1800,0,0,0,0,583.2,667.8,-400.0
0,0,238,7420,0,388.0,304.0,216.0,1800,0,0,0,0,590.4,673.7,-440.0
0,0,239,7440,0,388.0,304.0,256.0,1565,0,0,0,0,566.4,679.4,-680.0
0,0,240,7460,0,388.0,304.0,292.0,1589,0,0,0,0,544.8,684.8,-640.0
0,0,241,7480,0,388.0,304.0,304.0,1347,0,0,0,0,537.6,690.2,-880.0
0,0,242,7500,0,388.0,304.0,360.0,1159,0,0,0,0,504.0,695.2,-1040.0
0,0,243,7520,0,388.0,304.0,656.0,1000,0,0,0,0,326.4,698.5,-3640.0
0,0,244,7540,0,388.0,304.0,756.0,1000,0,0,0,0,266.4,701.2,-4520.0
0,0,245,7560,0,388.0,304.0,744.0,1000,0,0,0,0,273.6,703.9,-3840.0
0,0,246,7580,0,388.0,304.0,744.0,1100,0,0,0,0,273.6,706.6,-880.0
0,0,247,7600,0,388.0,304.0,724.0,1800,0,0,0,0,285.6,709.5,320.0
0,0,248,7620,0,388.0,308.0,736.0,1800,0,0,0,0,278.4,712.3,80.0
0,0,249,7640,0,392.0,308.0,704.0,1800,0,0,0,0,297.6,715.2,400.0
0,0,250,7660,0,392.0,308.0,752.0,1706,0,0,0,0,268.8,717.9,-280.0
0,0,251,7680,0,392.0,308.0,732.0,1800,0,0,0,0,280.8,720.7,40.0
0,0,252,7700,0,392.0,308.0,736.0,1681,0,0,0,0,278.4,723.5,-320.0
0,0,253,7720,0,392.0,308.0,728.0,1800,0,0,0,0,283.2,726.4,240.0
0,0,254,7740,0,392.0,308.0,724.0,1800,0,0,0,0,285.6,729.2,80.0
0,0,255,7760,0,392.0,308.0,708.0,1800,0,0,0,0,295.2,732.2,280.0
0,0,256,7780,0,392.0,308.0,336.0,1800,0,0,0,0,518.4,737.4,3920.0
0,0,257,7800,0,392.0,308.0,276.0,1800,0,0,0,0,554.4,742.9,4480.0
0,0,258,7820,0,392.0,308.0,268.0,1800,0,0,0,0,559.2,748.5,4400.0
0,0,259,7840,0,392.0,308.0,236.0,1800,0,0,0,0,578.4,754.3,1000.0
0,0,260,7860,0,392.0,308.0,212.0,1800,0,0,0,0,592.8,760.2,640.0
0,0,261,7880,0,392.0,308.0,204.0,1800,0,0,0,0,597.6,766.2,640.0
0,0,262,7900,0,392.0,308.0,220.0,1800,0,0,0,0,588.0,772.1,160.0
0,0,263,7920,0,392.0,308.0,196.0,1800,0,0,0,0,602.4,778.1,160.0
0,0,264,7940,0,388.0,308.0,204.0,1800,0,0,0,0,597.6,784.1,0.0
0,0,265,7960,0,388.0,308.0,240.0,1800,0,0,0,0,576.0,789.8,-200.0
0,0,266,7980,0,388.0,308.0,280.0,1507,0,0,0,0,552.0,795.3,-840.0
0,0,267,8000,0,388.0,304.0,272.0,1677,0,0,0,0,556.8,800.9,-680.0
0,0,268,8020,0,388.0,304.0,292.0,1800,0,0,0,0,544.8,806.4,-520.0
0,0,269,8040,0,392.0,304.0,328.0,1800,0,0,0,0,523.2,811.6,-480.0
0,0,270,8060,0,392.0,304.0,552.0,1000,0,0,0,0,388.8,815.5,-2800.0
0,0,271,8080,0,392.0,304.0,740.0,1000,0,0,0,0,276.0,818.2,-4480.0
0,0,272,8100,0,392.0,308.0,740.0,1000,0,0,0,0,276.0,821.0,-4120.0
0,0,273,8120,0,392.0,308.0,732.0,1000,0,0,0,0,280.8,823.8,-1800.0
0,0,274,8140,0,392.0,308.0,744.0,1800,0,0,0,0,273.6,826.5,-40.0
0,0,275,8160,0,392.0,308.0,712.0,1800,0,0,0,0,292.8,829.5,280.0
0,0,276,8180,0,392.0,308.0,752.0,1800,0,0,0,0,268.8,832.2,-200.0
0,0,277,8200,0,392.0,308.0,748.0,1800,0,0,0,0,271.2,834.9,-40.0
0,0,278,8220,0,392.0,308.0,724.0,1800,0,0,0,0,285.6,837.7,-120.0
0,0,279,8240,0,392.0,308.0,736.0,1800,0,0,0,0,278.4,840.5,160.0
0,0,280,8260,0,392.0,308.0,732.0,1800,0,0,0,0,280.8,843.3,160.0
0,0,281,8280,0,392.0,308.0,744.0,1800,0,0,0,0,273.6,846.0,-200.0
0,0,282,8300,0,392.0,308.0,516.0,1800,0,0,0,0,410.4,850.2,2200.0
0,0,283,8320,0,392.0,308.0,304.0,1800,0,0,0,0,537.6,855.5,4280.0
0,0,284,8340,0,392.0,308.0,264.0,1800,0,0,0,0,561.6,861.1,4800.0
0,0,285,8360,0,392.0,308.0,256.0,1800,0,0,0,0,566.4,866.8,2600.0
0,0,286,8380,0,392.0,308.0,236.0,1800,0,0,0,0,578.4,872.6,680.0
0,0,287,8400,0,392.0,304.0,196.0,1800,0,0,0,0,602.4,878.6,680.0
0,0,288,8420,0,392.0,304.0,192.0,1800,0,0,0,0,604.8,884.7,640.0
0,0,289,8440,0,392.0,304.0,200.0,1800,0,0,0,0,600.0,890.7,360.0
0,0,290,8460,0,392.0,304.0,176.0,1800,0,0,0,0,614.4,896.8,200.0
0,0,291,8480,0,392.0,304.0,216.0,1800,0,0,0,0,590.4,902.7,-240.0
0,0,292,8500,0,392.0,308.0,236.0,1800,0,0,0,0,578.4,908.5,-360.0
0,0,293,8520,0,388.0,308.0,276.0,1468,0,0,0,0,554.4,914.0,-1000.0
0,0,294,8540,0,388.0,308.0,284.0,1789,0,0,0,0,549.6,919.5,-680.0
0,0,295,8560,0,388.0,308.0,320.0,1612,0,0,0,0,528.0,924.8,-840.0
0,0,296,8580,0,388.0,308.0,368.0,1509,0,0,0,0,499.2,929.8,-920.0
0,0,297,8600,0,388.0,308.0,504.0,1000,0,0,0,0,417.6,934.0,-2200.0
0,0,298,8620,0,392.0,308.0,740.0,1000,0,0,0,0,276.0,936.7,-4200.0
0,0,299,8640,0,392.0,308.0,736.0,1000,0,0,0,0,278.4,939.5,-3680.0
0,0,300,8660,0,392.0,308.0,724.0,1000,0,0,0,0,285.6,942.4,-2200.0
0,0,301,8680,0,392.0,308.0,728.0,1800,0,0,0,0,283.2,945.2,120.0
0,0,302,8700,0,392.0,308.0,752.0,1800,0,0,0,0,268.8,947.9,-160.0
0,0,303,8720,0,388.0,308.0,728.0,1800,0,0,0,0,283.2,950.7,-40.0
0,0,304,8740,0,388.0,308.0,724.0,1800,0,0,0,0,285.6,953.6,40.0
0,0,305,8760,0,388.0,308.0,708.0,1800,0,0,0,0,295.2,956.5,440.0
0,0,306,8780,0,388.0,308.0,724.0,1800,0,0,0,0,285.6,959.4,40.0
0,0,307,8800,0,388.0,308.0,724.0,1800,0,0,0,0,285.6,962.3,0.0
0,0,308,8820,0,388.0,308.0,728.0,1800,0,0,0,0,283.2,965.1,-200.0
0,0,309,8840,0,388.0,308.0,720.0,1800,0,0,0,0,288.0,968.0,40.0
0,0,310,8860,0,388.0,308.0,732.0,1800,0,0,0,0,280.8,970.8,-80.0
0,0,311,8880,0,388.0,308.0,732.0,1800,0,0,0,0,280.8,973.6,-40.0
0,0,312,8900,0,388.0,312.0,748.0,1800,0,0,0,0,271.2,976.3,-280.0
0,0,313,8920,0,392.0,312.0,736.0,1800,0,0,0,0,278.4,979.1,-40.0
0,0,314,8940,0,392.0,312.0,752.0,1800,0,0,0,0,268.8,981.8,-200.0
0,0,315,8960,0,392.0,312.0,732.0,1800,0,0,0,0,280.8,984.6,160.0
0,0,316,8980,0,392.0,308.0,732.0,1800,0,0,0,0,280.8,987.4,40.0
0,0,317,9000,0,392.0,308.0,740.0,1800,0,0,0,0,276.0,990.1,120.0
0,0,318,9020,0,392.0,308.0,752.0,1800,0,0,0,0,268.8,992.8,-200.0
0,0,319,9040,0,392.0,308.0,752.0,1800,0,0,0,0,268.8,995.5,-200.0
0,0,320,9060,0,392.0,308.0,712.0,1800,0,0,0,0,292.8,998.4,280.0
0,0,321,9080,0,392.0,308.0,724.0,1800,0,0,0,0,285.6,999.9,280.0
0,0,322,9100,0,392.0,308.0,712.0,1800,0,0,0,0,292.8,999.9,400.0
0,0,323,9120,0,392.0,308.0,700.0,1800,0,0,0,0,300.0,999.9,120.0
0,0,324,9140,0,392.0,308.0,656.0,1800,0,0,0,0,326.4,999.9,680.0
0,0,325,9160,0,392.0,308.0,608.0,1800,0,0,0,0,355.2,999.9,1040.0
0,0,326,9180,0,392.0,300.0,536.0,1800,0,0,0,0,398.4,999.9,1640.0
0,0,327,9200,0,392.0,300.0,536.0,1800,0,0,0,0,398.4,999.9,1200.0
0,0,328,9220,0,392.0,300.0,592.0,1800,0,0,0,0,364.8,999.9,160.0
0,0,329,9240,0,392.0,300.0,720.0,1000,0,0,0,0,288.0,999.9,-1840.0
0,0,330,9260,0,392.0,300.0,736.0,1000,0,0,0,0,278.4,999.9,-2000.0
0,0,331,9280,0,392.0,308.0,720.0,1007,0,0,0,0,288.0,999.9,-1280.0
0,0,332,9300,0,388.0,308.0,720.0,1800,0,0,0,0,288.0,999.9,0.0
0,0,333,9320,0,388.0,308.0,740.0,1800,0,0,0,0,276.0,999.9,-40.0
0,0,334,9340,0,388.0,308.0,716.0,1800,0,0,0,0,290.4,999.9,40.0
0,0,335,9360,0,388.0,308.0,728.0,1800,0,0,0,0,283.2,999.9,-80.0
0,0,336,9380,0,388.0,308.0,728.0,1800,0,0,0,0,283.2,999.9,120.0
0,0,337,9400,0,392.0,308.0,740.0,1800,0,0,0,0,276.0,999.9,-240.0
0,0,338,9420,0,392.0,308.0,744.0,1800,0,0,0,0,273.6,999.9,-160.0
0,0,339,9440,0,392.0,308.0,728.0,1800,0,0,0,0,283.2,999.9,0.0
0,0,340,9460,0,392.0,308.0,728.0,1800,0,0,0,0,283.2,999.9,120.0
0,0,341,9480,0,392.0,308.0,736.0,1800,0,0,0,0,278.4,999.9,80.0
0,0,342,9500,0,392.0,308.0,736.0,1800,0,0,0,0,278.4,999.9,-80.0
0,0,343,9520,0,392.0,308.0,740.0,1800,0,0,0,0,276.0,999.9,-120.0
0,0,344,9540,0,392.0,308.0,424.0,1800,0,0,0,0,465.6,999.9,3120.0
0,0,345,9560,0,392.0,308.0,208.0,1800,0,0,0,0,595.2,999.9,5280.0
0,0,346,9580,0,392.0,304.0,244.0,1800,0,0,0,0,573.6,999.9,4960.0
0,0,347,9600,0,392.0,304.0,312.0,1800,0,0,0,0,532.8,999.9,1120.0
0,0,348,9620,0,392.0,304.0,360.0,1000,0,0,0,0,504.0,999.9,-1520.0
0,0,349,9640,0,392.0,304.0,324.0,1725,0,0,0,0,525.6,999.9,-800.0
0,0,350,9660,0,392.0,304.0,268.0,1800,0,0,0,0,559.2,999.9,440.0
0,0,351,9680,0,392.0,304.0,248.0,1800,0,0,0,0,571.2,999.9,1120.0
0,0,352,9700,0,392.0,304.0,224.0,1800,0,0,0,0,585.6,999.9,1000.0
0,0,353,9720,0,392.0,304.0,292.0,1800,0,0,0,0,544.8,999.9,-240.0
0,0,354,9740,0,392.0,304.0,544.0,1000,0,0,0,0,393.6,999.9,-2960.0
0,0,355,9760,0,392.0,304.0,728.0,1000,0,0,0,0,283.2,999.9,-5040.0
0,0,356,9780,0,392.0,304.0,728.0,1000,0,0,0,0,283.2,999.9,-4360.0
0,0,357,9800,0,396.0,304.0,720.0,1000,0,0,0,0,288.0,999.9,-1760.0
0,0,358,9820,0,396.0,304.0,752.0,1800,0,0,0,0,268.8,999.9,-240.0
0,0,359,9840,0,396.0,304.0,732.0,1800,0,0,0,0,280.8,999.9,-40.0
0,0,360,9860,0,396.0,304.0,760.0,1800,0,0,0,0,264.0,999.9,-400.0
0,0,361,9880,0,396.0,308.0,712.0,1800,0,0,0,0,292.8,999.9,400.0
0,0,362,9900,0,392.0,308.0,740.0,1800,0,0,0,0,276.0,999.9,-80.0
0,0,363,9920,0,392.0,308.0,724.0,1800,0,0,0,0,285.6,999.9,360.0
0,0,364,9940,0,392.0,308.0,724.0,1800,0,0,0,0,285.6,999.9,-120.0
0,0,365,9960,0,392.0,308.0,732.0,1800,0,0,0,0,280.8,999.9,80.0
0,0,366,9980,0,392.0,304.0,744.0,1800,0,0,0,0,273.6,999.9,-200.0
0,0,367,10000,0,392.0,304.0,724.0,1800,0,0,0,0,285.6,999.9,0.0
0,0,368,10020,0,392.0,304.0,724.0,1800,0,0,0,0,285.6,999.9,80.0
0,0,369,10040,0,392.0,304.0,716.0,1800,0,0,0,0,290.4,999.9,280.0
0,0,370,10060,0,392.0,304.0,740.0,1800,0,0,0,0,276.0,999.9,-160.0
0,0,371,10080,0,392.0,304.0,720.0,1800,0,0,0,0,288.0,999.9,40.0
0,0,372,10100,0,392.0,304.0,696.0,1800,0,0,0,0,302.4,999.9,200.0
0,0,373,10120,0,392.0,304.0,612.0,1800,0,0,0,0,352.8,999.9,1280.0
0,0,374,10140,0,392.0,304.0,616.0,1800,0,0,0,0,350.4,999.9,1040.0
0,0,375,10160,0,392.0,308.0,584.0,1800,0,0,0,0,369.6,999.9,1120.0
0,0,376,10180,0,392.0,308.0,648.0,1800,0,0,0,0,331.2,999.9,-360.0
0,0,377,10200,0,392.0,308.0,656.0,1800,0,0,0,0,326.4,999.9,-400.0
0,0,378,10220,0,392.0,308.0,684.0,1309,0,0,0,0,309.6,999.9,-1000.0
0,0,379,10240,0,392.0,308.0,728.0,1483,0,0,0,0,283.2,999.9,-800.0
0,0,380,10260,0,392.0,304.0,728.0,1563,0,0,0,0,283.2,999.9,-720.0
0,0,381,10280,0,388.0,304.0,732.0,1800,0,0,0,0,280.8,999.9,-480.0
0,0,382,10300,0,388.0,304.0,744.0,1800,0,0,0,0,273.6,999.9,-160.0
0,0,383,10320,0,388.0,304.0,704.0,1800,0,0,0,0,297.6,999.9,240.0
0,0,384,10340,0,388.0,304.0,696.0,1800,0,0,0,0,302.4,999.9,360.0
0,0,385,10360,0,388.0,308.0,732.0,1800,0,0,0,0,280.8,999.9,120.0
0,0,386,10380,0,388.0,308.0,756.0,1746,0,0,0,0,266.4,999.9,-520.0
0,0,387,10400,0,388.0,308.0,716.0,1800,0,0,0,0,290.4,999.9,-200.0
0,0,388,10420,0,388.0,308.0,720.0,1800,0,0,0,0,288.0,999.9,120.0
0,0,389,10440,0,388.0,308.0,736.0,1800,0,0,0,0,278.4,999.9,200.0
0,0,390,10460,0,388.0,312.0,736.0,1800,0,0,0,0,278.4,999.9,-200.0
0,0,391,10480,0,392.0,312.0,720.0,1800,0,0,0,0,288.0,999.9,0.0
0,0,392,10500,0,392.0,312.0,720.0,1800,0,0,0,0,288.0,999.9,160.0
0,0,393,10520,0,392.0,312.0,744.0,1800,0,0,0,0,273.6,999.9,-80.0
0,0,394,10540,0,392.0,312.0,732.0,1800,0,0,0,0,280.8,999.9,-120.0
0,0,395,10560,0,392.0,308.0,732.0,1800,0,0,0,0,280.8,999.9,-120.0
0,0,396,10580,0,388.0,308.0,724.0,1800,0,0,0,0,285.6,999.9,200.0
0,0,397,10600,0,388.0,308.0,712.0,1800,0,0,0,0,292.8,999.9,200.0
0,0,398,10620,0,388.0,308.0,736.0,1800,0,0,0,0,278.4,999.9,-40.0
0,0,399,10640,0,388.0,308.0,740.0,1800,0,0,0,0,276.0,999.9,-160.0
0,0,400,10660,0,388.0,308.0,736.0,1800,0,0,0,0,278.4,999.9,-240.0
0,0,401,10680,0,388.0,308.0,728.0,1800,0,0,0,0,283.2,999.9,80.0
0,0,402,10700,0,388.0,308.0,736.0,1800,0,0,0,0,278.4,999.9,40.0
0,0,403,10720,0,388.0,308.0,732.0,1800,0,0,0,0,280.8,999.9,40.0
0,0,404,10740,0,388.0,308.0,752.0,1800,0,0,0,0,268.8,999.9,-240.0
0,0,405,10760,0,388.0,308.0,732.0,1800,0,0,0,0,280.8,999.9,40.0
0,0,406,10780,0,388.0,308.0,732.0,1800,0,0,0,0,280.8,999.9,0.0
0,0,407,10800,0,388.0,308.0,740.0,1800,0,0,0,0,276.0,999.9,120.0
0,0,408,10820,0,388.0,308.0,740.0,1800,0,0,0,0,276.0,999.9,-80.0
0,0,409,10840,0,388.0,308.0,724.0,1800,0,0,0,0,285.6,999.9,80.0
0,0,410,10860,0,388.0,324.0,760.0,1800,0,0,0,0,264.0,999.9,-200.0
0,0,411,10880,0,388.0,324.0,732.0,1800,0,0,0,0,280.8,999.9,80.0
0,0,412,10900,0,388.0,324.0,740.0,1800,0,0,0,0,276.0,999.9,-160.0
0,0,413,10920,0,388.0,324.0,744.0,1800,0,0,0,0,273.6,999.9,160.0
0,0,414,10940,0,388.0,324.0,744.0,1800,0,0,0,0,273.6,999.9,-120.0
0,0,415,10960,0,388.0,304.0,720.0,1800,0,0,0,0,288.0,999.9,200.0
0,0,416,10980,0,388.0,304.0,744.0,1800,0,0,0,0,273.6,999.9,0.0
0,0,417,11000,0,388.0,304.0,736.0,1800,0,0,0,0,278.4,999.9,80.0
0,0,418,11020,0,388.0,304.0,724.0,1800,0,0,0,0,285.6,999.9,-40.0
0,0,419,11040,0,388.0,308.0,728.0,1800,0,0,0,0,283.2,999.9,160.0
0,0,420,11060,0,388.0,308.0,724.0,1800,0,0,0,0,285.6,999.9,120.0
0,0,421,11080,0,388.0,308.0,736.0,1800,0,0,0,0,278.4,999.9,-120.0
0,0,422,11100,0,388.0,308.0,732.0,1800,0,0,0,0,280.8,999.9,-40.0
0,0,423,11120,0,388.0,308.0,744.0,1800,0,0,0,0,273.6,999.9,-200.0
0,0,424,11140,0,388.0,308.0,732.0,1800,0,0,0,0,280.8,999.9,40.0
0,0,425,11160,0,388.0,308.0,748.0,1800,0,0,0,0,271.2,999.9,-160.0
0,0,426,11180,0,388.0,308.0,732.0,1800,0,0,0,0,280.8,999.9,120.0
0,0,427,11200,0,388.0,308.0,752.0,1800,0,0,0,0,268.8,999.9,-200.0
0,0,428,11220,0,388.0,308.0,716.0,1800,0,0,0,0,290.4,999.9,320.0
0,0,429,11240,0,388.0,304.0,736.0,1800,0,0,0,0,278.4,999.9,-40.0
0,0,430,11260,0,388.0,304.0,724.0,1800,0,0,0,0,285.6,999.9,280.0
0,0,431,11280,0,388.0,304.0,740.0,1800,0,0,0,0,276.0,999.9,-240.0
0,0,432,11300,0,388.0,304.0,736.0,1800,0,0,0,0,278.4,999.9,0.0
0,0,433,11320,0,388.0,304.0,752.0,1800,0,0,0,0,268.8,999.9,-280.0
0,0,434,11340,0,388.0,308.0,728.0,1800,0,0,0,0,283.2,999.9,120.0
0,0,435,11360,0,388.0,308.0,744.0,1800,0,0,0,0,273.6,999.9,-80.0
0,0,436,11380,0,388.0,308.0,744.0,1800,0,0,0,0,273.6,999.9,80.0
0,0,437,11400,0,388.0,308.0,712.0,1800,0,0,0,0,292.8,999.9,160.0
0,0,438,11420,0,388.0,308.0,732.0,1800,0,0,0,0,280.8,999.9,120.0
0,0,439,11440,0,388.0,308.0,752.0,1800,0,0,0,0,268.8,999.9,-80.0
0,0,440,11460,0,388.0,308.0,748.0,1800,0,0,0,0,271.2,999.9,-360.0
0,0,441,11480,0,388.0,308.0,712.0,1800,0,0,0,0,292.8,999.9,200.0
0,0,442,11500,0,388.0,308.0,724.0,1800,0,0,0,0,285.6,999.9,280.0
0,0,443,11520,0,388.0,308.0,724.0,1800,0,0,0,0,285.6,999.9,240.0
0,0,444,11540,0,388.0,304.0,724.0,1800,0,0,0,0,285.6,999.9,-120.0
0,0,445,11560,0,392.0,304.0,748.0,1800,0,0,0,0,271.2,999.9,-240.0
0,0,446,11580,0,392.0,304.0,728.0,1800,0,0,0,0,283.2,999.9,-40.0
0,0,447,11600,0,392.0,304.0,752.0,1800,0,0,0,0,268.8,999.9,-280.0
0,0,448,11620,0,392.0,304.0,716.0,1800,0,0,0,0,290.4,999.9,320.0
0,0,449,11640,0,392.0,308.0,728.0,1800,0,0,0,0,283.2,999.9,0.0
0,0,450,11660,0,388.0,308.0,752.0,1800,0,0,0,0,268.8,999.9,0.0
0,0,451,11680,0,388.0,308.0,716.0,1800,0,0,0,0,290.4,999.9,0.0
0,0,452,11700,0,388.0,308.0,744.0,1800,0,0,0,0,273.6,999.9,-160.0
0,0,453,11720,0,388.0,308.0,740.0,1800,0,0,0,0,276.0,999.9,120.0
0,0,454,11740,0,388.0,308.0,720.0,1800,0,0,0,0,288.0,999.9,-40.0
0,0,455,11760,0,388.0,308.0,740.0,1800,0,0,0,0,276.0,999.9,40.0
0,0,456,11780,0,388.0,308.0,756.0,1800,0,0,0,0,266.4,999.9,-160.0
0,0,457,11800,0,388.0,308.0,740.0,1800,0,0,0,0,276.0,999.9,-200.0
0,0,458,11820,0,388.0,308.0,732.0,1800,0,0,0,0,280.8,999.9,80.0
0,0,459,11840,0,388.0,308.0,728.0,1800,0,0,0,0,283.2,999.9,280.0
0,0,460,11860,0,388.0,308.0,760.0,1800,0,0,0,0,264.0,999.9,-200.0
0,0,461,11880,0,388.0,308.0,724.0,1800,0,0,0,0,285.6,999.9,80.0
0,0,462,11900,0,388.0,308.0,740.0,1800,0,0,0,0,276.0,999.9,-120.0
0,0,463,11920,0,388.0,308.0,724.0,1800,0,0,0,0,285.6,999.9,360.0
0,0,464,11940,0,388.0,308.0,744.0,1800,0,0,0,0,273.6,999.9,-200.0
0,0,465,11960,0,388.0,308.0,724.0,1800,0,0,0,0,285.6,999.9,160.0
0,0,466,11980,0,388.0,308.0,752.0,1800,0,0,0,0,268.8,999.9,-280.0
0,0,467,12000,0,388.0,308.0,748.0,1800,0,0,0,0,271.2,999.9,-40.0
0,0,468,12020,0,388.0,312.0,736.0,1800,0,0,0,0,278.4,999.9,-120.0
0,0,469,12040,0,388.0,312.0,728.0,1800,0,0,0,0,283.2,999.9,240.0
0,0,470,12060,0,384.0,312.0,724.0,1800,0,0,0,0,285.6,999.9,240.0
