InitialVarHeader,InitialVars,logNo,timeStep,controlMode,forwardSensor1,forwardSensor2,AltitudeSensor,throttleControl,yawControl,rollControl,pitchControl,stablilityModeControl,errorP,errorI,errorD
ALTITUDE_KP,0.6,1,2679,0,-272200.0,432.0,20.0,1500,0,0,1450,0,6949.0,0.0,2593.0
ALTITUDE_KI,0.3,2,2699,0,452.0,432.0,40.0,1500,0,0,1550,0,29.0,0.0,-78600.0
ALTITUDE_KD,0.0,3,2719,0,452.0,432.0,20.0,1500,0,0,1550,0,29.0,0.0,-1144600.0
THROTTLE_LIMIT,1800.0,4,2739,0,452.0,432.0,32.0,1500,0,0,1550,0,29.0,0.0,-1153300.0
ALTITUDE_PID_GAIN_RATIO,1.0,5,2759,0,452.0,432.0,36.0,1500,0,0,1471,0,29.0,0.0,0.0
ALTITUDE_HOVER_HEIGHT,1200.0,6,2779,0,452.0,780.0,44.0,1500,0,0,1550,0,-58.0,0.0,-1450.0
0,0,7,2799,0,456.0,780.0,28.0,1500,0,0,1550,0,-59.0,0.0,-1466.6
0,0,8,2819,0,456.0,780.0,28.0,1500,0,0,1550,0,-59.0,0.0,-1466.6
0,0,9,2839,0,456.0,780.0,20.0,1500,0,0,1550,0,-59.0,0.0,-16.66
0,0,10,2859,0,456.0,780.0,44.0,1500,0,0,1550,0,-59.0,0.0,0.0
0,0,11,2879,0,452.0,1208.0,20.0,1500,0,0,1550,0,-165.0,0.0,-1766.0
0,0,12,2899,0,452.0,1208.0,40.0,1500,0,0,1550,0,-165.0,0.0,-1766.0
0,0,13,2919,0,452.0,1208.0,24.0,1500,0,0,1550,0,-165.0,0.0,-1766.0
0,0,14,2939,0,452.0,1208.0,24.0,1500,0,0,1550,0,-165.0,0.0,0.0
0,0,15,2959,0,452.0,1208.0,40.0,1500,0,0,1550,0,-165.0,0.0,0.0
0,0,16,2979,0,452.0,904.0,52.0,1500,0,0,1450,0,-89.0,0.0,1266.6
0,0,17,2999,0,452.0,904.0,32.0,1500,0,0,1450,0,-89.0,0.0,1266.6
0,0,18,3019,0,452.0,904.0,40.0,1500,0,0,1450,0,-89.0,0.0,1266.6
0,0,19,3039,0,452.0,904.0,36.0,1500,0,0,1550,0,-89.0,0.0,0.0
0,0,20,3059,0,452.0,904.0,16.0,1500,0,0,1550,0,-89.0,0.0,0.0
0,0,21,3079,0,452.0,1208.0,24.0,1500,0,0,1550,0,-165.0,0.0,-1266.6
0,0,22,3099,0,452.0,1208.0,36.0,1500,0,0,1550,0,-165.0,0.0,-1266.6
0,0,23,3119,0,452.0,1208.0,20.0,1500,0,0,1550,0,-165.0,0.0,-1266.6
0,0,24,3139,0,452.0,1208.0,16.0,1500,0,0,1550,0,-165.0,0.0,0.0
0,0,25,3159,0,452.0,1208.0,36.0,1500,0,0,1550,0,-165.0,0.0,0.0
0,0,26,3179,0,456.0,1120.0,32.0,1500,0,0,1450,0,-144.0,0.0,350.0
0,0,27,3200,0,456.0,1120.0,48.0,1500,0,0,1450,0,-144.0,0.0,350.0
0,0,28,3220,0,456.0,1120.0,24.0,1500,0,0,1450,0,-144.0,0.0,350.0
0,0,29,3240,0,456.0,1120.0,16.0,1500,0,0,1550,0,-144.0,0.0,0.0
0,0,30,3260,0,456.0,1120.0,28.0,1500,0,0,1550,0,-144.0,0.0,0.0
0,0,31,3280,0,452.0,1236.0,20.0,1500,0,0,1550,0,-172.0,0.0,-466.6
0,0,32,3300,0,452.0,1236.0,40.0,1500,0,0,1550,0,-172.0,0.0,-466.6
0,0,33,3320,0,452.0,1236.0,32.0,1500,0,0,1550,0,-172.0,0.0,-466.6
0,0,34,3340,0,452.0,1236.0,28.0,1500,0,0,1550,0,-172.0,0.0,0.0
0,0,35,3360,0,452.0,1236.0,36.0,1500,0,0,1550,0,-172.0,0.0,0.0
0,0,36,3380,0,452.0,1120.0,36.0,1500,0,0,1450,0,-143.0,0.0,483.3
0,0,37,3400,0,452.0,1120.0,28.0,1500,0,0,1450,0,-143.0,0.0,483.3
0,0,38,3420,0,452.0,1120.0,36.0,1500,0,0,1450,0,-143.0,0.0,483.3
0,0,39,3440,0,452.0,1120.0,36.0,1500,0,0,1550,0,-143.0,0.0,0.0
0,0,40,3460,0,452.0,1120.0,20.0,1500,0,0,1550,0,-143.0,0.0,0.0
0,0,41,3480,0,456.0,1104.0,20.0,1500,0,0,1550,0,-140.0,0.0,50.0
0,0,42,3500,0,456.0,1104.0,24.0,1500,0,0,1550,0,-140.0,0.0,50.0
0,0,43,3520,0,456.0,1104.0,48.0,1500,0,0,1550,0,-140.0,0.0,50.0
0,0,44,3540,0,456.0,1104.0,32.0,1500,0,0,1550,0,-140.0,0.0,0.0
0,0,45,3560,0,456.0,1104.0,24.0,1500,0,0,1550,0,-140.0,0.0,0.0
0,0,46,3580,0,452.0,1232.0,32.0,1500,0,0,1550,0,-171.0,0.0,-516.6
0,0,47,3600,0,452.0,1232.0,9936.0,1500,0,0,1550,0,-171.0,0.0,-516.6
0,0,48,3620,0,452.0,1232.0,28.0,1500,0,0,1550,0,-171.0,0.0,-516.6
0,0,49,3640,0,452.0,1232.0,20.0,1500,0,0,1550,0,-171.0,0.0,0.0
0,0,50,3660,0,452.0,1232.0,32.0,1500,0,0,1550,0,-171.0,0.0,0.0
0,0,51,3680,0,452.0,1232.0,32.0,1500,0,0,1550,0,-171.0,0.0,0.0
0,0,52,3700,0,452.0,1232.0,40.0,1500,0,0,1550,0,-171.0,0.0,0.0
0,0,53,3720,0,452.0,1232.0,24.0,1500,0,0,1550,0,-171.0,0.0,0.0
0,0,54,3740,0,452.0,1232.0,24.0,1500,0,0,1550,0,-171.0,0.0,0.0
0,0,55,3760,0,452.0,1212.0,28.0,1500,0,0,1550,0,-166.0,0.0,83.33
0,0,56,3780,0,452.0,1212.0,44.0,1500,0,0,1550,0,-166.0,0.0,83.33
0,0,57,3800,0,452.0,1212.0,32.0,1500,0,0,1550,0,-166.0,0.0,83.33
0,0,58,3820,0,452.0,1212.0,20.0,1500,0,0,1550,0,-166.0,0.0,0.0
0,0,59,3840,0,452.0,1212.0,40.0,1500,0,0,1550,0,-166.0,0.0,0.0
0,0,60,3860,0,452.0,1232.0,32.0,1500,0,0,1550,0,-171.0,0.0,-83.33
0,0,61,3880,0,452.0,1232.0,20.0,1500,0,0,1550,0,-171.0,0.0,-83.33
0,0,62,3900,0,452.0,1232.0,28.0,1500,0,0,1550,0,-171.0,0.0,-83.33
0,0,63,3920,0,452.0,1232.0,32.0,1500,0,0,1550,0,-171.0,0.0,0.0
0,0,64,3940,0,452.0,1232.0,36.0,1500,0,0,1550,0,-171.0,0.0,0.0
0,0,65,3960,0,452.0,1212.0,20.0,1500,0,0,1550,0,-166.0,0.0,83.33
0,0,66,3980,0,452.0,1212.0,20.0,1500,0,0,1550,0,-166.0,0.0,83.33
0,0,67,4000,0,452.0,1212.0,20.0,1500,0,0,1550,0,-166.0,0.0,83.33
0,0,68,4020,0,452.0,1212.0,16.0,1500,0,0,1550,0,-166.0,0.0,0.0
0,0,69,4040,0,452.0,1212.0,32.0,1500,0,0,1550,0,-166.0,0.0,0.0
0,0,70,4060,0,452.0,1204.0,36.0,1500,0,0,1550,0,-164.0,0.0,33.33
0,0,71,4080,0,452.0,1204.0,20.0,1500,0,0,1550,0,-164.0,0.0,33.33
0,0,72,4100,0,452.0,1204.0,24.0,1500,0,0,1550,0,-164.0,0.0,33.33
0,0,73,4120,0,452.0,1204.0,44.0,1500,0,0,1550,0,-164.0,0.0,0.0
0,0,74,4140,0,452.0,1204.0,32.0,1500,0,0,1550,0,-164.0,0.0,0.0
0,0,75,4160,0,452.0,1232.0,28.0,1500,0,0,1550,0,-171.0,0.0,-116.66
0,0,76,4180,0,452.0,1232.0,32.0,1500,0,0,1550,0,-171.0,0.0,-116.66
0,0,77,4200,0,452.0,1232.0,20.0,1500,0,0,1550,0,-171.0,0.0,-116.66
0,0,78,4220,0,452.0,1232.0,20.0,1500,0,0,1550,0,-171.0,0.0,0.0
0,0,79,4240,0,452.0,1232.0,40.0,1500,0,0,1550,0,-171.0,0.0,0.0
0,0,80,4260,0,452.0,1232.0,20.0,1500,0,0,1550,0,-171.0,0.0,0.0
0,0,81,4280,0,452.0,1232.0,40.0,1500,0,0,1550,0,-171.0,0.0,0.0
0,0,82,4300,0,452.0,1232.0,32.0,1500,0,0,1550,0,-171.0,0.0,0.0
0,0,83,4320,0,452.0,1232.0,28.0,1500,0,0,1550,0,-171.0,0.0,0.0
0,0,84,4340,0,452.0,1232.0,20.0,1500,0,0,1550,0,-171.0,0.0,0.0
0,0,85,4360,0,452.0,1232.0,36.0,1500,0,0,1550,0,-171.0,0.0,0.0
0,0,86,4380,0,452.0,1232.0,32.0,1500,0,0,1550,0,-171.0,0.0,0.0
0,0,87,4400,0,452.0,1232.0,44.0,1500,0,0,1550,0,-171.0,0.0,0.0
0,0,88,4420,0,452.0,1232.0,24.0,1500,0,0,1550,0,-171.0,0.0,0.0
0,0,89,4440,0,452.0,1232.0,40.0,1500,0,0,1550,0,-171.0,0.0,0.0
0,0,90,4460,0,452.0,1232.0,20.0,1500,0,0,1550,0,-171.0,0.0,0.0
0,0,91,4480,0,452.0,1232.0,24.0,1500,0,0,1550,0,-171.0,0.0,0.0
0,0,92,4500,0,452.0,1232.0,20.0,1500,0,0,1550,0,-171.0,0.0,0.0
0,0,93,4520,0,452.0,1232.0,28.0,1500,0,0,1550,0,-171.0,0.0,0.0
0,0,94,4540,0,452.0,1232.0,24.0,1500,0,0,1550,0,-171.0,0.0,0.0
0,0,95,4560,0,448.0,1232.0,20.0,1500,0,0,1550,0,-170.0,0.0,16.66
0,0,96,4580,0,448.0,1232.0,28.0,1500,0,0,1550,0,-170.0,0.0,16.66
0,0,97,4600,0,448.0,1232.0,40.0,1500,0,0,1550,0,-170.0,0.0,16.66
0,0,98,4620,0,448.0,1232.0,32.0,1500,0,0,1550,0,-170.0,0.0,0.0
0,0,99,4640,0,448.0,1232.0,40.0,1500,0,0,1550,0,-170.0,0.0,0.0
0,0,100,4660,0,452.0,1232.0,24.0,1500,0,0,1550,0,-171.0,0.0,-16.66
0,0,101,4680,0,452.0,1232.0,32.0,1500,0,0,1550,0,-171.0,0.0,-16.66
0,0,102,4700,0,452.0,1232.0,32.0,1500,0,0,1550,0,-171.0,0.0,-16.66
0,0,103,4720,0,452.0,1232.0,48.0,1500,0,0,1550,0,-171.0,0.0,0.0
0,0,104,4740,0,452.0,1232.0,16.0,1500,0,0,1550,0,-171.0,0.0,0.0
0,0,105,4760,0,456.0,1232.0,28.0,1500,0,0,1550,0,-172.0,0.0,-16.66
0,0,106,4780,0,456.0,1232.0,20.0,1500,0,0,1550,0,-172.0,0.0,-16.66
0,0,107,4800,0,456.0,1232.0,24.0,1500,0,0,1550,0,-172.0,0.0,-16.66
0,0,108,4820,0,456.0,1232.0,32.0,1500,0,0,1550,0,-172.0,0.0,0.0
0,0,109,4840,0,456.0,1232.0,20.0,1500,0,0,1550,0,-172.0,0.0,0.0
0,0,110,4860,0,452.0,1232.0,40.0,1500,0,0,1550,0,-171.0,0.0,16.66
0,0,111,4880,0,452.0,1232.0,28.0,1500,0,0,1550,0,-171.0,0.0,16.66
0,0,112,4900,0,452.0,1232.0,36.0,1500,0,0,1550,0,-171.0,0.0,16.66
0,0,113,4920,1,452.0,1232.0,32.0,1500,0,0,1550,0,-171.0,0.0,0.0
0,0,114,4940,1,452.0,1232.0,32.0,1500,0,0,1550,0,-171.0,0.0,0.0
0,0,115,4960,1,456.0,1232.0,20.0,1500,0,0,1550,0,-172.0,0.0,-16.66
0,0,116,4980,1,456.0,1232.0,28.0,1500,0,0,1550,0,-172.0,0.0,-16.66
0,0,117,5000,1,456.0,1232.0,24.0,1500,0,0,1550,0,-172.0,0.0,-16.66
0,0,118,5020,1,456.0,1232.0,32.0,1500,0,0,1550,0,-172.0,0.0,0.0
0,0,119,5040,1,456.0,1232.0,16.0,1500,0,0,1550,0,-172.0,0.0,0.0
0,0,120,5060,1,452.0,1232.0,24.0,1500,0,0,1550,0,-171.0,0.0,16.66
0,0,121,5080,1,452.0,1232.0,24.0,1500,0,0,1550,0,-171.0,0.0,16.66
0,0,122,5100,1,452.0,1232.0,36.0,1500,0,0,1550,0,-171.0,0.0,16.66
0,0,123,5120,1,452.0,1232.0,32.0,1500,0,0,1550,0,-171.0,0.0,0.0
0,0,124,5140,1,452.0,1236.0,44.0,1500,0,0,1550,0,-172.0,0.0,-16.66
0,0,125,5160,1,452.0,1236.0,16.0,1500,0,0,1550,0,-172.0,0.0,-16.66
0,0,126,5180,1,452.0,1236.0,32.0,1500,0,0,1550,0,-172.0,0.0,-16.66
0,0,127,5200,1,452.0,1236.0,36.0,1500,0,0,1550,0,-172.0,0.0,0.0
0,0,128,5220,1,452.0,1236.0,44.0,1500,0,0,1550,0,-172.0,0.0,0.0
0,0,129,5240,1,456.0,1232.0,28.0,1500,0,0,1550,0,-172.0,0.0,0.0
0,0,130,5260,1,456.0,1232.0,52.0,1500,0,0,1550,0,-172.0,0.0,0.0
0,0,131,5280,1,456.0,1232.0,24.0,1500,0,0,1550,0,-172.0,0.0,0.0
0,0,132,5300,1,456.0,1232.0,20.0,1500,0,0,1550,0,-172.0,0.0,0.0
0,0,133,5320,1,456.0,1232.0,32.0,1500,0,0,1550,0,-172.0,0.0,0.0
0,0,134,5340,1,452.0,1228.0,36.0,1500,0,0,1550,0,-170.0,0.0,33.33
0,0,135,5360,1,452.0,1228.0,20.0,1500,0,0,1550,0,-170.0,0.0,33.33
0,0,136,5380,1,452.0,1228.0,32.0,1500,0,0,1550,0,-170.0,0.0,33.33
0,0,137,5400,1,452.0,1228.0,20.0,1500,0,0,1550,0,-170.0,0.0,0.0
0,0,138,5420,1,452.0,1228.0,36.0,1500,0,0,1550,0,-170.0,0.0,0.0
0,0,139,5440,1,460.0,1232.0,20.0,1500,0,0,1550,0,-173.0,0.0,-50.0
0,0,140,5460,1,460.0,1232.0,52.0,1500,0,0,1550,0,-173.0,0.0,-50.0
0,0,141,5480,1,460.0,1232.0,20.0,1500,0,0,1550,0,-173.0,0.0,-50.0
0,0,142,5500,1,460.0,1232.0,16.0,1500,0,0,1550,0,-173.0,0.0,0.0
0,0,143,5520,1,460.0,1232.0,32.0,1500,0,0,1550,0,-173.0,0.0,0.0
0,0,144,5540,1,452.0,1236.0,32.0,1500,0,0,1550,0,-172.0,0.0,16.66
0,0,145,5560,1,452.0,1236.0,32.0,1500,0,0,1550,0,-172.0,0.0,16.66
0,0,146,5580,1,452.0,1236.0,44.0,1500,0,0,1550,0,-172.0,0.0,16.66
0,0,147,5600,1,452.0,1236.0,24.0,1500,0,0,1550,0,-172.0,0.0,0.0
0,0,148,5620,1,452.0,1236.0,16.0,1500,0,0,1550,0,-172.0,0.0,0.0
0,0,149,5640,1,456.0,1232.0,24.0,1500,0,0,1550,0,-172.0,0.0,0.0
0,0,150,5660,1,456.0,1232.0,20.0,1500,0,0,1550,0,-172.0,0.0,0.0
0,0,151,5680,1,456.0,1232.0,40.0,1500,0,0,1550,0,-172.0,0.0,0.0
0,0,152,5700,1,456.0,1232.0,40.0,1500,0,0,1550,0,-172.0,0.0,0.0
0,0,153,5720,1,456.0,1232.0,24.0,1500,0,0,1550,0,-172.0,0.0,0.0
0,0,154,5740,1,456.0,1232.0,24.0,1500,0,0,1550,0,-172.0,0.0,0.0
0,0,155,5760,1,456.0,1232.0,24.0,1500,0,0,1550,0,-172.0,0.0,0.0
0,0,156,5780,1,456.0,1232.0,28.0,1500,0,0,1550,0,-172.0,0.0,0.0
0,0,157,5800,1,456.0,1232.0,28.0,1500,0,0,1550,0,-172.0,0.0,0.0
0,0,158,5820,1,456.0,1232.0,28.0,1500,0,0,1550,0,-172.0,0.0,0.0
0,0,159,5840,1,452.0,1232.0,20.0,1500,0,0,1550,0,-171.0,0.0,16.66
0,0,160,5860,1,452.0,1232.0,32.0,1500,0,0,1550,0,-171.0,0.0,16.66
0,0,161,5880,1,452.0,1232.0,24.0,1500,0,0,1550,0,-171.0,0.0,16.66
0,0,162,5900,1,452.0,1232.0,28.0,1500,0,0,1550,0,-171.0,0.0,0.0
0,0,163,5920,1,452.0,1232.0,24.0,1500,0,0,1550,0,-171.0,0.0,0.0
0,0,164,5940,1,456.0,1232.0,20.0,1500,0,0,1550,0,-172.0,0.0,-16.66
0,0,165,5960,1,456.0,1232.0,32.0,1500,0,0,1550,0,-172.0,0.0,-16.66
0,0,166,5980,1,456.0,1232.0,32.0,1500,0,0,1550,0,-172.0,0.0,-16.66
0,0,167,6000,1,456.0,1232.0,40.0,1500,0,0,1550,0,-172.0,0.0,0.0
0,0,168,6020,1,456.0,788.0,36.0,1500,0,0,1450,0,-61.0,0.0,1850.0
0,0,169,6040,1,452.0,788.0,28.0,1500,0,0,1450,0,-60.0,0.0,1866.0
0,0,170,6060,1,452.0,788.0,20.0,1500,0,0,1450,0,-60.0,0.0,1866.0
0,0,171,6080,1,452.0,788.0,32.0,1500,0,0,1543,0,-60.0,0.0,16.66
0,0,172,6100,1,452.0,788.0,40.0,1500,0,0,1550,0,-60.0,0.0,0.0
0,0,173,6120,1,452.0,1152.0,20.0,1500,0,0,1550,0,-151.0,0.0,-1516.6
0,0,174,6140,1,452.0,1152.0,48.0,1500,0,0,1550,0,-151.0,0.0,-1516.6
0,0,175,6160,1,452.0,1152.0,24.0,1500,0,0,1550,0,-151.0,0.0,-1516.6
0,0,176,6180,1,452.0,1152.0,24.0,1500,0,0,1550,0,-151.0,0.0,0.0
0,0,177,6200,1,452.0,1152.0,40.0,1500,0,0,1550,0,-151.0,0.0,0.0
0,0,178,6220,1,452.0,1232.0,32.0,1500,0,0,1550,0,-171.0,0.0,-333.3
0,0,179,6240,1,452.0,1232.0,32.0,1500,0,0,1550,0,-171.0,0.0,-333.3
0,0,180,6260,1,452.0,1232.0,20.0,1500,0,0,1550,0,-171.0,0.0,-333.3
0,0,181,6280,1,452.0,1232.0,44.0,1500,0,0,1550,0,-171.0,0.0,0.0
0,0,182,6300,1,452.0,1232.0,40.0,1500,0,0,1550,0,-171.0,0.0,0.0
0,0,183,6320,1,452.0,1152.0,28.0,1500,0,0,1450,0,-151.0,0.0,333.3
0,0,184,6340,1,452.0,1152.0,44.0,1500,0,0,1450,0,-151.0,0.0,333.3
0,0,185,6360,1,452.0,1152.0,36.0,1500,0,0,1450,0,-151.0,0.0,333.3
0,0,186,6380,1,452.0,1152.0,20.0,1500,0,0,1550,0,-151.0,0.0,0.0
0,0,187,6400,1,452.0,1152.0,32.0,1500,0,0,1550,0,-151.0,0.0,0.0
0,0,188,6420,1,456.0,1148.0,32.0,1500,0,0,1550,0,-151.0,0.0,0.0
0,0,189,6440,1,456.0,1148.0,40.0,1500,0,0,1550,0,-151.0,0.0,0.0
0,0,190,6460,1,456.0,1148.0,16.0,1500,0,0,1550,0,-151.0,0.0,0.0
0,0,191,6480,1,456.0,1148.0,16.0,1500,0,0,1550,0,-151.0,0.0,0.0
0,0,192,6500,1,456.0,1148.0,24.0,1500,0,0,1550,0,-151.0,0.0,0.0
0,0,193,6520,1,452.0,1148.0,20.0,1500,0,0,1550,0,-150.0,0.0,16.66
0,0,194,6540,1,452.0,1148.0,20.0,1500,0,0,1550,0,-150.0,0.0,16.66
0,0,195,6560,1,452.0,1148.0,24.0,1500,0,0,1550,0,-150.0,0.0,16.66
0,0,196,6580,1,452.0,1148.0,32.0,1500,0,0,1550,0,-150.0,0.0,0.0
0,0,197,6600,1,452.0,1148.0,24.0,1500,0,0,1550,0,-150.0,0.0,0.0
0,0,198,6620,1,452.0,1232.0,36.0,1500,0,0,1550,0,-171.0,0.0,-350.0
0,0,199,6640,1,452.0,1232.0,28.0,1500,0,0,1550,0,-171.0,0.0,-350.0
0,0,200,6660,1,452.0,1232.0,20.0,1500,0,0,1550,0,-171.0,0.0,-350.0
0,0,201,6680,1,452.0,1232.0,36.0,1500,0,0,1550,0,-171.0,0.0,0.0
0,0,202,6700,1,452.0,1232.0,32.0,1500,0,0,1550,0,-171.0,0.0,0.0
0,0,203,6720,1,456.0,1236.0,28.0,1500,0,0,1550,0,-173.0,0.0,-33.33
0,0,204,6740,1,456.0,1236.0,20.0,1500,0,0,1550,0,-173.0,0.0,-33.33
0,0,205,6760,1,456.0,1236.0,20.0,1500,0,0,1550,0,-173.0,0.0,-33.33
0,0,206,6780,1,456.0,1236.0,28.0,1500,0,0,1550,0,-173.0,0.0,0.0
0,0,207,6800,1,456.0,1236.0,20.0,1500,0,0,1550,0,-173.0,0.0,0.0
0,0,208,6820,1,452.0,1160.0,28.0,1500,0,0,1450,0,-153.0,0.0,333.3
0,0,209,6840,1,452.0,1160.0,36.0,1500,0,0,1450,0,-153.0,0.0,333.3
0,0,210,6860,1,452.0,1160.0,32.0,1500,0,0,1450,0,-153.0,0.0,333.3
0,0,211,6880,1,452.0,1160.0,20.0,1500,0,0,1550,0,-153.0,0.0,0.0
0,0,212,6900,1,452.0,1212.0,20.0,1500,0,0,1550,0,-166.0,0.0,-216.6
0,0,213,6920,1,452.0,1212.0,44.0,1500,0,0,1550,0,-166.0,0.0,-216.6
0,0,214,6940,1,452.0,1212.0,24.0,1500,0,0,1550,0,-166.0,0.0,-216.6
0,0,215,6960,1,452.0,1212.0,32.0,1500,0,0,1550,0,-166.0,0.0,0.0
0,0,216,6980,1,452.0,1212.0,28.0,1500,0,0,1550,0,-166.0,0.0,0.0
0,0,217,7000,1,452.0,1232.0,32.0,1500,0,0,1550,0,-171.0,0.0,-83.33
0,0,218,7020,1,456.0,1232.0,24.0,1500,0,0,1550,0,-172.0,0.0,-100.0
0,0,219,7040,1,456.0,1232.0,20.0,1500,0,0,1550,0,-172.0,0.0,-100.0
0,0,220,7060,1,456.0,1232.0,20.0,1500,0,0,1550,0,-172.0,0.0,-16.66
0,0,221,7080,1,456.0,1232.0,36.0,1500,0,0,1550,0,-172.0,0.0,0.0
0,0,222,7100,1,456.0,1232.0,20.0,1500,0,0,1550,0,-172.0,0.0,0.0
0,0,223,7120,1,452.0,1232.0,40.0,1500,0,0,1550,0,-171.0,0.0,16.66
0,0,224,7140,1,452.0,1232.0,32.0,1500,0,0,1550,0,-171.0,0.0,16.66
0,0,225,7160,1,452.0,1232.0,44.0,1500,0,0,1550,0,-171.0,0.0,16.66
0,0,226,7180,1,452.0,1232.0,24.0,1500,0,0,1550,0,-171.0,0.0,0.0
0,0,227,7200,1,452.0,1236.0,20.0,1500,0,0,1550,0,-172.0,0.0,-16.66
0,0,228,7220,1,452.0,1236.0,32.0,1500,0,0,1550,0,-172.0,0.0,-16.66
0,0,229,7240,1,452.0,1236.0,20.0,1500,0,0,1550,0,-172.0,0.0,-16.66
0,0,230,7260,1,452.0,1236.0,24.0,1500,0,0,1550,0,-172.0,0.0,0.0
0,0,231,7280,1,452.0,1236.0,36.0,1500,0,0,1550,0,-172.0,0.0,0.0
0,0,232,7300,1,452.0,1232.0,20.0,1500,0,0,1550,0,-171.0,0.0,16.66
0,0,233,7320,1,452.0,1232.0,24.0,1500,0,0,1550,0,-171.0,0.0,16.66
0,0,234,7340,1,452.0,1232.0,24.0,1500,0,0,1550,0,-171.0,0.0,16.66
0,0,235,7360,1,452.0,1232.0,36.0,1500,0,0,1550,0,-171.0,0.0,0.0
0,0,236,7380,1,452.0,1232.0,28.0,1500,0,0,1550,0,-171.0,0.0,0.0
0,0,237,7400,1,452.0,1236.0,20.0,1500,0,0,1550,0,-172.0,0.0,-16.66
0,0,238,7420,1,456.0,1236.0,24.0,1500,0,0,1550,0,-173.0,0.0,-33.33
0,0,239,7440,1,456.0,1236.0,32.0,1500,0,0,1550,0,-173.0,0.0,-33.33
0,0,240,7460,1,456.0,1236.0,20.0,1500,0,0,1550,0,-173.0,0.0,-16.66
0,0,241,7480,1,456.0,1236.0,20.0,1500,0,0,1550,0,-173.0,0.0,0.0
0,0,242,7500,1,452.0,1204.0,28.0,1500,0,0,1514,0,-164.0,0.0,150.0
0,0,243,7520,1,452.0,1204.0,44.0,1500,0,0,1514,0,-164.0,0.0,150.0
0,0,244,7540,1,452.0,1204.0,24.0,1500,0,0,1514,0,-164.0,0.0,150.0
0,0,245,7560,1,452.0,1204.0,24.0,1500,0,0,1550,0,-164.0,0.0,0.0
0,0,246,7580,1,452.0,1204.0,16.0,1500,0,0,1550,0,-164.0,0.0,0.0
0,0,247,7600,1,452.0,1200.0,16.0,1500,0,0,1550,0,-163.0,0.0,16.66
0,0,248,7620,1,452.0,1200.0,24.0,1500,0,0,1550,0,-163.0,0.0,16.66
0,0,249,7640,1,452.0,1200.0,20.0,1500,0,0,1550,0,-163.0,0.0,16.66
0,0,250,7660,1,452.0,1200.0,24.0,1500,0,0,1550,0,-163.0,0.0,0.0
0,0,251,7680,1,452.0,1200.0,24.0,1500,0,0,1550,0,-163.0,0.0,0.0
0,0,252,7700,1,456.0,1200.0,20.0,1500,0,0,1550,0,-164.0,0.0,-16.66
0,0,253,7720,1,456.0,1200.0,40.0,1500,0,0,1550,0,-164.0,0.0,-16.66
0,0,254,7740,1,456.0,1200.0,32.0,1500,0,0,1550,0,-164.0,0.0,-16.66
0,0,255,7760,1,456.0,1200.0,16.0,1500,0,0,1550,0,-164.0,0.0,0.0
0,0,256,7780,1,456.0,1200.0,24.0,1500,0,0,1550,0,-164.0,0.0,0.0
0,0,257,7800,1,452.0,1200.0,20.0,1500,0,0,1550,0,-163.0,0.0,16.66
0,0,258,7820,1,452.0,1200.0,36.0,1500,0,0,1550,0,-163.0,0.0,16.66
0,0,259,7840,1,452.0,1200.0,28.0,1500,0,0,1550,0,-163.0,0.0,16.66
0,0,260,7860,1,452.0,1200.0,32.0,1500,0,0,1550,0,-163.0,0.0,0.0
0,0,261,7880,1,452.0,1200.0,28.0,1500,0,0,1550,0,-163.0,0.0,0.0
0,0,262,7900,1,452.0,1208.0,20.0,1500,0,0,1550,0,-165.0,0.0,-33.33
0,0,263,7920,1,452.0,1208.0,16.0,1500,0,0,1550,0,-165.0,0.0,-33.33
0,0,264,7940,1,452.0,1208.0,20.0,1500,0,0,1550,0,-165.0,0.0,-33.33
0,0,265,7960,1,452.0,1208.0,36.0,1500,0,0,1550,0,-165.0,0.0,0.0
0,0,266,7980,1,452.0,1208.0,28.0,1500,0,0,1550,0,-165.0,0.0,0.0
0,0,267,8000,1,452.0,1156.0,20.0,1500,0,0,1450,0,-152.0,0.0,216.6
0,0,268,8020,1,452.0,1156.0,36.0,1500,0,0,1450,0,-152.0,0.0,216.6
0,0,269,8040,1,452.0,1156.0,24.0,1500,0,0,1450,0,-152.0,0.0,216.6
0,0,270,8060,1,452.0,1156.0,20.0,1500,0,0,1550,0,-152.0,0.0,0.0
0,0,271,8080,1,452.0,1116.0,28.0,1500,0,0,1476,0,-142.0,0.0,166.6
0,0,272,8100,1,452.0,1116.0,28.0,1500,0,0,1476,0,-142.0,0.0,166.6
0,0,273,8120,1,452.0,1116.0,32.0,1500,0,0,1476,0,-142.0,0.0,166.6
0,0,274,8140,1,452.0,1116.0,44.0,1500,0,0,1550,0,-142.0,0.0,0.0
0,0,275,8160,1,452.0,1116.0,48.0,1500,0,0,1550,0,-142.0,0.0,0.0
0,0,276,8180,1,452.0,1116.0,20.0,1500,0,0,1550,0,-142.0,0.0,0.0
0,0,277,8200,1,456.0,1116.0,36.0,1500,0,0,1550,0,-143.0,0.0,-16.66
0,0,278,8220,1,456.0,1116.0,24.0,1500,0,0,1550,0,-143.0,0.0,-16.66
0,0,279,8240,1,456.0,1116.0,40.0,1500,0,0,1550,0,-143.0,0.0,-16.66
0,0,280,8260,1,456.0,1116.0,32.0,1500,0,0,1550,0,-143.0,0.0,0.0
0,0,281,8280,1,456.0,1116.0,20.0,1500,0,0,1550,0,-143.0,0.0,0.0
0,0,282,8300,1,452.0,1116.0,28.0,1500,0,0,1550,0,-142.0,0.0,16.66
0,0,283,8320,1,452.0,1116.0,32.0,1500,0,0,1550,0,-142.0,0.0,16.66
0,0,284,8340,1,452.0,1116.0,28.0,1500,0,0,1550,0,-142.0,0.0,16.66
0,0,285,8360,1,452.0,1116.0,24.0,1500,0,0,1550,0,-142.0,0.0,0.0
0,0,286,8380,1,452.0,1232.0,28.0,1500,0,0,1550,0,-171.0,0.0,-483.3
0,0,287,8400,1,452.0,1232.0,40.0,1500,0,0,1550,0,-171.0,0.0,-483.3
0,0,288,8420,1,452.0,1232.0,24.0,1500,0,0,1550,0,-171.0,0.0,-483.3
0,0,289,8440,1,452.0,1232.0,24.0,1500,0,0,1550,0,-171.0,0.0,0.0
0,0,290,8460,1,452.0,1232.0,32.0,1500,0,0,1550,0,-171.0,0.0,0.0
0,0,291,8480,1,452.0,1100.0,20.0,1500,0,0,1450,0,-138.0,0.0,550.0
0,0,292,8500,1,456.0,1100.0,16.0,1500,0,0,1450,0,-139.0,0.0,533.3
0,0,293,8520,1,456.0,1100.0,16.0,1500,0,0,1450,0,-139.0,0.0,533.3
0,0,294,8540,1,456.0,1100.0,32.0,1500,0,0,1550,0,-139.0,0.0,-16.66
0,0,295,8560,1,456.0,1100.0,32.0,1500,0,0,1550,0,-139.0,0.0,0.0
0,0,296,8580,1,456.0,1232.0,32.0,1500,0,0,1550,0,-172.0,0.0,-550.0
0,0,297,8600,1,456.0,1232.0,40.0,1500,0,0,1550,0,-172.0,0.0,-550.0
0,0,298,8620,1,456.0,1232.0,28.0,1500,0,0,1550,0,-172.0,0.0,-550.0
0,0,299,8640,1,456.0,1232.0,16.0,1500,0,0,1550,0,-172.0,0.0,0.0
0,0,300,8660,1,456.0,1232.0,36.0,1500,0,0,1550,0,-172.0,0.0,0.0
0,0,301,8680,1,456.0,1232.0,32.0,1500,0,0,1550,0,-172.0,0.0,0.0
0,0,302,8700,1,456.0,1232.0,40.0,1500,0,0,1550,0,-172.0,0.0,0.0
0,0,303,8720,1,456.0,1232.0,48.0,1500,0,0,1550,0,-172.0,0.0,0.0
0,0,304,8740,1,456.0,1232.0,24.0,1500,0,0,1550,0,-172.0,0.0,0.0
0,0,305,8760,1,456.0,1232.0,20.0,1500,0,0,1550,0,-172.0,0.0,0.0
0,0,306,8780,1,452.0,1232.0,32.0,1500,0,0,1550,0,-171.0,0.0,16.66
0,0,307,8800,1,452.0,1232.0,28.0,1500,0,0,1550,0,-171.0,0.0,16.66
0,0,308,8820,1,452.0,1232.0,28.0,1500,0,0,1550,0,-171.0,0.0,16.66
0,0,309,8840,1,452.0,1232.0,28.0,1500,0,0,1550,0,-171.0,0.0,0.0
0,0,310,8860,1,452.0,1232.0,44.0,1500,0,0,1550,0,-171.0,0.0,0.0
0,0,311,8880,1,452.0,1212.0,32.0,1500,0,0,1550,0,-166.0,0.0,83.33
0,0,312,8900,1,452.0,1212.0,28.0,1500,0,0,1550,0,-166.0,0.0,83.33
0,0,313,8920,1,452.0,1212.0,20.0,1500,0,0,1550,0,-166.0,0.0,83.33
0,0,314,8940,1,452.0,1212.0,24.0,1500,0,0,1550,0,-166.0,0.0,0.0
0,0,315,8960,1,452.0,1212.0,20.0,1500,0,0,1550,0,-166.0,0.0,0.0
0,0,316,8980,1,456.0,1212.0,36.0,1500,0,0,1550,0,-167.0,0.0,-16.66
0,0,317,9000,1,456.0,1212.0,24.0,1500,0,0,1550,0,-167.0,0.0,-16.66
0,0,318,9020,1,456.0,1212.0,36.0,1500,0,0,1550,0,-167.0,0.0,-16.66
0,0,319,9040,1,456.0,1212.0,32.0,1500,0,0,1550,0,-167.0,0.0,0.0
0,0,320,9060,1,456.0,1224.0,20.0,1500,0,0,1550,0,-170.0,0.0,-50.0
0,0,321,9080,1,456.0,1224.0,24.0,1500,0,0,1550,0,-170.0,0.0,-50.0
0,0,322,9100,1,456.0,1224.0,32.0,1500,0,0,1550,0,-170.0,0.0,-50.0
0,0,323,9120,1,456.0,1224.0,32.0,1500,0,0,1550,0,-170.0,0.0,0.0
0,0,324,9140,1,456.0,1224.0,16.0,1500,0,0,1550,0,-170.0,0.0,0.0
0,0,325,9160,1,456.0,1232.0,16.0,1500,0,0,1550,0,-172.0,0.0,-33.33
0,0,326,9180,1,452.0,1232.0,20.0,1500,0,0,1550,0,-171.0,0.0,-16.66
0,0,327,9200,1,452.0,1232.0,20.0,1500,0,0,1550,0,-171.0,0.0,-16.66
0,0,328,9220,1,452.0,1232.0,20.0,1500,0,0,1550,0,-171.0,0.0,16.66
0,0,329,9240,1,452.0,1232.0,28.0,1500,0,0,1550,0,-171.0,0.0,0.0
0,0,330,9260,1,452.0,1232.0,16.0,1500,0,0,1550,0,-171.0,0.0,0.0
0,0,331,9280,1,452.0,1232.0,28.0,1500,0,0,1550,0,-171.0,0.0,0.0
0,0,332,9300,1,452.0,1232.0,20.0,1500,0,0,1550,0,-171.0,0.0,0.0
0,0,333,9320,1,452.0,1232.0,20.0,1500,0,0,1550,0,-171.0,0.0,0.0
0,0,334,9340,1,452.0,1232.0,24.0,1500,0,0,1550,0,-171.0,0.0,0.0
0,0,335,9360,1,452.0,1232.0,20.0,1500,0,0,1550,0,-171.0,0.0,0.0
0,0,336,9380,1,456.0,1232.0,56.0,1500,0,0,1550,0,-172.0,0.0,-16.66
0,0,337,9400,1,456.0,1232.0,16.0,1500,0,0,1550,0,-172.0,0.0,-16.66
0,0,338,9420,1,456.0,1232.0,16.0,1500,0,0,1550,0,-172.0,0.0,-16.66
0,0,339,9440,1,456.0,1232.0,32.0,1500,0,0,1550,0,-172.0,0.0,0.0
0,0,340,9460,1,456.0,1232.0,28.0,1500,0,0,1550,0,-172.0,0.0,0.0
0,0,341,9480,1,452.0,1232.0,16.0,1500,0,0,1550,0,-171.0,0.0,16.66
0,0,342,9500,1,452.0,1232.0,20.0,1500,0,0,1550,0,-171.0,0.0,16.66
0,0,343,9520,1,452.0,1232.0,32.0,1500,0,0,1550,0,-171.0,0.0,16.66
0,0,344,9540,1,452.0,1232.0,28.0,1500,0,0,1550,0,-171.0,0.0,0.0
0,0,345,9560,1,452.0,1232.0,24.0,1500,0,0,1550,0,-171.0,0.0,0.0
0,0,346,9580,1,456.0,1232.0,32.0,1500,0,0,1550,0,-172.0,0.0,-16.66
0,0,347,9600,1,456.0,1232.0,20.0,1500,0,0,1550,0,-172.0,0.0,-16.66
0,0,348,9620,1,456.0,1232.0,20.0,1500,0,0,1550,0,-172.0,0.0,-16.66
0,0,349,9640,1,456.0,1232.0,28.0,1500,0,0,1550,0,-172.0,0.0,0.0
0,0,350,9660,1,456.0,1240.0,24.0,1500,0,0,1550,0,-174.0,0.0,-33.33
0,0,351,9680,1,452.0,1240.0,24.0,1500,0,0,1550,0,-173.0,0.0,-16.66
0,0,352,9700,1,452.0,1240.0,28.0,1500,0,0,1550,0,-173.0,0.0,-16.66
0,0,353,9720,1,452.0,1240.0,44.0,1500,0,0,1550,0,-173.0,0.0,16.66
0,0,354,9740,1,452.0,1240.0,44.0,1500,0,0,1550,0,-173.0,0.0,0.0
0,0,355,9760,1,452.0,1232.0,20.0,1500,0,0,1550,0,-171.0,0.0,33.33
0,0,356,9780,1,440.0,1232.0,24.0,1500,0,0,1550,0,-168.0,0.0,83.33
0,0,357,9800,1,440.0,1232.0,20.0,1500,0,0,1550,0,-168.0,0.0,83.33
0,0,358,9820,1,440.0,1232.0,20.0,1500,0,0,1550,0,-168.0,0.0,50.0
0,0,359,9840,1,440.0,1232.0,32.0,1500,0,0,1550,0,-168.0,0.0,0.0
0,0,360,9860,1,456.0,1204.0,40.0,1500,0,0,1550,0,-165.0,0.0,50.0
0,0,361,9880,1,456.0,1204.0,28.0,1500,0,0,1550,0,-165.0,0.0,50.0
0,0,362,9900,1,456.0,1204.0,24.0,1500,0,0,1550,0,-165.0,0.0,50.0
0,0,363,9920,1,456.0,1204.0,20.0,1500,0,0,1550,0,-165.0,0.0,0.0
0,0,364,9940,1,456.0,1204.0,44.0,1500,0,0,1550,0,-165.0,0.0,0.0
0,0,365,9960,1,452.0,1080.0,20.0,1500,0,0,1450,0,-133.0,0.0,533.3
0,0,366,9980,1,452.0,1080.0,20.0,1500,0,0,1450,0,-133.0,0.0,533.3
0,0,367,10000,1,452.0,1080.0,24.0,1500,0,0,1450,0,-133.0,0.0,533.3
0,0,368,10020,1,452.0,1080.0,20.0,1500,0,0,1550,0,-133.0,0.0,0.0
0,0,369,10040,1,452.0,1080.0,20.0,1500,0,0,1550,0,-133.0,0.0,0.0
0,0,370,10060,1,456.0,1100.0,16.0,1500,0,0,1550,0,-139.0,0.0,-100.0
0,0,371,10080,1,456.0,1100.0,20.0,1500,0,0,1550,0,-139.0,0.0,-100.0
0,0,372,10100,1,456.0,1100.0,20.0,1500,0,0,1550,0,-139.0,0.0,-100.0
0,0,373,10120,1,456.0,1100.0,52.0,1500,0,0,1550,0,-139.0,0.0,0.0
0,0,374,10140,1,456.0,1160.0,24.0,1500,0,0,1550,0,-154.0,0.0,-250.0
0,0,375,10160,1,452.0,1160.0,24.0,1500,0,0,1550,0,-153.0,0.0,-233.3
0,0,376,10180,1,452.0,1160.0,24.0,1500,0,0,1550,0,-153.0,0.0,-233.3
0,0,377,10200,1,452.0,1160.0,20.0,1500,0,0,1550,0,-153.0,0.0,16.66
0,0,378,10220,1,452.0,1160.0,20.0,1500,0,0,1550,0,-153.0,0.0,0.0
0,0,379,10240,1,452.0,1152.0,28.0,1500,0,0,1550,0,-151.0,0.0,33.33
0,0,380,10260,1,456.0,1152.0,32.0,1500,0,0,1550,0,-152.0,0.0,16.66
0,0,381,10280,1,456.0,1152.0,32.0,1500,0,0,1550,0,-152.0,0.0,16.66
0,0,382,10300,1,456.0,1152.0,20.0,1500,0,0,1550,0,-152.0,0.0,-16.66
0,0,383,10320,1,456.0,1152.0,24.0,1500,0,0,1550,0,-152.0,0.0,0.0
0,0,384,10340,1,456.0,1148.0,20.0,1500,0,0,1550,0,-151.0,0.0,16.66
0,0,385,10360,1,452.0,1148.0,24.0,1500,0,0,1550,0,-150.0,0.0,33.33
0,0,386,10380,1,452.0,1148.0,32.0,1500,0,0,1550,0,-150.0,0.0,33.33
0,0,387,10400,1,452.0,1148.0,20.0,1500,0,0,1550,0,-150.0,0.0,16.66
0,0,388,10420,1,452.0,1148.0,40.0,1500,0,0,1550,0,-150.0,0.0,0.0
0,0,389,10440,1,452.0,1228.0,40.0,1500,0,0,1550,0,-170.0,0.0,-333.3
0,0,390,10460,1,452.0,1228.0,36.0,1500,0,0,1550,0,-170.0,0.0,-333.3
0,0,391,10480,1,452.0,1228.0,32.0,1500,0,0,1550,0,-170.0,0.0,-333.3
0,0,392,10500,1,452.0,1228.0,24.0,1500,0,0,1550,0,-170.0,0.0,0.0
0,0,393,10520,1,452.0,1228.0,20.0,1500,0,0,1550,0,-170.0,0.0,0.0
0,0,394,10540,1,452.0,1232.0,40.0,1500,0,0,1550,0,-171.0,0.0,-16.66
0,0,395,10560,1,452.0,1232.0,32.0,1500,0,0,1550,0,-171.0,0.0,-16.66
0,0,396,10580,1,452.0,1232.0,24.0,1500,0,0,1550,0,-171.0,0.0,-16.66
0,0,397,10600,1,452.0,1232.0,20.0,1500,0,0,1550,0,-171.0,0.0,0.0
0,0,398,10620,1,452.0,1232.0,40.0,1500,0,0,1550,0,-171.0,0.0,0.0
0,0,399,10640,1,452.0,1232.0,32.0,1500,0,0,1550,0,-171.0,0.0,0.0
0,0,400,10660,1,452.0,1232.0,32.0,1500,0,0,1550,0,-171.0,0.0,0.0
0,0,401,10680,1,452.0,1232.0,24.0,1500,0,0,1550,0,-171.0,0.0,0.0
0,0,402,10700,1,452.0,1232.0,32.0,1500,0,0,1550,0,-171.0,0.0,0.0
0,0,403,10720,1,452.0,1232.0,40.0,1500,0,0,1550,0,-171.0,0.0,0.0
0,0,404,10740,1,452.0,1228.0,28.0,1500,0,0,1550,0,-170.0,0.0,16.66
0,0,405,10760,1,452.0,1228.0,20.0,1500,0,0,1550,0,-170.0,0.0,16.66
0,0,406,10780,1,452.0,1228.0,16.0,1500,0,0,1550,0,-170.0,0.0,16.66
0,0,407,10800,1,452.0,1228.0,16.0,1500,0,0,1550,0,-170.0,0.0,0.0
0,0,408,10820,1,452.0,1228.0,32.0,1500,0,0,1550,0,-170.0,0.0,0.0
0,0,409,10840,1,452.0,1232.0,24.0,1500,0,0,1550,0,-171.0,0.0,-16.66
0,0,410,10860,1,452.0,1232.0,24.0,1500,0,0,1550,0,-171.0,0.0,-16.66
0,0,411,10880,1,452.0,1232.0,24.0,1500,0,0,1550,0,-171.0,0.0,-16.66
0,0,412,10900,1,452.0,1232.0,32.0,1500,0,0,1550,0,-171.0,0.0,0.0
0,0,413,10920,1,452.0,1232.0,20.0,1500,0,0,1550,0,-171.0,0.0,0.0
0,0,414,10940,1,452.0,1232.0,24.0,1500,0,0,1550,0,-171.0,0.0,0.0
0,0,415,10960,1,452.0,1232.0,28.0,1500,0,0,1550,0,-171.0,0.0,0.0
0,0,416,10980,1,452.0,1232.0,20.0,1500,0,0,1550,0,-171.0,0.0,0.0
0,0,417,11000,1,452.0,1232.0,20.0,1500,0,0,1550,0,-171.0,0.0,0.0
0,0,418,11020,1,452.0,1232.0,36.0,1500,0,0,1550,0,-171.0,0.0,0.0
0,0,419,11040,1,452.0,1232.0,24.0,1500,0,0,1550,0,-171.0,0.0,0.0
0,0,420,11060,1,452.0,1232.0,36.0,1500,0,0,1550,0,-171.0,0.0,0.0
0,0,421,11080,1,452.0,1232.0,28.0,1500,0,0,1550,0,-171.0,0.0,0.0
0,0,422,11100,1,452.0,1232.0,20.0,1500,0,0,1550,0,-171.0,0.0,0.0
0,0,423,11120,1,452.0,1232.0,44.0,1500,0,0,1550,0,-171.0,0.0,0.0
0,0,424,11140,1,452.0,1232.0,20.0,1500,0,0,1550,0,-171.0,0.0,0.0
0,0,425,11160,1,452.0,1232.0,36.0,1500,0,0,1550,0,-171.0,0.0,0.0
0,0,426,11180,1,452.0,1232.0,20.0,1500,0,0,1550,0,-171.0,0.0,0.0
0,0,427,11200,1,452.0,1232.0,28.0,1500,0,0,1550,0,-171.0,0.0,0.0
0,0,428,11220,1,452.0,1152.0,36.0,1500,0,0,1450,0,-151.0,0.0,333.3
0,0,429,11240,1,452.0,1152.0,20.0,1500,0,0,1450,0,-151.0,0.0,333.3
0,0,430,11260,1,452.0,1152.0,20.0,1500,0,0,1450,0,-151.0,0.0,333.3
0,0,431,11280,1,452.0,1152.0,20.0,1500,0,0,1550,0,-151.0,0.0,0.0
0,0,432,11300,1,452.0,1152.0,20.0,1500,0,0,1550,0,-151.0,0.0,0.0
0,0,433,11320,1,452.0,1132.0,20.0,1500,0,0,1550,0,-146.0,0.0,83.33
0,0,434,11340,0,456.0,1132.0,20.0,1500,0,0,1550,0,-147.0,0.0,66.66
0,0,435,11360,1,456.0,1132.0,20.0,1500,0,0,1550,0,-147.0,0.0,66.66
0,0,436,11380,1,456.0,1132.0,20.0,1500,0,0,1550,0,-147.0,0.0,-16.66
0,0,437,11400,1,456.0,1132.0,20.0,1500,0,0,1550,0,-147.0,0.0,0.0
0,0,438,11420,1,456.0,1216.0,20.0,1500,0,0,1550,0,-168.0,0.0,-350.0
0,0,439,11440,1,456.0,1216.0,20.0,1500,0,0,1550,0,-168.0,0.0,-350.0
0,0,440,11460,1,456.0,1216.0,20.0,1500,0,0,1550,0,-168.0,0.0,-350.0
0,0,441,11480,1,456.0,1216.0,20.0,1500,0,0,1550,0,-168.0,0.0,0.0
0,0,442,11500,1,456.0,1216.0,20.0,1500,0,0,1550,0,-168.0,0.0,0.0
0,0,443,11520,1,456.0,1236.0,20.0,1500,0,0,1550,0,-173.0,0.0,-83.33
0,0,444,11540,1,452.0,1236.0,20.0,1500,0,0,1550,0,-172.0,0.0,-66.66
0,0,445,11560,1,452.0,1236.0,20.0,1500,0,0,1550,0,-172.0,0.0,-66.66
0,0,446,11580,1,452.0,1236.0,20.0,1500,0,0,1550,0,-172.0,0.0,16.66
0,0,447,11600,1,452.0,1236.0,20.0,1500,0,0,1550,0,-172.0,0.0,0.0
0,0,448,11620,1,452.0,1232.0,20.0,1500,0,0,1550,0,-171.0,0.0,16.66
0,0,449,11640,1,452.0,1232.0,20.0,1500,0,0,1550,0,-171.0,0.0,16.66
0,0,450,11660,1,452.0,1232.0,20.0,1500,0,0,1550,0,-171.0,0.0,16.66
0,0,451,11680,1,452.0,1232.0,20.0,1500,0,0,1550,0,-171.0,0.0,0.0
0,0,452,11700,1,452.0,1232.0,20.0,1500,0,0,1550,0,-171.0,0.0,0.0
0,0,453,11720,1,452.0,1232.0,20.0,1500,0,0,1550,0,-171.0,0.0,0.0
0,0,454,11740,1,452.0,1232.0,20.0,1500,0,0,1550,0,-171.0,0.0,0.0
0,0,455,11760,1,452.0,1232.0,20.0,1500,0,0,1550,0,-171.0,0.0,0.0
0,0,456,11780,1,452.0,1232.0,20.0,1500,0,0,1550,0,-171.0,0.0,0.0
0,0,457,11800,1,452.0,1232.0,20.0,1500,0,0,1550,0,-171.0,0.0,0.0
0,0,458,11820,1,452.0,1212.0,20.0,1500,0,0,1550,0,-166.0,0.0,83.33
0,0,459,11840,1,464.0,1212.0,20.0,1500,0,0,1550,0,-169.0,0.0,33.33
0,0,460,11860,1,464.0,1212.0,20.0,1500,0,0,1550,0,-169.0,0.0,33.33
0,0,461,11880,1,464.0,1212.0,20.0,1500,0,0,1550,0,-169.0,0.0,-50.0
0,0,462,11900,1,464.0,1212.0,20.0,1500,0,0,1550,0,-169.0,0.0,0.0
0,0,463,11920,1,464.0,1236.0,20.0,1500,0,0,1550,0,-175.0,0.0,-100.0
0,0,464,11940,1,452.0,1236.0,20.0,1500,0,0,1550,0,-172.0,0.0,-50.0
0,0,465,11960,1,452.0,1236.0,20.0,1500,0,0,1550,0,-172.0,0.0,-50.0
0,0,466,11980,1,452.0,1236.0,20.0,1500,0,0,1550,0,-172.0,0.0,50.0
0,0,467,12000,1,452.0,1236.0,20.0,1500,0,0,1550,0,-172.0,0.0,0.0
0,0,468,12020,1,452.0,1228.0,20.0,1500,0,0,1550,0,-170.0,0.0,33.33
0,0,469,12040,1,452.0,1228.0,20.0,1500,0,0,1550,0,-170.0,0.0,33.33
0,0,470,12060,1,452.0,1228.0,20.0,1500,0,0,1550,0,-170.0,0.0,33.33
0,0,471,12080,1,452.0,1228.0,20.0,1500,0,0,1550,0,-170.0,0.0,0.0
0,0,472,12100,1,452.0,1228.0,20.0,1500,0,0,1550,0,-170.0,0.0,0.0
0,0,473,12120,1,452.0,1232.0,20.0,1500,0,0,1550,0,-171.0,0.0,-16.66
0,0,474,12140,1,456.0,1232.0,20.0,1500,0,0,1550,0,-172.0,0.0,-33.33
0,0,475,12160,1,456.0,1232.0,20.0,1500,0,0,1550,0,-172.0,0.0,-33.33
0,0,476,12180,1,456.0,1232.0,20.0,1500,0,0,1550,0,-172.0,0.0,-16.66
0,0,477,12200,1,456.0,1232.0,20.0,1500,0,0,1550,0,-172.0,0.0,0.0
0,0,478,12220,1,452.0,1228.0,20.0,1500,0,0,1550,0,-170.0,0.0,33.33
0,0,479,12240,1,452.0,1228.0,20.0,1500,0,0,1550,0,-170.0,0.0,33.33
0,0,480,12260,1,452.0,1228.0,20.0,1500,0,0,1550,0,-170.0,0.0,33.33
0,0,481,12280,1,452.0,1228.0,20.0,1500,0,0,1550,0,-170.0,0.0,0.0
0,0,482,12300,1,452.0,1236.0,20.0,1500,0,0,1550,0,-172.0,0.0,-33.33
0,0,483,12320,1,452.0,1236.0,20.0,1500,0,0,1550,0,-172.0,0.0,-33.33
0,0,484,12340,1,452.0,1236.0,20.0,1500,0,0,1550,0,-172.0,0.0,-33.33
0,0,485,12360,1,452.0,1236.0,20.0,1500,0,0,1550,0,-172.0,0.0,0.0
0,0,486,12380,1,452.0,1236.0,20.0,1500,0,0,1550,0,-172.0,0.0,0.0
0,0,487,12400,1,452.0,1216.0,20.0,1500,0,0,1550,0,-167.0,0.0,83.33
0,0,488,12420,1,456.0,1216.0,20.0,1500,0,0,1550,0,-168.0,0.0,66.66
0,0,489,12440,1,456.0,1216.0,20.0,1500,0,0,1550,0,-168.0,0.0,66.66
0,0,490,12460,1,456.0,1216.0,20.0,1500,0,0,1550,0,-168.0,0.0,-16.66
0,0,491,12480,1,456.0,1216.0,20.0,1500,0,0,1550,0,-168.0,0.0,0.0
0,0,492,12500,1,456.0,1136.0,20.0,1500,0,0,1450,0,-148.0,0.0,333.3
0,0,493,12520,1,456.0,1136.0,20.0,1500,0,0,1450,0,-148.0,0.0,333.3
0,0,494,12540,1,456.0,1136.0,20.0,1500,0,0,1450,0,-148.0,0.0,333.3
0,0,495,12560,1,456.0,1136.0,20.0,1500,0,0,1550,0,-148.0,0.0,0.0
0,0,496,12580,1,456.0,1136.0,20.0,1500,0,0,1550,0,-148.0,0.0,0.0
0,0,497,12600,1,456.0,792.0,20.0,1500,0,0,1450,0,-62.0,0.0,1433.3
0,0,498,12620,1,456.0,792.0,20.0,1500,0,0,1450,0,-62.0,0.0,1433.3
0,0,499,12640,1,456.0,792.0,20.0,1500,0,0,1450,0,-62.0,0.0,1433.3
0,0,500,12660,1,456.0,792.0,20.0,1500,0,0,1550,0,-62.0,0.0,0.0
0,0,501,12680,1,456.0,792.0,20.0,1500,0,0,1550,0,-62.0,0.0,0.0
0,0,502,12700,1,456.0,1132.0,20.0,1500,0,0,1550,0,-147.0,0.0,-1416.6
0,0,503,12720,1,452.0,1132.0,20.0,1500,0,0,1550,0,-146.0,0.0,-1400.0
0,0,504,12740,1,452.0,1132.0,20.0,1500,0,0,1550,0,-146.0,0.0,-1400.0
0,0,505,12760,1,452.0,1132.0,20.0,1500,0,0,1550,0,-146.0,0.0,16.66
0,0,506,12780,1,452.0,1132.0,20.0,1500,0,0,1550,0,-146.0,0.0,0.0
0,0,507,12800,1,452.0,1132.0,20.0,1500,0,0,1550,0,-146.0,0.0,0.0
0,0,508,12820,1,452.0,1132.0,20.0,1500,0,0,1550,0,-146.0,0.0,0.0
0,0,509,12840,1,452.0,1132.0,20.0,1500,0,0,1550,0,-146.0,0.0,0.0
0,0,510,12860,1,452.0,1132.0,20.0,1500,0,0,1550,0,-146.0,0.0,0.0
0,0,511,12880,1,452.0,1132.0,20.0,1500,0,0,1550,0,-146.0,0.0,0.0
0,0,512,12900,1,452.0,868.0,20.0,1500,0,0,1450,0,-80.0,0.0,1100.0
0,0,513,12920,1,456.0,868.0,20.0,1500,0,0,1450,0,-81.0,0.0,1083.3
0,0,514,12940,1,456.0,868.0,20.0,1500,0,0,1450,0,-81.0,0.0,1083.3
0,0,515,12960,1,456.0,868.0,20.0,1500,0,0,1550,0,-81.0,0.0,-16.66
0,0,516,12980,1,456.0,868.0,20.0,1500,0,0,1550,0,-81.0,0.0,0.0
0,0,517,13000,1,456.0,812.0,20.0,1500,0,0,1450,0,-67.0,0.0,233.3
0,0,518,13020,1,456.0,812.0,20.0,1500,0,0,1450,0,-67.0,0.0,233.3
0,0,519,13040,1,456.0,812.0,20.0,1500,0,0,1450,0,-67.0,0.0,233.3
0,0,520,13060,1,456.0,812.0,20.0,1500,0,0,1550,0,-67.0,0.0,0.0
0,0,521,13080,1,456.0,812.0,20.0,1500,0,0,1550,0,-67.0,0.0,0.0
0,0,522,13100,1,456.0,816.0,20.0,1500,0,0,1550,0,-68.0,0.0,-16.66
0,0,523,13120,1,456.0,816.0,20.0,1500,0,0,1550,0,-68.0,0.0,-16.66
0,0,524,13140,1,456.0,816.0,20.0,1500,0,0,1550,0,-68.0,0.0,-16.66
0,0,525,13160,1,456.0,816.0,20.0,1500,0,0,1550,0,-68.0,0.0,0.0
0,0,526,13180,1,456.0,816.0,20.0,1500,0,0,1550,0,-68.0,0.0,0.0
0,0,527,13200,1,456.0,848.0,20.0,1500,0,0,1550,0,-76.0,0.0,-133.33
0,0,528,13220,1,452.0,848.0,20.0,1500,0,0,1550,0,-75.0,0.0,-116.66
0,0,529,13240,1,452.0,848.0,20.0,1500,0,0,1550,0,-75.0,0.0,-116.66
0,0,530,13260,1,452.0,848.0,20.0,1500,0,0,1550,0,-75.0,0.0,16.66
0,0,531,13280,1,452.0,848.0,20.0,1500,0,0,1550,0,-75.0,0.0,0.0
0,0,532,13300,1,452.0,1232.0,20.0,1500,0,0,1550,0,-171.0,0.0,-1600.0
0,0,533,13320,1,452.0,1232.0,20.0,1500,0,0,1550,0,-171.0,0.0,-1600.0
0,0,534,13340,1,452.0,1232.0,20.0,1500,0,0,1550,0,-171.0,0.0,-1600.0
0,0,535,13360,1,452.0,1232.0,20.0,1500,0,0,1550,0,-171.0,0.0,0.0
0,0,536,13380,1,452.0,820.0,20.0,1500,0,0,1450,0,-68.0,0.0,1716.0
0,0,537,13400,1,452.0,820.0,20.0,1500,0,0,1450,0,-68.0,0.0,1716.0
0,0,538,13420,1,452.0,820.0,20.0,1500,0,0,1450,0,-68.0,0.0,1716.0
0,0,539,13440,1,452.0,820.0,20.0,1500,0,0,1550,0,-68.0,0.0,0.0
0,0,540,13460,1,452.0,820.0,20.0,1500,0,0,1550,0,-68.0,0.0,0.0
0,0,541,13480,1,452.0,816.0,20.0,1500,0,0,1550,0,-67.0,0.0,16.66
0,0,542,13500,1,456.0,816.0,20.0,1500,0,0,1550,0,-68.0,0.0,0.0
0,0,543,13520,1,456.0,816.0,20.0,1500,0,0,1550,0,-68.0,0.0,0.0
0,0,544,13540,1,456.0,816.0,20.0,1500,0,0,1550,0,-68.0,0.0,-16.66
0,0,545,13560,1,456.0,816.0,20.0,1500,0,0,1550,0,-68.0,0.0,0.0
0,0,546,13580,1,456.0,820.0,20.0,1500,0,0,1550,0,-69.0,0.0,-16.66
0,0,547,13600,1,452.0,820.0,20.0,1500,0,0,1550,0,-68.0,0.0,0.0
0,0,548,13620,1,452.0,820.0,20.0,1500,0,0,1550,0,-68.0,0.0,0.0
0,0,549,13640,1,452.0,820.0,20.0,1500,0,0,1550,0,-68.0,0.0,16.66
0,0,550,13660,1,452.0,820.0,20.0,1500,0,0,1550,0,-68.0,0.0,0.0
0,0,551,13680,1,452.0,788.0,20.0,1500,0,0,1450,0,-60.0,0.0,133.33
0,0,552,13700,1,452.0,788.0,20.0,1500,0,0,1450,0,-60.0,0.0,133.33
0,0,553,13720,1,452.0,788.0,20.0,1500,0,0,1450,0,-60.0,0.0,133.33
0,0,554,13740,1,452.0,788.0,20.0,1500,0,0,1550,0,-60.0,0.0,0.0
0,0,555,13760,1,452.0,788.0,20.0,1500,0,0,1550,0,-60.0,0.0,0.0
0,0,556,13780,1,452.0,724.0,20.0,1500,0,0,1450,0,-44.0,0.0,266.6
0,0,557,13800,1,452.0,724.0,20.0,1500,0,0,1450,0,-44.0,0.0,266.6
0,0,558,13820,1,452.0,724.0,20.0,1500,0,0,1450,0,-44.0,0.0,266.6
0,0,559,13840,1,452.0,724.0,20.0,1500,0,0,1544,0,-44.0,0.0,0.0
0,0,560,13860,1,452.0,724.0,20.0,1500,0,0,1544,0,-44.0,0.0,0.0
0,0,561,13880,1,452.0,724.0,20.0,1500,0,0,1544,0,-44.0,0.0,0.0
0,0,562,13900,1,300.0,724.0,20.0,1500,0,0,1450,0,-6.0,0.0,633.3
0,0,563,13920,1,300.0,724.0,20.0,1500,0,0,1450,0,-6.0,0.0,633.3
0,0,564,13940,1,300.0,724.0,20.0,1500,0,0,1450,0,-6.0,0.0,633.3
0,0,565,13960,1,300.0,724.0,20.0,1500,0,0,1506,0,-6.0,0.0,0.0
0,0,566,13980,1,300.0,748.0,20.0,1500,0,0,1550,0,-12.0,0.0,-100.0
0,0,567,14000,1,300.0,748.0,20.0,1500,0,0,1550,0,-12.0,0.0,-100.0
0,0,568,14020,1,300.0,748.0,20.0,1500,0,0,1550,0,-12.0,0.0,-100.0
0,0,569,14040,1,300.0,748.0,20.0,1500,0,0,1512,0,-12.0,0.0,0.0
0,0,570,14060,1,300.0,748.0,20.0,1500,0,0,1512,0,-12.0,0.0,0.0
0,0,571,14080,1,300.0,692.0,20.0,1500,0,0,1450,0,2.0,0.0,233.3
0,0,572,14100,1,456.0,692.0,20.0,1500,0,0,1550,0,-37.0,0.0,-416.6
0,0,573,14120,1,456.0,692.0,20.0,1500,0,0,1550,0,-37.0,0.0,-416.6
0,0,574,14140,1,456.0,692.0,20.0,1500,0,0,1550,0,-37.0,0.0,-650.0
0,0,575,14160,1,456.0,692.0,20.0,1500,0,0,1537,0,-37.0,0.0,0.0
0,0,576,14180,1,456.0,712.0,20.0,1500,0,0,1550,0,-42.0,0.0,-83.33
0,0,577,14200,1,452.0,712.0,20.0,1500,0,0,1550,0,-41.0,0.0,-66.66
0,0,578,14220,1,452.0,712.0,20.0,1500,0,0,1550,0,-41.0,0.0,-66.66
0,0,579,14240,1,452.0,712.0,20.0,1500,0,0,1524,0,-41.0,0.0,16.66
0,0,580,14260,1,452.0,712.0,20.0,1500,0,0,1541,0,-41.0,0.0,0.0
0,0,581,14280,1,452.0,628.0,20.0,1500,0,0,1450,0,-20.0,0.0,350.0
0,0,582,14300,1,456.0,628.0,20.0,1500,0,0,1450,0,-21.0,0.0,333.3
0,0,583,14320,1,456.0,628.0,20.0,1500,0,0,1450,0,-21.0,0.0,333.3
0,0,584,14340,1,456.0,628.0,20.0,1500,0,0,1537,0,-21.0,0.0,-16.66
0,0,585,14360,1,456.0,668.0,20.0,1500,0,0,1550,0,-31.0,0.0,-166.6
0,0,586,14380,1,456.0,668.0,20.0,1500,0,0,1550,0,-31.0,0.0,-166.6
0,0,587,14400,1,456.0,668.0,20.0,1500,0,0,1550,0,-31.0,0.0,-166.6
0,0,588,14420,1,456.0,668.0,20.0,1500,0,0,1531,0,-31.0,0.0,0.0
0,0,589,14440,1,456.0,668.0,20.0,1500,0,0,1531,0,-31.0,0.0,0.0
0,0,590,14460,1,456.0,624.0,20.0,1500,0,0,1450,0,-20.0,0.0,183.3
0,0,591,14480,1,456.0,624.0,20.0,1500,0,0,1450,0,-20.0,0.0,183.3
0,0,592,14500,1,456.0,624.0,20.0,1500,0,0,1450,0,-20.0,0.0,183.3
0,0,593,14520,1,456.0,624.0,20.0,1500,0,0,1520,0,-20.0,0.0,0.0
0,0,594,14540,1,456.0,624.0,20.0,1500,0,0,1520,0,-20.0,0.0,0.0
0,0,595,14560,1,456.0,636.0,20.0,1500,0,0,1550,0,-23.0,0.0,-50.0
0,0,596,14580,1,456.0,636.0,20.0,1500,0,0,1550,0,-23.0,0.0,-50.0
0,0,597,14600,1,456.0,636.0,20.0,1500,0,0,1550,0,-23.0,0.0,-50.0
0,0,598,14620,1,456.0,636.0,20.0,1500,0,0,1523,0,-23.0,0.0,0.0
0,0,599,14640,1,456.0,636.0,20.0,1500,0,0,1523,0,-23.0,0.0,0.0
0,0,600,14660,1,456.0,724.0,20.0,1500,0,0,1550,0,-45.0,0.0,-366.6
0,0,601,14680,1,456.0,724.0,20.0,1500,0,0,1550,0,-45.0,0.0,-366.6
0,0,602,14700,1,456.0,724.0,20.0,1500,0,0,1550,0,-45.0,0.0,-366.6
0,0,603,14720,1,456.0,724.0,20.0,1500,0,0,1545,0,-45.0,0.0,0.0
0,0,604,14740,1,456.0,724.0,20.0,1500,0,0,1545,0,-45.0,0.0,0.0
0,0,605,14760,1,456.0,736.0,20.0,1500,0,0,1550,0,-48.0,0.0,-50.0
0,0,606,14780,1,468.0,736.0,20.0,1500,0,0,1550,0,-51.0,0.0,-100.0
0,0,607,14800,1,468.0,736.0,20.0,1500,0,0,1550,0,-51.0,0.0,-100.0
0,0,608,14820,1,468.0,736.0,20.0,1500,0,0,1550,0,-51.0,0.0,-50.0
0,0,609,14840,1,468.0,736.0,20.0,1500,0,0,1550,0,-51.0,0.0,0.0
0,0,610,14860,1,468.0,724.0,20.0,1500,0,0,1498,0,-48.0,0.0,50.0
0,0,611,14880,1,452.0,724.0,20.0,1500,0,0,1450,0,-44.0,0.0,116.66
0,0,612,14900,1,452.0,724.0,20.0,1500,0,0,1450,0,-44.0,0.0,116.66
0,0,613,14920,1,452.0,724.0,20.0,1500,0,0,1478,0,-44.0,0.0,66.66
0,0,614,14940,1,452.0,724.0,20.0,1500,0,0,1544,0,-44.0,0.0,0.0
0,0,615,14960,1,452.0,708.0,20.0,1500,0,0,1474,0,-40.0,0.0,66.66
0,0,616,14980,1,456.0,708.0,20.0,1500,0,0,1491,0,-41.0,0.0,50.0
0,0,617,15000,1,456.0,708.0,20.0,1500,0,0,1491,0,-41.0,0.0,50.0
0,0,618,15020,1,456.0,708.0,20.0,1500,0,0,1550,0,-41.0,0.0,-16.66
0,0,619,15040,1,456.0,708.0,20.0,1500,0,0,1541,0,-41.0,0.0,0.0
0,0,620,15060,1,456.0,688.0,20.0,1500,0,0,1453,0,-36.0,0.0,83.33
0,0,621,15080,1,452.0,688.0,20.0,1500,0,0,1450,0,-35.0,0.0,100.0
0,0,622,15100,1,452.0,688.0,20.0,1500,0,0,1450,0,-35.0,0.0,100.0
0,0,623,15120,1,452.0,688.0,20.0,1500,0,0,1518,0,-35.0,0.0,16.66
0,0,624,15140,1,452.0,688.0,20.0,1500,0,0,1535,0,-35.0,0.0,0.0
0,0,625,15160,1,452.0,1328.0,20.0,1500,0,0,1550,0,-195.0,0.0,-2666.0
0,0,626,15180,1,456.0,1328.0,20.0,1500,0,0,1550,0,-196.0,0.0,-2683.0
0,0,627,15200,1,456.0,1328.0,20.0,1500,0,0,1550,0,-196.0,0.0,-2683.0
0,0,628,15220,1,456.0,1328.0,20.0,1500,0,0,1550,0,-196.0,0.0,-16.66
0,0,629,15240,1,456.0,1328.0,20.0,1500,0,0,1550,0,-196.0,0.0,0.0
0,0,630,15260,1,456.0,688.0,20.0,1500,0,0,1450,0,-36.0,0.0,2666.0
0,0,631,15280,1,456.0,688.0,20.0,1500,0,0,1450,0,-36.0,0.0,2666.0
0,0,632,15300,1,456.0,688.0,20.0,1500,0,0,1450,0,-36.0,0.0,2666.0
0,0,633,15320,1,456.0,688.0,20.0,1500,0,0,1536,0,-36.0,0.0,0.0
0,0,634,15340,1,456.0,688.0,20.0,1500,0,0,1536,0,-36.0,0.0,0.0
0,0,635,15360,1,456.0,732.0,20.0,1500,0,0,1550,0,-47.0,0.0,-183.3
0,0,636,15380,1,448.0,732.0,20.0,1500,0,0,1550,0,-45.0,0.0,-150.0
0,0,637,15400,1,448.0,732.0,20.0,1500,0,0,1550,0,-45.0,0.0,-150.0
0,0,638,15420,1,448.0,732.0,20.0,1500,0,0,1511,0,-45.0,0.0,33.33
0,0,639,15440,1,448.0,1264.0,20.0,1500,0,0,1550,0,-178.0,0.0,-2216.0
0,0,640,15460,1,448.0,1264.0,20.0,1500,0,0,1550,0,-178.0,0.0,-2216.0
0,0,641,15480,1,456.0,1264.0,20.0,1500,0,0,1550,0,-180.0,0.0,-2250.0
0,0,642,15500,1,456.0,1264.0,20.0,1500,0,0,1550,0,-180.0,0.0,-33.33
0,0,643,15520,1,456.0,1264.0,20.0,1500,0,0,1550,0,-180.0,0.0,-33.33
0,0,644,15540,1,456.0,1192.0,20.0,1500,0,0,1450,0,-162.0,0.0,300.0
0,0,645,15560,1,456.0,1192.0,20.0,1500,0,0,1450,0,-162.0,0.0,300.0
0,0,646,15580,1,452.0,1192.0,20.0,1500,0,0,1450,0,-161.0,0.0,316.6
0,0,647,15600,1,452.0,1192.0,20.0,1500,0,0,1550,0,-161.0,0.0,16.66
0,0,648,15620,1,452.0,1192.0,20.0,1500,0,0,1550,0,-161.0,0.0,16.66
0,0,649,15640,1,452.0,660.0,20.0,1500,0,0,1450,0,-28.0,0.0,2216.0
0,0,650,15660,1,452.0,660.0,20.0,1500,0,0,1450,0,-28.0,0.0,2216.0
0,0,651,15680,1,452.0,660.0,20.0,1500,0,0,1450,0,-28.0,0.0,2216.0
0,0,652,15700,1,452.0,660.0,20.0,1500,0,0,1528,0,-28.0,0.0,0.0
0,0,653,15720,1,452.0,660.0,20.0,1500,0,0,1528,0,-28.0,0.0,0.0
0,0,654,15740,1,452.0,700.0,20.0,1500,0,0,1550,0,-38.0,0.0,-166.6
0,0,655,15760,1,456.0,700.0,20.0,1500,0,0,1550,0,-39.0,0.0,-183.3
0,0,656,15780,1,456.0,700.0,20.0,1500,0,0,1550,0,-39.0,0.0,-183.3
0,0,657,15800,1,456.0,700.0,20.0,1500,0,0,1550,0,-39.0,0.0,-16.66
0,0,658,15820,1,456.0,700.0,20.0,1500,0,0,1539,0,-39.0,0.0,0.0
0,0,659,15840,1,456.0,780.0,20.0,1500,0,0,1550,0,-59.0,0.0,-333.3
0,0,660,15860,1,452.0,780.0,20.0,1500,0,0,1550,0,-58.0,0.0,-316.6
0,0,661,15880,1,452.0,780.0,20.0,1500,0,0,1550,0,-58.0,0.0,-316.6
0,0,662,15900,1,452.0,780.0,20.0,1500,0,0,1541,0,-58.0,0.0,16.66
0,0,663,15920,1,452.0,780.0,20.0,1500,0,0,1550,0,-58.0,0.0,0.0
0,0,664,15940,1,452.0,724.0,20.0,1500,0,0,1450,0,-44.0,0.0,233.3
0,0,665,15960,1,452.0,724.0,20.0,1500,0,0,1450,0,-44.0,0.0,233.3
0,0,666,15980,1,452.0,724.0,20.0,1500,0,0,1450,0,-44.0,0.0,233.3
0,0,667,16000,1,452.0,724.0,20.0,1500,0,0,1544,0,-44.0,0.0,0.0
0,0,668,16020,1,452.0,724.0,20.0,1500,0,0,1544,0,-44.0,0.0,0.0
0,0,669,16040,1,452.0,768.0,20.0,1500,0,0,1550,0,-55.0,0.0,-183.3
0,0,670,16060,1,452.0,768.0,20.0,1500,0,0,1550,0,-55.0,0.0,-183.3
0,0,671,16080,1,452.0,768.0,20.0,1500,0,0,1550,0,-55.0,0.0,-183.3
0,0,672,16100,1,452.0,768.0,20.0,1500,0,0,1550,0,-55.0,0.0,0.0
0,0,673,16120,1,452.0,768.0,20.0,1500,0,0,1550,0,-55.0,0.0,0.0
0,0,674,16140,1,452.0,776.0,20.0,1500,0,0,1550,0,-57.0,0.0,-33.33
0,0,675,16160,1,456.0,776.0,20.0,1500,0,0,1550,0,-58.0,0.0,-50.0
0,0,676,16180,1,456.0,776.0,20.0,1500,0,0,1550,0,-58.0,0.0,-50.0
0,0,677,16200,1,456.0,776.0,20.0,1500,0,0,1550,0,-58.0,0.0,-16.66
0,0,678,16220,1,456.0,776.0,20.0,1500,0,0,1550,0,-58.0,0.0,0.0
0,0,679,16240,1,456.0,780.0,20.0,1500,0,0,1550,0,-59.0,0.0,-16.66
0,0,680,16260,1,452.0,780.0,20.0,1500,0,0,1550,0,-58.0,0.0,0.0
0,0,681,16280,1,452.0,780.0,20.0,1500,0,0,1550,0,-58.0,0.0,0.0
0,0,682,16300,1,452.0,780.0,20.0,1500,0,0,1541,0,-58.0,0.0,16.66
0,0,683,16320,1,452.0,780.0,20.0,1500,0,0,1550,0,-58.0,0.0,0.0
0,0,684,16340,1,452.0,756.0,20.0,1500,0,0,1452,0,-52.0,0.0,100.0
0,0,685,16360,1,452.0,756.0,20.0,1500,0,0,1452,0,-52.0,0.0,100.0
0,0,686,16380,1,452.0,756.0,20.0,1500,0,0,1452,0,-52.0,0.0,100.0
0,0,687,16400,1,452.0,756.0,20.0,1500,0,0,1550,0,-52.0,0.0,0.0
0,0,688,16420,1,452.0,764.0,20.0,1500,0,0,1550,0,-54.0,0.0,-33.33
0,0,689,16440,1,452.0,764.0,20.0,1500,0,0,1550,0,-54.0,0.0,-33.33
0,0,690,16460,1,456.0,764.0,20.0,1500,0,0,1550,0,-55.0,0.0,-50.0
0,0,691,16480,1,456.0,764.0,20.0,1500,0,0,1550,0,-55.0,0.0,-16.66
0,0,692,16500,1,456.0,764.0,20.0,1500,0,0,1550,0,-55.0,0.0,-16.66
0,0,693,16520,1,456.0,808.0,20.0,1500,0,0,1550,0,-66.0,0.0,-183.3
0,0,694,16540,1,456.0,808.0,20.0,1500,0,0,1550,0,-66.0,0.0,-183.3
0,0,695,16560,1,452.0,808.0,20.0,1500,0,0,1550,0,-65.0,0.0,-166.6
0,0,696,16580,1,452.0,808.0,20.0,1500,0,0,1548,0,-65.0,0.0,16.66
0,0,697,16600,1,452.0,808.0,20.0,1500,0,0,1548,0,-65.0,0.0,16.66
0,0,698,16620,1,452.0,804.0,20.0,1500,0,0,1547,0,-64.0,0.0,16.66
0,0,699,16640,1,452.0,804.0,20.0,1500,0,0,1547,0,-64.0,0.0,16.66
0,0,700,16660,1,452.0,804.0,20.0,1500,0,0,1547,0,-64.0,0.0,16.66
0,0,701,16680,1,452.0,804.0,20.0,1500,0,0,1550,0,-64.0,0.0,0.0
0,0,702,16700,1,452.0,804.0,20.0,1500,0,0,1550,0,-64.0,0.0,0.0
0,0,703,16720,1,452.0,800.0,20.0,1500,0,0,1546,0,-63.0,0.0,16.66
0,0,704,16740,1,452.0,800.0,20.0,1500,0,0,1546,0,-63.0,0.0,16.66
0,0,705,16760,1,452.0,800.0,20.0,1500,0,0,1546,0,-63.0,0.0,16.66
0,0,706,16780,1,452.0,800.0,20.0,1500,0,0,1550,0,-63.0,0.0,0.0
0,0,707,16800,1,452.0,800.0,20.0,1500,0,0,1550,0,-63.0,0.0,0.0
0,0,708,16820,1,452.0,800.0,20.0,1500,0,0,1550,0,-63.0,0.0,0.0
0,0,709,16840,1,456.0,800.0,20.0,1500,0,0,1550,0,-64.0,0.0,-16.66
0,0,710,16860,1,456.0,800.0,20.0,1500,0,0,1550,0,-64.0,0.0,-16.66
0,0,711,16880,1,456.0,800.0,20.0,1500,0,0,1550,0,-64.0,0.0,-16.66
0,0,712,16900,1,456.0,800.0,20.0,1500,0,0,1550,0,-64.0,0.0,0.0
0,0,713,16920,1,456.0,856.0,20.0,1500,0,0,1550,0,-78.0,0.0,-233.3
0,0,714,16940,1,452.0,856.0,20.0,1500,0,0,1550,0,-77.0,0.0,-216.6
0,0,715,16960,1,452.0,856.0,20.0,1500,0,0,1550,0,-77.0,0.0,-216.6
0,0,716,16980,1,452.0,856.0,20.0,1500,0,0,1550,0,-77.0,0.0,16.66
0,0,717,17000,1,452.0,856.0,20.0,1500,0,0,1550,0,-77.0,0.0,0.0
0,0,718,17020,1,452.0,840.0,20.0,1500,0,0,1506,0,-73.0,0.0,66.66
0,0,719,17040,1,456.0,840.0,20.0,1500,0,0,1524,0,-74.0,0.0,50.0
0,0,720,17060,1,456.0,840.0,20.0,1500,0,0,1524,0,-74.0,0.0,50.0
0,0,721,17080,1,456.0,840.0,20.0,1500,0,0,1550,0,-74.0,0.0,-16.66
0,0,722,17100,1,456.0,840.0,20.0,1500,0,0,1550,0,-74.0,0.0,0.0
0,0,723,17120,1,456.0,788.0,20.0,1500,0,0,1450,0,-61.0,0.0,216.6
0,0,724,17140,1,452.0,788.0,20.0,1500,0,0,1450,0,-60.0,0.0,233.3
0,0,725,17160,1,452.0,788.0,20.0,1500,0,0,1450,0,-60.0,0.0,233.3
0,0,726,17180,1,452.0,788.0,20.0,1500,0,0,1543,0,-60.0,0.0,16.66
0,0,727,17200,1,452.0,788.0,20.0,1500,0,0,1550,0,-60.0,0.0,0.0
0,0,728,17220,1,452.0,780.0,20.0,1500,0,0,1524,0,-58.0,0.0,33.33
0,0,729,17240,1,452.0,780.0,20.0,1500,0,0,1524,0,-58.0,0.0,33.33
0,0,730,17260,1,452.0,780.0,20.0,1500,0,0,1524,0,-58.0,0.0,33.33
0,0,731,17280,1,452.0,780.0,20.0,1500,0,0,1550,0,-58.0,0.0,0.0
0,0,732,17300,1,452.0,780.0,20.0,1500,0,0,1550,0,-58.0,0.0,0.0
0,0,733,17320,1,452.0,856.0,20.0,1500,0,0,1550,0,-77.0,0.0,-316.6
0,0,734,17340,1,456.0,856.0,20.0,1500,0,0,1550,0,-78.0,0.0,-333.3
0,0,735,17360,1,456.0,856.0,20.0,1500,0,0,1550,0,-78.0,0.0,-333.3
0,0,736,17380,1,456.0,856.0,20.0,1500,0,0,1550,0,-78.0,0.0,-16.66
0,0,737,17400,1,456.0,856.0,20.0,1500,0,0,1550,0,-78.0,0.0,0.0
0,0,738,17420,1,456.0,820.0,20.0,1500,0,0,1450,0,-69.0,0.0,150.0
0,0,739,17440,1,452.0,820.0,20.0,1500,0,0,1450,0,-68.0,0.0,166.6
0,0,740,17460,1,452.0,820.0,20.0,1500,0,0,1450,0,-68.0,0.0,166.6
0,0,741,17480,1,452.0,820.0,20.0,1500,0,0,1550,0,-68.0,0.0,16.66
0,0,742,17500,1,452.0,796.0,20.0,1500,0,0,1462,0,-62.0,0.0,100.0
0,0,743,17520,1,452.0,796.0,20.0,1500,0,0,1462,0,-62.0,0.0,100.0
0,0,744,17540,1,452.0,796.0,20.0,1500,0,0,1462,0,-62.0,0.0,100.0
0,0,745,17560,1,452.0,796.0,20.0,1500,0,0,1550,0,-62.0,0.0,0.0
0,0,746,17580,1,452.0,796.0,20.0,1500,0,0,1550,0,-62.0,0.0,0.0
0,0,747,17600,1,452.0,816.0,20.0,1500,0,0,1550,0,-67.0,0.0,-83.33
0,0,748,17620,1,452.0,816.0,20.0,1500,0,0,1550,0,-67.0,0.0,-83.33
0,0,749,17640,1,452.0,816.0,20.0,1500,0,0,1550,0,-67.0,0.0,-83.33
0,0,750,17660,1,452.0,816.0,20.0,1500,0,0,1550,0,-67.0,0.0,0.0
0,0,751,17680,1,452.0,816.0,20.0,1500,0,0,1550,0,-67.0,0.0,0.0
0,0,752,17700,1,452.0,820.0,20.0,1500,0,0,1550,0,-68.0,0.0,-16.66
0,0,753,17720,1,452.0,820.0,20.0,1500,0,0,1550,0,-68.0,0.0,-16.66
0,0,754,17740,1,456.0,820.0,20.0,1500,0,0,1550,0,-69.0,0.0,-33.33
0,0,755,17760,1,456.0,820.0,20.0,1500,0,0,1550,0,-69.0,0.0,-16.66
0,0,756,17780,1,456.0,820.0,20.0,1500,0,0,1550,0,-69.0,0.0,-16.66
0,0,757,17800,1,456.0,828.0,20.0,1500,0,0,1550,0,-71.0,0.0,-33.33
0,0,758,17820,1,456.0,828.0,20.0,1500,0,0,1550,0,-71.0,0.0,-33.33
0,0,759,17840,1,452.0,828.0,20.0,1500,0,0,1550,0,-70.0,0.0,-16.66
0,0,760,17860,1,452.0,828.0,20.0,1500,0,0,1550,0,-70.0,0.0,16.66
0,0,761,17880,1,452.0,828.0,20.0,1500,0,0,1550,0,-70.0,0.0,16.66
0,0,762,17900,1,452.0,752.0,20.0,1500,0,0,1450,0,-51.0,0.0,316.6
0,0,763,17920,1,452.0,752.0,20.0,1500,0,0,1450,0,-51.0,0.0,316.6
0,0,764,17940,1,452.0,752.0,20.0,1500,0,0,1450,0,-51.0,0.0,316.6
0,0,765,17960,1,452.0,752.0,20.0,1500,0,0,1550,0,-51.0,0.0,0.0
0,0,766,17980,1,452.0,752.0,20.0,1500,0,0,1550,0,-51.0,0.0,0.0
0,0,767,18000,1,452.0,760.0,20.0,1500,0,0,1550,0,-53.0,0.0,-33.33
0,0,768,18020,1,452.0,760.0,20.0,1500,0,0,1550,0,-53.0,0.0,-33.33
0,0,769,18040,1,452.0,760.0,20.0,1500,0,0,1550,0,-53.0,0.0,-33.33
0,0,770,18060,1,452.0,760.0,20.0,1500,0,0,1550,0,-53.0,0.0,0.0
0,0,771,18080,1,452.0,760.0,20.0,1500,0,0,1550,0,-53.0,0.0,0.0
0,0,772,18100,1,452.0,812.0,20.0,1500,0,0,1550,0,-66.0,0.0,-216.6
0,0,773,18120,1,456.0,812.0,20.0,1500,0,0,1550,0,-67.0,0.0,-233.3
0,0,774,18140,1,456.0,812.0,20.0,1500,0,0,1550,0,-67.0,0.0,-233.3
0,0,775,18160,1,456.0,812.0,20.0,1500,0,0,1550,0,-67.0,0.0,-16.66
0,0,776,18180,1,456.0,812.0,20.0,1500,0,0,1550,0,-67.0,0.0,0.0
0,0,777,18200,1,456.0,724.0,20.0,1500,0,0,1450,0,-45.0,0.0,366.6
0,0,778,18220,1,452.0,724.0,20.0,1500,0,0,1450,0,-44.0,0.0,383.3
0,0,779,18240,1,452.0,724.0,20.0,1500,0,0,1450,0,-44.0,0.0,383.3
0,0,780,18260,1,452.0,724.0,20.0,1500,0,0,1527,0,-44.0,0.0,16.66
0,0,781,18280,1,452.0,724.0,20.0,1500,0,0,1544,0,-44.0,0.0,0.0
0,0,782,18300,1,452.0,804.0,20.0,1500,0,0,1550,0,-64.0,0.0,-333.3
0,0,783,18320,1,452.0,804.0,20.0,1500,0,0,1550,0,-64.0,0.0,-333.3
0,0,784,18340,1,452.0,804.0,20.0,1500,0,0,1550,0,-64.0,0.0,-333.3
0,0,785,18360,1,452.0,804.0,20.0,1500,0,0,1550,0,-64.0,0.0,0.0
0,0,786,18380,1,452.0,804.0,20.0,1500,0,0,1550,0,-64.0,0.0,0.0
0,0,787,18400,1,452.0,688.0,20.0,1500,0,0,1450,0,-35.0,0.0,483.3
0,0,788,18420,1,452.0,688.0,20.0,1500,0,0,1450,0,-35.0,0.0,483.3
0,0,789,18440,1,452.0,688.0,20.0,1500,0,0,1450,0,-35.0,0.0,483.3
0,0,790,18460,1,452.0,688.0,20.0,1500,0,0,1535,0,-35.0,0.0,0.0
0,0,791,18480,1,452.0,688.0,20.0,1500,0,0,1535,0,-35.0,0.0,0.0
0,0,792,18500,1,452.0,520.0,20.0,1500,0,0,1450,0,7.0,0.0,700.0
0,0,793,18520,1,452.0,520.0,20.0,1500,0,0,1450,0,7.0,0.0,700.0
0,0,794,18540,1,452.0,520.0,20.0,1500,0,0,1450,0,7.0,0.0,700.0
0,0,795,18560,1,452.0,520.0,20.0,1500,0,0,1493,0,7.0,0.0,0.0
0,0,796,18580,1,452.0,668.0,20.0,1500,0,0,1550,0,-30.0,0.0,-616.6
0,0,797,18600,1,452.0,668.0,20.0,1500,0,0,1550,0,-30.0,0.0,-616.6
0,0,798,18620,1,452.0,668.0,20.0,1500,0,0,1550,0,-30.0,0.0,-616.6
0,0,799,18640,1,452.0,668.0,20.0,1500,0,0,1530,0,-30.0,0.0,0.0
0,0,800,18660,1,452.0,668.0,20.0,1500,0,0,1530,0,-30.0,0.0,0.0
0,0,801,18680,1,452.0,704.0,20.0,1500,0,0,1550,0,-39.0,0.0,-150.0
0,0,802,18700,1,452.0,704.0,20.0,1500,0,0,1550,0,-39.0,0.0,-150.0
0,0,803,18720,1,452.0,704.0,20.0,1500,0,0,1550,0,-39.0,0.0,-150.0
0,0,804,18740,1,452.0,704.0,20.0,1500,0,0,1539,0,-39.0,0.0,0.0
0,0,805,18760,1,452.0,704.0,20.0,1500,0,0,1539,0,-39.0,0.0,0.0
0,0,806,18780,1,452.0,716.0,20.0,1500,0,0,1550,0,-42.0,0.0,-50.0
0,0,807,18800,1,452.0,716.0,20.0,1500,0,0,1550,0,-42.0,0.0,-50.0
0,0,808,18820,1,456.0,716.0,20.0,1500,0,0,1550,0,-43.0,0.0,-66.66
0,0,809,18840,1,456.0,716.0,20.0,1500,0,0,1550,0,-43.0,0.0,-16.66
0,0,810,18860,1,456.0,716.0,20.0,1500,0,0,1550,0,-43.0,0.0,-16.66
0,0,811,18880,1,456.0,836.0,20.0,1500,0,0,1550,0,-73.0,0.0,-500.0
0,0,812,18900,1,456.0,836.0,20.0,1500,0,0,1550,0,-73.0,0.0,-500.0
0,0,813,18920,1,452.0,836.0,20.0,1500,0,0,1550,0,-72.0,0.0,-483.3
0,0,814,18940,1,452.0,836.0,20.0,1500,0,0,1550,0,-72.0,0.0,16.66
0,0,815,18960,1,452.0,836.0,20.0,1500,0,0,1550,0,-72.0,0.0,16.66
0,0,816,18980,1,452.0,872.0,20.0,1500,0,0,1550,0,-81.0,0.0,-150.0
0,0,817,19000,1,452.0,872.0,20.0,1500,0,0,1550,0,-81.0,0.0,-150.0
0,0,818,19020,1,452.0,872.0,20.0,1500,0,0,1550,0,-81.0,0.0,-150.0
0,0,819,19040,1,452.0,872.0,20.0,1500,0,0,1550,0,-81.0,0.0,0.0
0,0,820,19060,1,452.0,872.0,20.0,1500,0,0,1550,0,-81.0,0.0,0.0
0,0,821,19080,1,452.0,876.0,20.0,1500,0,0,1550,0,-82.0,0.0,-16.66
0,0,822,19100,1,452.0,876.0,20.0,1500,0,0,1550,0,-82.0,0.0,-16.66
0,0,823,19120,1,456.0,876.0,20.0,1500,0,0,1550,0,-83.0,0.0,-33.33
0,0,824,19140,1,456.0,876.0,20.0,1500,0,0,1550,0,-83.0,0.0,-16.66
0,0,825,19160,1,456.0,876.0,20.0,1500,0,0,1550,0,-83.0,0.0,-16.66
0,0,826,19180,1,456.0,876.0,20.0,1500,0,0,1550,0,-83.0,0.0,0.0
0,0,827,19200,1,456.0,876.0,20.0,1500,0,0,1550,0,-83.0,0.0,0.0
0,0,828,19220,1,456.0,876.0,20.0,1500,0,0,1550,0,-83.0,0.0,0.0
0,0,829,19240,1,456.0,876.0,20.0,1500,0,0,1550,0,-83.0,0.0,0.0
0,0,830,19260,1,456.0,876.0,20.0,1500,0,0,1550,0,-83.0,0.0,0.0
0,0,831,19280,1,456.0,860.0,20.0,1500,0,0,1512,0,-79.0,0.0,66.66
0,0,832,19300,1,452.0,860.0,20.0,1500,0,0,1495,0,-78.0,0.0,83.33
0,0,833,19320,1,452.0,860.0,20.0,1500,0,0,1495,0,-78.0,0.0,83.33
0,0,834,19340,1,452.0,860.0,20.0,1500,0,0,1550,0,-78.0,0.0,16.66
0,0,835,19360,1,452.0,860.0,20.0,1500,0,0,1550,0,-78.0,0.0,0.0
0,0,836,19380,1,452.0,908.0,20.0,1500,0,0,1550,0,-90.0,0.0,-200.0
0,0,837,19400,1,452.0,908.0,20.0,1500,0,0,1550,0,-90.0,0.0,-200.0
0,0,838,19420,1,452.0,908.0,20.0,1500,0,0,1550,0,-90.0,0.0,-200.0
0,0,839,19440,1,452.0,908.0,20.0,1500,0,0,1550,0,-90.0,0.0,0.0
0,0,840,19460,1,452.0,908.0,20.0,1500,0,0,1550,0,-90.0,0.0,0.0
0,0,841,19480,1,452.0,924.0,20.0,1500,0,0,1550,0,-94.0,0.0,-66.66
0,0,842,19500,1,456.0,924.0,20.0,1500,0,0,1550,0,-95.0,0.0,-83.33
0,0,843,19520,1,456.0,924.0,20.0,1500,0,0,1550,0,-95.0,0.0,-83.33
0,0,844,19540,1,456.0,924.0,20.0,1500,0,0,1550,0,-95.0,0.0,-16.66
0,0,845,19560,1,456.0,924.0,20.0,1500,0,0,1550,0,-95.0,0.0,0.0
0,0,846,19580,1,456.0,796.0,20.0,1500,0,0,1450,0,-63.0,0.0,533.3
0,0,847,19600,1,452.0,796.0,20.0,1500,0,0,1450,0,-62.0,0.0,550.0
0,0,848,19620,1,452.0,796.0,20.0,1500,0,0,1450,0,-62.0,0.0,550.0
0,0,849,19640,1,452.0,796.0,20.0,1500,0,0,1545,0,-62.0,0.0,16.66
0,0,850,19660,1,452.0,784.0,20.0,1500,0,0,1509,0,-59.0,0.0,50.0
0,0,851,19680,1,452.0,784.0,20.0,1500,0,0,1509,0,-59.0,0.0,50.0
0,0,852,19700,1,452.0,784.0,20.0,1500,0,0,1509,0,-59.0,0.0,50.0
0,0,853,19720,1,452.0,784.0,20.0,1500,0,0,1550,0,-59.0,0.0,0.0
0,0,854,19740,1,452.0,784.0,20.0,1500,0,0,1550,0,-59.0,0.0,0.0
0,0,855,19760,1,452.0,784.0,20.0,1500,0,0,1550,0,-59.0,0.0,0.0
0,0,856,19780,1,452.0,784.0,20.0,1500,0,0,1550,0,-59.0,0.0,0.0
0,0,857,19800,1,452.0,784.0,20.0,1500,0,0,1550,0,-59.0,0.0,0.0
0,0,858,19820,1,452.0,784.0,20.0,1500,0,0,1550,0,-59.0,0.0,0.0
0,0,859,19840,1,452.0,784.0,20.0,1500,0,0,1550,0,-59.0,0.0,0.0
0,0,860,19860,1,452.0,760.0,20.0,1500,0,0,1453,0,-53.0,0.0,100.0
0,0,861,19880,1,452.0,760.0,20.0,1500,0,0,1453,0,-53.0,0.0,100.0
0,0,862,19900,1,456.0,760.0,20.0,1500,0,0,1471,0,-54.0,0.0,83.33
0,0,863,19920,1,456.0,760.0,20.0,1500,0,0,1550,0,-54.0,0.0,-16.66
0,0,864,19940,1,456.0,760.0,20.0,1500,0,0,1550,0,-54.0,0.0,-16.66
0,0,865,19960,1,456.0,796.0,20.0,1500,0,0,1550,0,-63.0,0.0,-150.0
0,0,866,19980,1,456.0,796.0,20.0,1500,0,0,1550,0,-63.0,0.0,-150.0
0,0,867,20000,1,456.0,796.0,20.0,1500,0,0,1550,0,-63.0,0.0,-150.0
0,0,868,20020,1,456.0,796.0,20.0,1500,0,0,1550,0,-63.0,0.0,0.0
0,0,869,20040,1,456.0,796.0,20.0,1500,0,0,1550,0,-63.0,0.0,0.0
0,0,870,20060,1,456.0,788.0,20.0,1500,0,0,1527,0,-61.0,0.0,33.33
0,0,871,20080,1,456.0,788.0,20.0,1500,0,0,1527,0,-61.0,0.0,33.33
0,0,872,20100,1,456.0,788.0,20.0,1500,0,0,1527,0,-61.0,0.0,33.33
0,0,873,20120,1,456.0,788.0,20.0,1500,0,0,1550,0,-61.0,0.0,0.0
0,0,874,20140,1,456.0,788.0,20.0,1500,0,0,1550,0,-61.0,0.0,0.0
0,0,875,20160,1,456.0,788.0,20.0,1500,0,0,1550,0,-61.0,0.0,0.0
0,0,876,20180,1,456.0,788.0,20.0,1500,0,0,1550,0,-61.0,0.0,0.0
0,0,877,20200,1,452.0,788.0,20.0,1500,0,0,1543,0,-60.0,0.0,16.66
0,0,878,20220,1,452.0,788.0,20.0,1500,0,0,1543,0,-60.0,0.0,16.66
0,0,879,20240,1,452.0,788.0,20.0,1500,0,0,1543,0,-60.0,0.0,16.66
0,0,880,20260,1,452.0,756.0,20.0,1500,0,0,1450,0,-52.0,0.0,133.33
0,0,881,20280,1,452.0,756.0,20.0,1500,0,0,1450,0,-52.0,0.0,133.33
0,0,882,20300,1,460.0,756.0,20.0,1500,0,0,1454,0,-54.0,0.0,100.0
0,0,883,20320,1,460.0,756.0,20.0,1500,0,0,1550,0,-54.0,0.0,-33.33
0,0,884,20340,1,460.0,756.0,20.0,1500,0,0,1550,0,-54.0,0.0,-33.33
0,0,885,20360,1,460.0,784.0,20.0,1500,0,0,1550,0,-61.0,0.0,-116.66
0,0,886,20380,1,452.0,784.0,20.0,1500,0,0,1550,0,-59.0,0.0,-83.33
0,0,887,20400,1,452.0,784.0,20.0,1500,0,0,1550,0,-59.0,0.0,-83.33
0,0,888,20420,1,452.0,784.0,20.0,1500,0,0,1525,0,-59.0,0.0,33.33
0,0,889,20440,1,452.0,784.0,20.0,1500,0,0,1550,0,-59.0,0.0,0.0
0,0,890,20460,1,452.0,792.0,20.0,1500,0,0,1550,0,-61.0,0.0,-33.33
0,0,891,20480,1,452.0,792.0,20.0,1500,0,0,1550,0,-61.0,0.0,-33.33
0,0,892,20500,1,452.0,792.0,20.0,1500,0,0,1550,0,-61.0,0.0,-33.33
0,0,893,20520,1,452.0,792.0,20.0,1500,0,0,1550,0,-61.0,0.0,0.0
0,0,894,20540,1,452.0,792.0,20.0,1500,0,0,1550,0,-61.0,0.0,0.0
0,0,895,20560,1,452.0,724.0,20.0,1500,0,0,1450,0,-44.0,0.0,283.3
0,0,896,20580,1,452.0,724.0,20.0,1500,0,0,1450,0,-44.0,0.0,283.3
0,0,897,20600,1,452.0,724.0,20.0,1500,0,0,1450,0,-44.0,0.0,283.3
0,0,898,20620,1,452.0,724.0,20.0,1500,0,0,1544,0,-44.0,0.0,0.0
0,0,899,20640,1,452.0,724.0,20.0,1500,0,0,1544,0,-44.0,0.0,0.0
0,0,900,20660,1,452.0,696.0,20.0,1500,0,0,1450,0,-37.0,0.0,116.66
0,0,901,20680,1,452.0,696.0,20.0,1500,0,0,1450,0,-37.0,0.0,116.66
0,0,902,20700,1,452.0,696.0,20.0,1500,0,0,1450,0,-37.0,0.0,116.66
0,0,903,20720,1,452.0,696.0,20.0,1500,0,0,1537,0,-37.0,0.0,0.0
0,0,904,20740,1,452.0,696.0,20.0,1500,0,0,1537,0,-37.0,0.0,0.0
0,0,905,20760,1,452.0,1204.0,20.0,1500,0,0,1550,0,-164.0,0.0,-2116.0
0,0,906,20780,1,452.0,1204.0,20.0,1500,0,0,1550,0,-164.0,0.0,-2116.0
0,0,907,20800,1,452.0,1204.0,20.0,1500,0,0,1550,0,-164.0,0.0,-2116.0
0,0,908,20820,1,452.0,1204.0,20.0,1500,0,0,1550,0,-164.0,0.0,0.0
0,0,909,20840,1,452.0,716.0,20.0,1500,0,0,1450,0,-42.0,0.0,2033.0
0,0,910,20860,1,452.0,716.0,20.0,1500,0,0,1450,0,-42.0,0.0,2033.0
0,0,911,20880,1,456.0,716.0,20.0,1500,0,0,1450,0,-43.0,0.0,2016.0
0,0,912,20900,1,456.0,716.0,20.0,1500,0,0,1550,0,-43.0,0.0,-16.66
0,0,913,20920,1,456.0,716.0,20.0,1500,0,0,1550,0,-43.0,0.0,-16.66
0,0,914,20940,1,456.0,720.0,20.0,1500,0,0,1550,0,-44.0,0.0,-16.66
0,0,915,20960,1,456.0,720.0,20.0,1500,0,0,1550,0,-44.0,0.0,-16.66
